,Unnamed: 0,currentTime,Agp_Pos_Sp_FL,Agp_Pos_Sp_FR,Agp_Pos_Sp_RL,Agp_Pos_Sp_RR,Disc_T_Est_FL,Disc_T_Est_FR,Disc_T_Est_RL,Disc_T_Est_RR,Motor_current_FL,Wheel_Decl_FL,Motor_current_FR,Wheel_Decl_FR,Motor_current_RL,Wheel_Decl_RL,Motor_current_RR,Wheel_Decl_RR,Vehicle_speed,Gyro_Rate_Pitch,IMU_Gyro_Rate_Roll,IMU_Gyro_Rate_Yaw,RealizedClampingForce_FL,RealizedClampingForce_FR,RealizedClampingForce_RL,RealizedClampingForce_RR,Piston_position_FL,Piston_position_FR,Piston_position_RL,Piston_position_RR,CF_FL,CF_FR,CF_RL,CF_RR,ESTIMATED_PRESSURE_FL,ESTIMATED_PRESSURE_FR,ESTIMATED_PRESSURE_RL,ESTIMATED_PRESSURE_RR,LATERAL_ACCELERATION,LONGITUDINAL_ACCELERATION,Wheel_Speed_FL,Wheel_Speed_FR,Wheel_Speed_RL,Wheel_Speed_RR,Yaw_rate,Ambiant_Temperature,Init_Disc_CF_FL,POS_MEASUREREV,TMC_filtered,Vitesse_Vehicule_Roues,Pressure_Speed_FL,Position_previous_FL,POS_MEASUREREV_square,POS_MEASUREREV_cube,Estimated_CF_FL,Estimated_CF_previous_FL,Pressure_Speed_previous_FL,CF_previous_FL,Deceleration_g,PosDiff,PreDiff,DecDiff,Lookup_Table,Temp_amb_C,Initial_temp_FL,RPM,Distance_Roues_instant,Distance_Roues,Brake_apply,Brake_release,Time_since_brake_apply,Miles_since_brake_apply,Time_since_brake_release,Miles_since_brake_release,BrakingTime_2,BrakingMiles_2,TimeSinceLastBrake_2,MilesSinceLastBrake_2,Change_Position,Change_pressure,BrakingForce_2,BrakingForce_ma_2,Start_braking_time,End_braking_time,BrakeStartSpeed,LastBrakStartSpeed,LastBrakEndtSpeed,LastDeceleration,conv_heat_trans_coef,temp_change_conv_FL,disc_heating_BTM_FL,temp_change_instant_BTM_1_FL,Pressure_Speed_time_FL
0,0,-3.894809560733847e-05,2.0,2.0,2.0,2.0,64.0,63.0,63.0,63.0,32847.0,27941.0,32807.0,28197.0,32948.0,28357.0,32788.0,27800.0,13.281026912713656,-0.2420222687331099,0.2425789870608593,0.5601113436655498,2.0,2.0,3.0,2.0,-0.2459999999999993,-0.2459999999999993,-0.2449999999999993,-0.2479999999999993,38.0,0.0,293.0,198.0,0.0,0.0,0.0,0.0,7.847999781370163,209.93399620056152,48.459999084472656,48.345001220703125,50.52999877929688,51.540000915527344,6.089999896287917,25.0,38.0,0.0,0.0,48.459999084472656,0.0,0.0,0.0,0.0,-1111.702,-1111.702,0.0,38.0,-22.500228881836076,0.0,0.0,0.0,2.0,25.0,64.0,0.0,0.0,0.0,0.0,0.0,0.0,0.0,0.0,0.0,0.0,0.0,0.0,0.0,0.0,0.0,0.0,0.0,0.0,0.0,0.0,0.0,0.0,0.0,0.0,0.0,0.0,0.0,0.0
1,1,0.0099610519043926,2.0,2.0,2.0,2.0,64.0,63.0,63.0,63.0,32827.0,27938.0,32827.0,28224.0,32929.0,28353.0,32788.0,27824.0,13.29504925700456,-0.5918022659231186,-0.0627033988846777,0.386373583798051,2.0,2.0,3.0,2.0,-0.2459999999999993,-0.2459999999999993,-0.2449999999999993,-0.2479999999999993,38.0,0.0,293.0,198.0,0.0,0.0,0.0,0.0,-4.904999956488609,215.8200025558472,48.685001373291016,48.380001068115234,50.73500061035156,51.16999816894531,10.440000414848328,25.0,38.0,0.0,0.0,48.685001373291016,0.0,0.0,0.0,0.0,-1111.702,-1111.702,0.0,38.0,15.000152587890625,0.0,0.0,37.500381469726705,2.0,25.0,64.0,0.0,0.00013492361174689314,0.00013492361174689314,0.0,0.0,0.0,0.0,0.0,0.0,0.0,0.0,0.009999999999999938,0.00013492361174689314,0.0,0.0,0.0,0.0,0.0,0.0099610519043926,0.0,0.0,48.459999084472656,4864.947954251989,54.90157346226101,63.997535379155174,0.0,63.997535379155174,0.0
2,2,0.0199610519043926,2.0,2.0,2.0,2.0,64.0,63.0,63.0,63.0,32847.0,27978.0,32827.0,28222.0,32990.0,28237.0,32809.0,27962.0,13.30620481538477,-0.1358164307315706,-0.4499404154065837,-0.0356376769513219,2.0,2.0,3.0,2.0,-0.2459999999999993,-0.2459999999999993,-0.2449999999999993,-0.2479999999999993,38.0,0.0,293.0,198.0,0.0,0.0,0.0,0.0,14.714999496936798,154.01699542999268,48.53499984741211,48.55500030517578,51.45000076293945,50.8849983215332,6.089999896287917,25.0,38.0,0.0,0.0,48.53499984741211,0.0,0.0,0.0,0.0,-1111.702,-1111.702,0.0,38.0,-30.500030517578118,0.0,0.0,-45.50018310546874,2.0,25.0,64.0,0.0,0.0001350277794731988,0.00026995139122009196,0.0,0.0,0.0,0.0,0.0,0.0,0.0,0.0,0.019999999999999938,0.00026995139122009196,0.0,0.0,0.0,0.0,0.0,0.0099610519043926,0.0,0.0,48.459999084472656,0.0,54.7695876547527,63.997541304025766,0.0,63.997541304025766,0.0
3,3,0.0299610519043926,2.0,2.0,2.0,2.0,64.0,63.0,63.0,63.0,32809.0,27962.0,32827.0,28204.0,33051.0,28145.0,32788.0,28071.0,13.318155433269048,-0.2612412384464263,0.1759719630285642,0.1957377338249968,2.0,2.0,3.0,2.0,-0.2459999999999993,-0.2459999999999993,-0.2449999999999993,-0.2479999999999993,38.0,0.0,293.0,198.0,0.0,0.0,0.0,0.0,24.52500015497208,148.131000995636,48.84000015258789,48.7400016784668,51.67499923706055,50.61000061035156,-1.7400000259280204,25.0,38.0,0.0,0.0,48.84000015258789,0.0,0.0,0.0,0.0,-1111.702,-1111.702,0.0,38.0,8.000183105468752,0.0,0.0,38.50021362304687,2.0,25.0,64.0,0.0,0.00013524305555555558,0.0004051944467756475,0.0,0.0,0.0,0.0,0.0,0.0,0.0,0.0,0.02999999999999994,0.0004051944467756475,0.0,0.0,0.0,0.0,0.0,0.0099610519043926,0.0,0.0,48.459999084472656,0.0,55.037862386023576,63.99752926111773,0.0,63.99752926111773,0.0
4,4,0.0399610519043926,2.0,2.0,2.0,2.0,64.0,63.0,63.0,63.0,32827.0,27986.0,32827.0,28193.0,32948.0,28140.0,32788.0,28070.0,13.336810387113674,-0.1730238693591896,-0.969761306408104,0.3346507537605403,2.0,2.0,3.0,2.0,-0.2459999999999993,-0.2459999999999993,-0.2449999999999993,-0.2479999999999993,38.0,0.0,293.0,198.0,0.0,0.0,0.0,0.0,17.65799969434738,160.8839988708496,48.7599983215332,48.81499862670898,51.34000015258789,50.75,4.35,25.0,38.0,0.0,0.0,48.7599983215332,0.0,0.0,0.0,0.0,-1111.702,-1111.702,0.0,38.0,-9.00001525878835,0.0,0.0,-17.000198364257102,2.0,25.0,64.0,0.0,0.0001355555534362793,0.0005407500002119268,0.0,0.0,0.0,0.0,0.0,0.0,0.0,0.0,0.03999999999999994,0.0005407500002119268,0.0,0.0,0.0,0.0,0.0,0.0099610519043926,0.0,0.0,48.459999084472656,0.0,54.96752945290566,63.99753241837725,0.0,63.99753241837725,0.0
5,5,0.0499610519043926,2.0,2.0,2.0,2.0,64.0,63.0,63.0,63.0,32827.0,28002.0,32807.0,28210.0,32948.0,28184.0,32768.0,28064.0,13.357700537518747,-0.4924077401429295,-2.3556261229823874,0.3928009675178662,2.0,2.0,3.0,2.0,-0.2459999999999993,-0.2459999999999993,-0.2449999999999993,-0.2479999999999993,38.0,0.0,293.0,198.0,0.0,0.0,0.0,0.0,-7.847999781370163,219.74399089813232,48.84999847412109,48.72999954223633,51.04499816894531,51.18999862670898,6.089999896287917,25.0,38.0,0.0,0.0,48.84999847412109,0.0,0.0,0.0,0.0,-1111.702,-1111.702,0.0,38.0,0.9998321533196024,0.0,0.0,9.999847412107952,2.0,25.0,64.0,0.0,0.00013556943999396432,0.0006763194402058911,0.0,0.0,0.0,0.0,0.0,0.0,0.0,0.0,0.04999999999999994,0.0006763194402058911,0.0,0.0,0.0,0.0,0.0,0.0099610519043926,0.0,0.0,48.459999084472656,0.0,55.04665054336819,63.997528866615596,0.0,63.997528866615596,0.0
6,6,0.0599610519043926,2.0,2.0,2.0,2.0,64.0,63.0,63.0,63.0,32847.0,28027.0,32827.0,28221.0,32948.0,28232.0,32768.0,28065.0,13.375349719090424,-0.4642563945968538,-1.6068203405653927,0.6572308162094385,2.0,2.0,3.0,2.0,-0.2459999999999993,-0.2459999999999993,-0.2449999999999993,-0.2479999999999993,38.0,0.0,293.0,198.0,0.0,0.0,0.0,0.0,1.9619999453425407,215.8200025558472,48.84000015258789,48.75,50.92499923706055,51.44499969482422,6.9600001037120816,25.0,38.0,0.0,0.0,48.84000015258789,0.0,0.0,0.0,0.0,-1111.702,-1111.702,0.0,38.0,3.4999847412109366,0.0,0.0,2.500152587891334,2.0,25.0,64.0,0.0,0.00013568055364820684,0.000811999993854098,0.0,0.0,0.0,0.0,0.0,0.0,0.0,0.0,0.059999999999999935,0.000811999993854098,0.0,0.0,0.0,0.0,0.0,0.0099610519043926,0.0,0.0,48.459999084472656,0.0,55.037862386023576,63.99752926111773,0.0,63.99752926111773,0.0
7,7,0.0699610519043926,2.0,2.0,2.0,2.0,64.0,63.0,63.0,63.0,32827.0,28063.0,32786.0,28236.0,32948.0,28244.0,32768.0,28159.0,13.39048345583219,-0.021365104592754,-1.5357269790814492,0.6571365104592755,2.0,2.0,3.0,2.0,-0.2459999999999993,-0.2459999999999993,-0.2449999999999993,-0.2479999999999993,38.0,0.0,293.0,198.0,0.0,0.0,0.0,0.0,17.65799969434738,176.57999992370603,48.80500030517578,48.80500030517578,51.09000015258789,51.34999847412109,12.179999792575837,25.0,38.0,0.0,0.0,48.80500030517578,0.0,0.0,0.0,0.0,-1111.702,-1111.702,0.0,38.0,-41.500091552734396,0.0,0.0,-45.000076293945334,2.0,25.0,64.0,0.0,0.00013561805619133845,0.0009476180500454364,0.0,0.0,0.0,0.0,0.0,0.0,0.0,0.0,0.06999999999999994,0.0009476180500454364,0.0,0.0,0.0,0.0,0.0,0.0099610519043926,0.0,0.0,48.459999084472656,0.0,55.00709568732616,63.997530642240996,0.0,63.997530642240996,0.0
8,8,0.0799610519043926,2.0,2.0,2.0,2.0,64.0,63.0,63.0,63.0,32848.0,28019.0,32768.0,28228.0,32948.0,28249.0,32788.0,28286.0,13.407454799132298,-0.0344924790614215,-1.972462395307108,-0.0259398324913725,2.0,2.0,3.0,2.0,-0.2459999999999993,-0.2459999999999993,-0.2449999999999993,-0.2479999999999993,38.0,0.0,293.0,198.0,0.0,0.0,0.0,0.0,-14.714999496936798,163.82700204849243,49.220001220703125,48.93999862670898,51.255001068115234,50.83000183105469,11.30999958515167,25.0,38.0,0.0,0.0,49.220001220703125,0.0,0.0,0.0,0.0,-1111.702,-1111.702,0.0,38.0,2.0000457763671857,0.0,0.0,43.500137329101584,2.0,25.0,64.0,0.0,0.00013614583545260952,0.001083763885498046,0.0,0.0,0.0,0.0,0.0,0.0,0.0,0.0,0.07999999999999993,0.001083763885498046,0.0,0.0,0.0,0.0,0.0,0.0099610519043926,0.0,0.0,48.459999084472656,0.0,55.37159191827627,63.99751427993536,0.0,63.99751427993536,0.0
9,9,0.0899610519043926,2.0,2.0,2.0,2.0,64.0,63.0,63.0,63.0,32827.0,28020.0,32827.0,28214.0,32969.0,28320.0,32768.0,28357.0,13.429113686805737,-0.2628195120546022,-1.5392331710689544,-0.15,2.0,2.0,3.0,2.0,-0.2459999999999993,-0.2459999999999993,-0.2449999999999993,-0.2479999999999993,38.0,0.0,293.0,198.0,0.0,0.0,0.0,0.0,10.790999978780746,196.2000012397766,49.20000076293945,49.07500076293945,50.98500061035156,50.77999877929688,-2.610000103712082,25.0,38.0,0.0,0.0,49.20000076293945,0.0,0.0,0.0,0.0,-1111.702,-1111.702,0.0,38.0,-9.499740600585943,0.0,0.0,-11.499786376953129,2.0,25.0,64.0,0.0,0.00013669444719950372,0.0012204583326975496,0.0,0.0,0.0,0.0,0.0,0.0,0.0,0.0,0.08999999999999994,0.0012204583326975496,0.0,0.0,0.0,0.0,0.0,0.0099610519043926,0.0,0.0,48.459999084472656,0.0,55.35404102025196,63.997515067798375,0.0,63.997515067798375,0.0
10,10,0.0999610519043926,2.0,2.0,2.0,2.0,64.0,63.0,63.0,63.0,32807.0,28013.0,32807.0,28194.0,32990.0,28386.0,32788.0,28365.0,13.45024807883634,-0.0476924297917583,0.442306776561812,0.5228201872219777,2.0,2.0,3.0,2.0,-0.2459999999999993,-0.2459999999999993,-0.2449999999999993,-0.2479999999999993,38.0,0.0,293.0,198.0,0.0,0.0,0.0,0.0,44.144999980926514,228.57298851013184,49.29499816894531,49.20000076293945,50.91999816894531,51.025001525878906,-2.610000103712082,25.0,38.0,0.0,0.0,49.29499816894531,0.0,0.0,0.0,0.0,-1111.702,-1111.702,0.0,38.0,-2.500152587890623,0.0,0.0,6.99958801269532,2.0,25.0,64.0,0.0,0.00013679860962761766,0.0013572569423251674,0.0,0.0,0.0,0.0,0.0,0.0,0.0,0.0,0.09999999999999994,0.0013572569423251674,0.0,0.0,0.0,0.0,0.0,0.0099610519043926,0.0,0.0,48.459999084472656,0.0,55.43738963623764,63.997511326263925,0.0,63.997511326263925,0.0
11,11,0.1099610519043926,2.0,2.0,2.0,2.0,64.0,63.0,63.0,63.0,32788.0,28013.0,32827.0,28163.0,32969.0,28488.0,32788.0,28338.0,13.46927798973778,-0.2565195823787273,0.2014543077829694,0.7355065274595758,2.0,2.0,3.0,2.0,-0.2459999999999993,-0.2459999999999993,-0.2449999999999993,-0.2479999999999993,38.0,0.0,293.0,198.0,0.0,0.0,0.0,0.0,4.904999956488609,206.0100078582764,49.31999969482422,49.34000015258789,50.7400016784668,51.48500061035156,11.30999958515167,25.0,38.0,0.0,0.0,49.31999969482422,0.0,0.0,0.0,0.0,-1111.702,-1111.702,0.0,38.0,-18.500137329101573,0.0,0.0,-15.99998474121095,2.0,25.0,64.0,0.0,0.00013696527481079114,0.0014942222171359584,0.0,0.0,0.0,0.0,0.0,0.0,0.0,0.0,0.10999999999999995,0.0014942222171359584,0.0,0.0,0.0,0.0,0.0,0.0099610519043926,0.0,0.0,48.459999084472656,0.0,55.45931954428077,63.99751034182644,0.0,63.99751034182644,0.0
12,12,0.1199610519043926,2.0,2.0,2.0,2.0,64.0,63.0,63.0,63.0,32827.0,27985.0,32807.0,28148.0,32969.0,28502.0,32768.0,28349.0,13.489031067758312,-0.2142333051901205,0.1428833474049397,0.5355832629753012,2.0,2.0,3.0,2.0,-0.2459999999999993,-0.2459999999999993,-0.2449999999999993,-0.2479999999999993,38.0,0.0,293.0,198.0,0.0,0.0,0.0,0.0,-21.581999957561493,196.2000012397766,49.505001068115234,49.36000061035156,51.06999969482422,51.70500183105469,13.05,25.0,38.0,0.0,0.0,49.505001068115234,0.0,0.0,0.0,0.0,-1111.702,-1111.702,0.0,38.0,12.49999999999999,0.0,0.0,31.000137329101562,2.0,25.0,64.0,0.0,0.0001372569455040825,0.0016314791626400409,0.0,0.0,0.0,0.0,0.0,0.0,0.0,0.0,0.11999999999999994,0.0016314791626400409,0.0,0.0,0.0,0.0,0.0,0.0099610519043926,0.0,0.0,48.459999084472656,0.0,55.62151626375348,63.99750306078758,0.0,63.99750306078758,0.0
13,13,0.1299610519043926,2.0,2.0,2.0,2.0,64.0,63.0,63.0,63.0,32868.0,28002.0,32827.0,28126.0,32948.0,28402.0,32768.0,28374.0,13.50925353434458,-0.2,0.9637984721265118,0.7569889911978458,2.0,2.0,3.0,2.0,-0.2459999999999993,-0.2459999999999993,-0.2449999999999993,-0.2479999999999993,38.0,0.0,293.0,198.0,0.0,0.0,0.0,0.0,10.790999978780746,206.0100078582764,49.380001068115234,49.43000030517578,51.84000015258789,51.65999984741211,8.7,25.0,38.0,0.0,0.0,49.380001068115234,0.0,0.0,0.0,0.0,-1111.702,-1111.702,0.0,38.0,-16.999816894531282,0.0,0.0,-29.49981689453127,2.0,25.0,64.0,0.0,0.00013734028074476469,0.0017688194433848055,0.0,0.0,0.0,0.0,0.0,0.0,0.0,0.0,0.12999999999999995,0.0017688194433848055,0.0,0.0,0.0,0.0,0.0,0.0099610519043926,0.0,0.0,48.459999084472656,0.0,55.51193934159588,63.99750797971447,0.0,63.99750797971447,0.0
14,14,0.1399610519043926,2.0,2.0,2.0,2.0,64.0,63.0,63.0,63.0,32827.0,27982.0,32827.0,28129.0,32969.0,28307.0,32788.0,28382.0,13.52606538797479,-0.1155014429728116,0.3395129867553043,0.1662608222960869,2.0,2.0,3.0,2.0,-0.2459999999999993,-0.2459999999999993,-0.2449999999999993,-0.2479999999999993,38.0,0.0,293.0,198.0,0.0,0.0,0.0,0.0,17.65799969434738,209.93399620056152,49.54999923706055,49.3849983215332,52.185001373291016,51.52999877929688,13.920000207424165,25.0,38.0,0.0,0.0,49.54999923706055,0.0,0.0,0.0,0.0,-1111.702,-1111.702,0.0,38.0,9.999847412109366,0.0,0.0,26.999664306640646,2.0,25.0,64.0,0.0,0.00013740277820163276,0.0019062222215864382,0.0,0.0,0.0,0.0,0.0,0.0,0.0,0.0,0.13999999999999993,0.0019062222215864382,0.0,0.0,0.0,0.0,0.0,0.0099610519043926,0.0,0.0,48.459999084472656,0.0,55.660947444745986,63.99750129071523,0.0,63.99750129071523,0.0
15,15,0.1499610519043926,2.0,2.0,2.0,2.0,64.0,63.0,63.0,63.0,32889.0,28005.0,32807.0,28116.0,32990.0,28263.0,32768.0,28363.0,13.539857489068371,0.028294797791156,-0.9974181127174562,0.0072350674029479,2.0,2.0,3.0,2.0,-0.2459999999999993,-0.2459999999999993,-0.2449999999999993,-0.2479999999999993,38.0,0.0,293.0,198.0,0.0,0.0,0.0,0.0,-24.52500015497208,163.82700204849243,49.45000076293945,49.45500183105469,52.09999847412109,51.81499862670898,0.8700000129640102,25.0,38.0,0.0,0.0,49.45000076293945,0.0,0.0,0.0,0.0,-1111.702,-1111.702,0.0,38.0,-14.99977111816334,0.0,0.0,-24.999618530272706,2.0,25.0,64.0,0.0,0.00013750000000000014,0.0020437222215864384,0.0,0.0,0.0,0.0,0.0,0.0,0.0,0.0,0.14999999999999994,0.0020437222215864384,0.0,0.0,0.0,0.0,0.0,0.0099610519043926,0.0,0.0,48.459999084472656,0.0,55.57330965868388,63.997505224790295,0.0,63.997505224790295,0.0
16,16,0.1599610519043926,2.0,2.0,2.0,2.0,64.0,63.0,63.0,63.0,32827.0,28006.0,32827.0,28108.0,33031.0,28248.0,32829.0,28360.0,13.55606812955904,-0.2502157801905594,-0.8997842198094406,0.4288796859865134,2.0,2.0,3.0,2.0,-0.2459999999999993,-0.2459999999999993,-0.2449999999999993,-0.2479999999999993,38.0,0.0,293.0,198.0,0.0,0.0,0.0,0.0,7.847999781370163,160.8839988708496,49.59999847412109,49.52999877929688,51.97999954223633,51.95500183105469,0.0,25.0,38.0,0.0,0.0,49.59999847412109,0.0,0.0,0.0,0.0,-1111.702,-1111.702,0.0,38.0,-13.50021362304761,0.0,0.0,1.4995574951157291,2.0,25.0,64.0,0.0,0.00013756944338480645,0.002181291664971245,0.0,0.0,0.0,0.0,0.0,0.0,0.0,0.0,0.15999999999999995,0.002181291664971245,0.0,0.0,0.0,0.0,0.0,0.0099610519043926,0.0,0.0,48.459999084472656,0.0,55.70475174368552,63.99749932433298,0.0,63.99749932433298,0.0
17,17,0.1699610519043926,2.0,2.0,2.0,2.0,64.0,63.0,63.0,63.0,32868.0,27993.0,32827.0,28126.0,32990.0,28230.0,32768.0,28340.0,13.574807666147716,-0.2571467820864768,-0.8071467820864768,0.4142935641729536,2.0,2.0,3.0,2.0,-0.2459999999999993,-0.2459999999999993,-0.2449999999999993,-0.2479999999999993,38.0,0.0,293.0,198.0,0.0,0.0,0.0,0.0,7.847999781370163,186.38999462127688,49.73500061035156,49.459999084472656,52.02000045776367,52.005001068115234,8.7,25.0,38.0,0.0,0.0,49.73500061035156,0.0,0.0,0.0,0.0,-1111.702,-1111.702,0.0,38.0,17.00019836425851,0.0,0.0,30.50041198730612,2.0,25.0,64.0,0.0,0.00013796527650621176,0.0023192569414774568,0.0,0.0,0.0,0.0,0.0,0.0,0.0,0.0,0.16999999999999993,0.0023192569414774568,0.0,0.0,0.0,0.0,0.0,0.0099610519043926,0.0,0.0,48.459999084472656,0.0,55.8229785396058,63.99749401711296,0.0,63.99749401711296,0.0
18,18,0.1799610519043926,2.0,2.0,2.0,2.0,64.0,63.0,63.0,63.0,32827.0,28030.0,32827.0,28131.0,32969.0,28227.0,32768.0,28302.0,13.590969157487123,0.6796357791575433,-0.8845123435597767,0.14646296932067,2.0,2.0,3.0,2.0,-0.2459999999999993,-0.2459999999999993,-0.2449999999999993,-0.2479999999999993,38.0,0.0,293.0,198.0,0.0,0.0,0.0,0.0,-14.714999496936798,206.0100078582764,49.56499862670898,49.55500030517578,52.005001068115234,52.13999938964844,6.9600001037120816,25.0,38.0,0.0,0.0,49.56499862670898,0.0,0.0,0.0,0.0,-1111.702,-1111.702,0.0,38.0,-22.500228881836627,0.0,0.0,-39.500427246095136,2.0,25.0,64.0,0.0,0.00013791666560702867,0.0024571736070844855,0.0,0.0,0.0,0.0,0.0,0.0,0.0,0.0,0.17999999999999994,0.0024571736070844855,0.0,0.0,0.0,0.0,0.0,0.0099610519043926,0.0,0.0,48.459999084472656,0.0,55.67408942082987,63.99750070076973,0.0,63.99750070076973,0.0
19,19,0.1899610519043926,2.0,2.0,2.0,2.0,64.0,63.0,63.0,63.0,32827.0,28012.0,32848.0,28123.0,32969.0,28180.0,32809.0,28259.0,13.6025489482495,1.019391059767673,-0.2224357609293082,0.4387821195353458,2.0,2.0,3.0,2.0,-0.2459999999999993,-0.2459999999999993,-0.2449999999999993,-0.2479999999999993,38.0,0.0,293.0,198.0,0.0,0.0,0.0,0.0,7.847999781370163,160.8839988708496,49.790000915527344,49.65499877929688,52.22999954223633,52.33000183105469,1.7400000259280204,25.0,38.0,0.0,0.0,49.790000915527344,0.0,0.0,0.0,0.0,-1111.702,-1111.702,0.0,38.0,-9.00001525878908,0.0,0.0,13.500213623047546,2.0,25.0,64.0,0.0,0.00013799305491977282,0.002595166662004258,0.0,0.0,0.0,0.0,0.0,0.0,0.0,0.0,0.18999999999999995,0.002595166662004258,0.0,0.0,0.0,0.0,0.0,0.0099610519043926,0.0,0.0,48.459999084472656,0.0,55.871124268974135,63.997491855843585,0.0,63.997491855843585,0.0
20,20,0.1999610519043926,2.0,2.0,2.0,2.0,64.0,63.0,63.0,63.0,32847.0,28001.0,32869.0,28123.0,32969.0,28156.0,32788.0,28159.0,13.615207851275994,1.091302575301097,0.4782360542153574,0.3760922740967091,2.0,2.0,3.0,2.0,-0.2459999999999993,-0.2459999999999993,-0.2449999999999993,-0.2479999999999993,38.0,0.0,293.0,198.0,0.0,0.0,0.0,0.0,30.410999059677124,148.131000995636,49.880001068115234,49.69499969482422,52.28499984741211,52.494998931884766,8.7,25.0,38.0,0.0,0.0,49.880001068115234,0.0,0.0,0.0,0.0,-1111.702,-1111.702,0.0,38.0,5.50003051757812,0.0,0.0,14.5000457763672,2.0,25.0,64.0,0.0,0.00013843055831061442,0.0027335972203148726,0.0,0.0,0.0,0.0,0.0,0.0,0.0,0.0,0.19999999999999993,0.0027335972203148726,0.0,0.0,0.0,0.0,0.0,0.0099610519043926,0.0,0.0,48.459999084472656,0.0,55.949882658402615,63.99748832036734,0.0,63.99748832036734,0.0
21,21,0.2099610519043926,2.0,2.0,2.0,2.0,64.0,63.0,63.0,63.0,32868.0,28023.0,32827.0,28125.0,32990.0,28133.0,32788.0,28120.0,13.62901178337893,1.6112093990183136,0.8982054827606829,0.4352015665030523,2.0,2.0,3.0,2.0,-0.2459999999999993,-0.2459999999999993,-0.2449999999999993,-0.2479999999999993,38.0,0.0,293.0,198.0,0.0,0.0,0.0,0.0,-4.904999956488609,163.82700204849243,49.82500076293945,49.75,52.275001525878906,52.86000061035156,6.089999896287917,25.0,38.0,0.0,0.0,49.82500076293945,0.0,0.0,0.0,0.0,-1111.702,-1111.702,0.0,38.0,3.00025939941406,0.0,0.0,-2.49977111816406,2.0,25.0,64.0,0.0,0.0001384791692097983,0.002872076389524671,0.0,0.0,0.0,0.0,0.0,0.0,0.0,0.0,0.20999999999999994,0.002872076389524671,0.0,0.0,0.0,0.0,0.0,0.0099610519043926,0.0,0.0,48.459999084472656,0.0,55.901756064665726,63.997490480777515,0.0,63.997490480777515,0.0
22,22,0.2199610519043926,2.0,2.0,2.0,2.0,64.0,63.0,63.0,63.0,32827.0,28047.0,32807.0,28118.0,32990.0,28078.0,32809.0,28168.0,13.644572793128372,1.39981339243331,1.3359542097286017,0.8359542097286015,2.0,2.0,3.0,2.0,-0.2459999999999993,-0.2459999999999993,-0.2449999999999993,-0.2479999999999993,38.0,0.0,293.0,198.0,0.0,0.0,0.0,0.0,17.65799969434738,173.63699674606323,49.79499816894531,49.84999847412109,52.494998931884766,52.540000915527344,7.829999792575835,25.0,38.0,0.0,0.0,49.79499816894531,0.0,0.0,0.0,0.0,-1111.702,-1111.702,0.0,38.0,-17.500305175781282,0.0,0.0,-20.50056457519534,2.0,25.0,64.0,0.0,0.00013836110962761787,0.003010437499152289,0.0,0.0,0.0,0.0,0.0,0.0,0.0,0.0,0.21999999999999995,0.003010437499152289,0.0,0.0,0.0,0.0,0.0,0.0099610519043926,0.0,0.0,48.459999084472656,0.0,55.87549814488893,63.997491659499616,0.0,63.997491659499616,0.0
23,23,0.2299610519043926,2.0,2.0,2.0,2.0,64.0,63.0,63.0,63.0,32847.0,28044.0,32848.0,28105.0,32929.0,28034.0,32788.0,28249.0,13.661367072305037,1.3922663051758608,1.1886684741206972,1.0690652207034423,2.0,2.0,3.0,2.0,-0.2459999999999993,-0.2459999999999993,-0.2449999999999993,-0.2479999999999993,38.0,0.0,293.0,198.0,0.0,0.0,0.0,0.0,17.65799969434738,196.2000012397766,49.970001220703125,49.935001373291016,52.625,52.119998931884766,15.65999958515167,25.0,38.0,0.0,0.0,49.970001220703125,0.0,0.0,0.0,0.0,-1111.702,-1111.702,0.0,38.0,-1.4999389648437487,0.0,0.0,16.000366210937532,2.0,25.0,64.0,0.0,0.00013856249915228922,0.0031489999983045783,0.0,0.0,0.0,0.0,0.0,0.0,0.0,0.0,0.22999999999999993,0.0031489999983045783,0.0,0.0,0.0,0.0,0.0,0.0099610519043926,0.0,0.0,48.459999084472656,0.0,56.028609790609906,63.99748478629454,0.0,63.99748478629454,0.0
24,24,0.2399610519043926,2.0,2.0,2.0,2.0,64.0,63.0,63.0,63.0,32827.0,28051.0,32827.0,28135.0,32990.0,27938.0,32809.0,28337.0,13.676779703581811,1.5270579490094558,0.7264735033018144,0.6341208536319959,2.0,2.0,3.0,2.0,-0.2459999999999993,-0.2459999999999993,-0.2449999999999993,-0.2479999999999993,38.0,0.0,293.0,198.0,0.0,0.0,0.0,0.0,10.790999978780746,200.12400150299072,49.98500061035156,49.810001373291016,52.92499923706055,51.84999847412109,19.140000414848327,25.0,38.0,0.0,0.0,49.98500061035156,0.0,0.0,0.0,0.0,-1111.702,-1111.702,0.0,38.0,0.0,0.0,0.0,1.4999389648437487,2.0,25.0,64.0,0.0,0.00013882639143202052,0.0032878263897365987,0.0,0.0,0.0,0.0,0.0,0.0,0.0,0.0,0.23999999999999994,0.0032878263897365987,0.0,0.0,0.0,0.0,0.0,0.0099610519043926,0.0,0.0,48.459999084472656,0.0,56.041727389239696,63.9974841974436,0.0,63.9974841974436,0.0
25,25,0.2499610519043926,2.0,2.0,2.0,2.0,64.0,63.0,63.0,63.0,32768.0,28074.0,32807.0,28171.0,32948.0,27910.0,32768.0,28398.0,13.691159363172728,1.4643558650761614,-0.3349075516241431,0.4215337976142422,2.0,2.0,3.0,2.0,-0.2459999999999993,-0.2459999999999993,-0.2449999999999993,-0.2479999999999993,38.0,0.0,293.0,198.0,0.0,0.0,0.0,0.0,7.847999781370163,186.38999462127688,49.98500061035156,49.755001068115234,52.77000045776367,51.810001373291016,9.570000207424163,25.0,38.0,0.0,0.0,49.98500061035156,0.0,0.0,0.0,0.0,-1111.702,-1111.702,0.0,38.0,-30.99975585937497,0.0,0.0,-30.99975585937497,2.0,25.0,64.0,0.0,0.00013884722391764337,0.003426673613654242,0.0,0.0,0.0,0.0,0.0,0.0,0.0,0.0,0.24999999999999994,0.003426673613654242,0.0,0.0,0.0,0.0,0.0,0.0099610519043926,0.0,0.0,48.459999084472656,0.0,56.041727389239696,63.9974841974436,0.0,63.9974841974436,0.0
26,26,0.2599610519043926,2.0,2.0,2.0,2.0,64.0,63.0,63.0,63.0,32827.0,28038.0,32827.0,28174.0,32969.0,27916.0,32829.0,28413.0,13.70750263656834,1.278469311372984,0.0145920658810475,0.9574747380378016,2.0,2.0,3.0,2.0,-0.2459999999999993,-0.2459999999999993,-0.2449999999999993,-0.2479999999999993,38.0,0.0,293.0,198.0,0.0,0.0,0.0,0.0,27.46799886226654,180.50400018692017,50.29499816894531,49.91999816894531,52.584999084472656,52.025001525878906,6.9600001037120816,25.0,38.0,0.0,0.0,50.29499816894531,0.0,0.0,0.0,0.0,-1111.702,-1111.702,0.0,38.0,3.9997100830077867,0.0,0.0,34.999465942382756,2.0,25.0,64.0,0.0,0.0001392777760823569,0.003565951389736599,0.0,0.0,0.0,0.0,0.0,0.0,0.0,0.0,0.25999999999999995,0.003565951389736599,0.0,0.0,0.0,0.0,0.0,0.0099610519043926,0.0,0.0,48.459999084472656,0.0,56.31263989694846,63.99747203614305,0.0,63.99747203614305,0.0
27,27,0.2699610519043927,2.0,2.0,2.0,2.0,64.0,63.0,63.0,63.0,32848.0,28044.0,32786.0,28179.0,32948.0,27974.0,32788.0,28407.0,13.724385943664888,1.5500505445855666,-0.2000505445855663,0.6642207283899861,2.0,2.0,3.0,2.0,-0.2459999999999993,-0.2459999999999993,-0.2449999999999993,-0.2479999999999993,38.0,0.0,293.0,198.0,0.0,0.0,0.0,0.0,24.52500015497208,209.93399620056152,50.255001068115234,50.025001525878906,52.31999969482422,52.2599983215332,18.269999170303343,25.0,38.0,0.0,0.0,50.255001068115234,0.0,0.0,0.0,0.0,-1111.702,-1111.702,0.0,38.0,12.000274658203114,0.0,0.0,8.000564575195327,2.0,25.0,64.0,0.0,0.00013965277671814055,0.0037056041664547392,0.0,0.0,0.0,0.0,0.0,0.0,0.0,0.0,0.27,0.0037056041664547392,0.0,0.0,0.0,0.0,0.0,0.0099610519043926,0.0,0.0,48.459999084472656,0.0,56.27770638827779,63.99747360431296,0.0,63.99747360431296,0.0
28,28,0.2799610519043927,2.0,2.0,2.0,2.0,64.0,63.0,63.0,63.0,32868.0,28075.0,32827.0,28173.0,32948.0,28049.0,32809.0,28402.0,13.73907797541758,1.9820563877981607,-0.4198028390214051,0.5575492902446487,2.0,2.0,3.0,2.0,-0.2459999999999993,-0.2459999999999993,-0.2449999999999993,-0.2479999999999993,38.0,0.0,293.0,198.0,0.0,0.0,0.0,0.0,-7.847999781370163,203.0669927597046,50.1349983215332,50.15999984741211,52.09999847412109,52.54999923706055,10.440000414848328,25.0,38.0,0.0,0.0,50.1349983215332,0.0,0.0,0.0,0.0,-1111.702,-1111.702,0.0,38.0,-13.500213623047014,0.0,0.0,-25.500488281250128,2.0,25.0,64.0,0.0,0.00013943055470784518,0.0038450347211625843,0.0,0.0,0.0,0.0,0.0,0.0,0.0,0.0,0.28,0.0038450347211625843,0.0,0.0,0.0,0.0,0.0,0.0099610519043926,0.0,0.0,48.459999084472656,0.0,56.17285913390221,63.99747831092068,0.0,63.99747831092068,0.0
29,29,0.2899610519043926,2.0,2.0,2.0,2.0,64.0,63.0,63.0,63.0,32889.0,28077.0,32768.0,28160.0,32990.0,28069.0,32726.0,28413.0,13.752568222889144,1.2062278948359502,0.6047151314550623,0.971886052582025,2.0,2.0,3.0,2.0,-0.2459999999999993,-0.2459999999999993,-0.2449999999999993,-0.2479999999999993,38.0,0.0,293.0,198.0,0.0,0.0,0.0,0.0,37.27799952030182,180.50400018692017,50.27000045776367,50.27000045776367,52.32500076293945,52.584999084472656,9.570000207424163,25.0,38.0,0.0,0.0,50.27000045776367,0.0,0.0,0.0,0.0,-1111.702,-1111.702,0.0,38.0,-4.999923706054683,0.0,0.0,8.50028991699233,2.0,25.0,64.0,0.0,0.00013945138719346646,0.0039844861083560505,0.0,0.0,0.0,0.0,0.0,0.0,0.0,0.0,0.2899999999999999,0.0039844861083560505,0.0,0.0,0.0,0.0,0.0,0.0099610519043926,0.0,0.0,48.459999084472656,0.0,56.29080758704806,63.99747301619838,0.0,63.99747301619838,0.0
30,30,0.2999610519043926,2.0,2.0,2.0,2.0,64.0,63.0,63.0,63.0,32827.0,28083.0,32827.0,28159.0,32929.0,28111.0,32768.0,28418.0,13.768116318491211,1.218197212179085,1.094345121313399,0.5874576665075162,2.0,2.0,3.0,2.0,-0.2459999999999993,-0.2459999999999993,-0.2449999999999993,-0.2479999999999993,38.0,0.0,293.0,198.0,0.0,0.0,0.0,0.0,24.52500015497208,170.69400548934937,50.31999969482422,50.27000045776367,52.369998931884766,52.57500076293945,18.269999170303343,25.0,38.0,0.0,0.0,50.31999969482422,0.0,0.0,0.0,0.0,-1111.702,-1111.702,0.0,38.0,-15.499877929686775,0.0,0.0,-10.499954223632091,2.0,25.0,64.0,0.0,0.0001397083335452611,0.004124194441901312,0.0,0.0,0.0,0.0,0.0,0.0,0.0,0.0,0.29999999999999993,0.004124194441901312,0.0,0.0,0.0,0.0,0.0,0.0099610519043926,0.0,0.0,48.459999084472656,0.0,56.3344731508345,63.99747105604539,0.0,63.99747105604539,0.0
31,31,0.3099610519043926,2.0,2.0,2.0,2.0,64.0,63.0,63.0,63.0,32929.0,28073.0,32848.0,28165.0,32990.0,28121.0,32829.0,28420.0,13.784012536077928,1.7210008000835757,0.5077261817042149,0.7997277818713664,2.0,2.0,3.0,2.0,-0.2459999999999993,-0.2459999999999993,-0.2449999999999993,-0.2479999999999993,38.0,0.0,293.0,198.0,0.0,0.0,0.0,0.0,-11.772000044584274,209.93399620056152,50.47499847412109,50.31999969482422,52.540000915527344,52.665000915527344,8.7,25.0,38.0,0.0,0.0,50.47499847412109,0.0,0.0,0.0,0.0,-1111.702,-1111.702,0.0,38.0,10.999679565428968,0.0,0.0,26.499557495115745,2.0,25.0,64.0,0.0,0.0001399930530124242,0.004264187494913736,0.0,0.0,0.0,0.0,0.0,0.0,0.0,0.0,0.30999999999999994,0.004264187494913736,0.0,0.0,0.0,0.0,0.0,0.0099610519043926,0.0,0.0,48.459999084472656,0.0,56.46977679555451,63.99746498224734,0.0,63.99746498224734,0.0
32,32,0.3199610519043926,2.0,2.0,2.0,2.0,64.0,63.0,63.0,63.0,32868.0,28105.0,32827.0,28155.0,32969.0,28111.0,32768.0,28448.0,13.79748281101202,1.3279125883393643,0.0137466631867527,0.9358340748473885,2.0,2.0,3.0,2.0,-0.2459999999999993,-0.2459999999999993,-0.2449999999999993,-0.2479999999999993,38.0,0.0,293.0,198.0,0.0,0.0,0.0,0.0,17.65799969434738,190.31399488449097,50.3650016784668,50.459999084472656,52.70000076293945,52.65499877929688,14.790000414848327,25.0,38.0,0.0,0.0,50.3650016784668,0.0,0.0,0.0,0.0,-1111.702,-1111.702,0.0,38.0,-3.9997100830084973,0.0,0.0,-14.999389648437464,2.0,25.0,64.0,0.0,0.00014005555576748332,0.004404243050681219,0.0,0.0,0.0,0.0,0.0,0.0,0.0,0.0,0.31999999999999995,0.004404243050681219,0.0,0.0,0.0,0.0,0.0,0.0099610519043926,0.0,0.0,48.459999084472656,0.0,56.37376632898199,63.997469292169455,0.0,63.997469292169455,0.0
33,33,0.3299610519043927,2.0,2.0,2.0,2.0,64.0,63.0,63.0,63.0,32827.0,28122.0,32848.0,28146.0,32948.0,28083.0,32768.0,28466.0,13.810792823247262,1.164132379445258,-0.7798747747153071,0.5206618972262901,2.0,2.0,3.0,2.0,-0.2459999999999993,-0.2459999999999993,-0.2449999999999993,-0.2479999999999993,38.0,0.0,293.0,198.0,0.0,0.0,0.0,0.0,24.52500015497208,170.69400548934937,50.40499877929688,50.5099983215332,52.94499969482422,52.665000915527344,16.529999792575836,25.0,38.0,0.0,0.0,50.40499877929688,0.0,0.0,0.0,0.0,-1111.702,-1111.702,0.0,38.0,-8.50028991699147,0.0,0.0,-4.500579833982973,2.0,25.0,64.0,0.0,0.00013995833396911712,0.004544201384650336,0.0,0.0,0.0,0.0,0.0,0.0,0.0,0.0,0.33,0.004544201384650336,0.0,0.0,0.0,0.0,0.0,0.0099610519043926,0.0,0.0,48.459999084472656,0.0,56.40868304463102,63.99746772475357,0.0,63.99746772475357,0.0
34,34,0.3399610519043927,2.0,2.0,2.0,2.0,64.0,63.0,63.0,63.0,32848.0,28132.0,32827.0,28166.0,32990.0,28066.0,32809.0,28502.0,13.826620390061166,1.234590850628183,-2.6341124378777545,0.2385228734295421,2.0,2.0,3.0,2.0,-0.2459999999999993,-0.2459999999999993,-0.2449999999999993,-0.2479999999999993,38.0,0.0,293.0,198.0,0.0,0.0,0.0,0.0,1.9619999453425407,180.50400018692017,50.4900016784668,50.42499923706055,53.05500030517578,52.595001220703125,7.829999792575835,25.0,38.0,0.0,0.0,50.4900016784668,0.0,0.0,0.0,0.0,-1111.702,-1111.702,0.0,38.0,-9.499740600585929,0.0,0.0,-0.9994506835944588,2.0,25.0,64.0,0.0,0.00014013194508022745,0.004684333329730564,0.0,0.0,0.0,0.0,0.0,0.0,0.0,0.0,0.34,0.004684333329730564,0.0,0.0,0.0,0.0,0.0,0.0099610519043926,0.0,0.0,48.459999084472656,0.0,56.48286874095403,63.99746439454827,0.0,63.99746439454827,0.0
35,35,0.3499610519043927,2.0,2.0,2.0,2.0,64.0,63.0,63.0,63.0,32847.0,28130.0,32827.0,28211.0,32990.0,28128.0,32768.0,28510.0,13.842511452935224,1.292839008805789,-3.0356780176115783,0.457034052834734,2.0,2.0,3.0,2.0,-0.2459999999999993,-0.2459999999999993,-0.2449999999999993,-0.2479999999999993,38.0,0.0,293.0,198.0,0.0,0.0,0.0,0.0,4.904999956488609,212.8770112991333,50.584999084472656,50.29499816894531,52.70000076293945,52.709999084472656,3.4800000518560408,25.0,38.0,0.0,0.0,50.584999084472656,0.0,0.0,0.0,0.0,-1111.702,-1111.702,0.0,38.0,-13.00010681152357,0.0,0.0,-3.500366210937642,2.0,25.0,64.0,0.0,0.0001403819455040827,0.004824715275234646,0.0,0.0,0.0,0.0,0.0,0.0,0.0,0.0,0.35000000000000003,0.004824715275234646,0.0,0.0,0.0,0.0,0.0,0.0099610519043926,0.0,0.0,48.459999084472656,0.0,56.56574456995229,63.99746067424214,0.0,63.99746067424214,0.0
36,36,0.3599610519043926,2.0,2.0,2.0,2.0,64.0,63.0,63.0,63.0,32868.0,28125.0,32807.0,28249.0,32990.0,28173.0,32809.0,28484.0,13.856018957414884,0.6130706044183907,-2.4060036916422414,0.8863977850146553,2.0,2.0,3.0,2.0,-0.2459999999999993,-0.2459999999999993,-0.2449999999999993,-0.2479999999999993,38.0,0.0,293.0,198.0,0.0,0.0,0.0,0.0,30.410999059677124,203.0669927597046,50.71500015258789,50.30500030517578,52.665000915527344,52.84000015258789,8.7,25.0,38.0,0.0,0.0,50.71500015258789,0.0,0.0,0.0,0.0,-1111.702,-1111.702,0.0,38.0,-4.0000915527343714,0.0,0.0,9.0000152587892,2.0,25.0,64.0,0.0,0.00014069444338480488,0.004965409718619451,0.0,0.0,0.0,0.0,0.0,0.0,0.0,0.0,0.35999999999999993,0.004965409718619451,0.0,0.0,0.0,0.0,0.0,0.0099610519043926,0.0,0.0,48.459999084472656,0.0,56.67910216483572,63.99745558560639,0.0,63.99745558560639,0.0
37,37,0.3699610519043926,2.0,2.0,2.0,2.0,64.0,63.0,63.0,63.0,32848.0,28127.0,32827.0,28260.0,32948.0,28221.0,32788.0,28475.0,13.867210786595932,0.5,-2.3000000000000003,0.5635029554929416,2.0,2.0,3.0,2.0,-0.2459999999999993,-0.2459999999999993,-0.2449999999999993,-0.2479999999999993,38.0,0.0,293.0,198.0,0.0,0.0,0.0,0.0,1.9619999453425407,163.82700204849243,50.755001068115234,50.46500015258789,52.665000915527344,53.084999084472656,16.529999792575836,25.0,38.0,0.0,0.0,50.755001068115234,0.0,0.0,0.0,0.0,-1111.702,-1111.702,0.0,38.0,-9.000015258789054,0.0,0.0,-4.999923706054682,2.0,25.0,64.0,0.0,0.0001409305572509767,0.005106340275870427,0.0,0.0,0.0,0.0,0.0,0.0,0.0,0.0,0.36999999999999994,0.005106340275870427,0.0,0.0,0.0,0.0,0.0,0.0099610519043926,0.0,0.0,48.459999084472656,0.0,56.71396906960558,63.99745402042707,0.0,63.99745402042707,0.0
38,38,0.3799610519043926,2.0,2.0,2.0,2.0,64.0,63.0,63.0,63.0,32827.0,28127.0,32827.0,28254.0,32989.0,28275.0,32768.0,28449.0,13.880353213763428,0.5,-1.2798763621194946,0.5,2.0,2.0,3.0,2.0,-0.2459999999999993,-0.2459999999999993,-0.2449999999999993,-0.2479999999999993,38.0,0.0,293.0,198.0,0.0,0.0,0.0,0.0,10.790999978780746,163.82700204849243,50.845001220703125,50.65499877929688,52.650001525878906,53.185001373291016,8.7,25.0,38.0,0.0,0.0,50.845001220703125,0.0,0.0,0.0,0.0,-1111.702,-1111.702,0.0,38.0,-25.499725341796,0.0,0.0,-16.499710083006946,2.0,25.0,64.0,0.0,0.00014111111429002563,0.005247451390160453,0.0,0.0,0.0,0.0,0.0,0.0,0.0,0.0,0.37999999999999995,0.005247451390160453,0.0,0.0,0.0,0.0,0.0,0.0099610519043926,0.0,0.0,48.459999084472656,0.0,56.792395850741734,63.99745049984018,0.0,63.99745049984018,0.0
39,39,0.3899610519043927,2.0,2.0,2.0,2.0,64.0,63.0,63.0,63.0,32807.0,28090.0,32827.0,28244.0,32948.0,28290.0,32768.0,28435.0,13.896640383157012,0.0006001663338552,-0.0179670270566865,0.9993998336661448,2.0,2.0,3.0,2.0,-0.2459999999999993,-0.2459999999999993,-0.2449999999999993,-0.2479999999999993,38.0,0.0,293.0,198.0,0.0,0.0,0.0,0.0,27.46799886226654,186.38999462127688,51.09999847412109,50.77999877929688,52.834999084472656,53.25,8.7,25.0,38.0,0.0,0.0,51.09999847412109,0.0,0.0,0.0,0.0,-1111.702,-1111.702,0.0,38.0,12.49999999999999,0.0,0.0,37.999725341795994,2.0,25.0,64.0,0.0,0.00014159027735392344,0.005389041667514376,0.0,0.0,0.0,0.0,0.0,0.0,0.0,0.0,0.39,0.005389041667514376,0.0,0.0,0.0,0.0,0.0,0.0099610519043926,0.0,0.0,48.459999084472656,0.0,57.014436693699516,63.997440532403864,0.0,63.997440532403864,0.0
40,40,0.3999610519043927,2.0,2.0,2.0,2.0,64.0,63.0,63.0,63.0,32909.0,28110.0,32827.0,28248.0,32990.0,28226.0,32788.0,28422.0,13.913749457124874,0.3623295635886379,0.6623295635886379,1.1,2.0,2.0,3.0,2.0,-0.2459999999999993,-0.2459999999999993,-0.2449999999999993,-0.2479999999999993,38.0,0.0,293.0,198.0,0.0,0.0,0.0,0.0,20.600999891757965,219.74399089813232,50.97499847412109,50.79499816894531,53.375,53.26499938964844,19.140000414848327,25.0,38.0,0.0,0.0,50.97499847412109,0.0,0.0,0.0,0.0,-1111.702,-1111.702,0.0,38.0,-14.00032043457101,0.0,0.0,-26.500320434571,2.0,25.0,64.0,0.0,0.00014177082909478094,0.005530812496609157,0.0,0.0,0.0,0.0,0.0,0.0,0.0,0.0,0.4,0.005530812496609157,0.0,0.0,0.0,0.0,0.0,0.0099610519043926,0.0,0.0,48.459999084472656,0.0,56.90562250532606,63.99744541708367,0.0,63.99744541708367,0.0
41,41,0.4099610519043927,2.0,2.0,2.0,2.0,64.0,63.0,63.0,63.0,32847.0,28090.0,32786.0,28256.0,33010.0,28201.0,32788.0,28475.0,13.92978198863114,0.7498077603770272,0.964148400269305,1.2284890401615831,2.0,2.0,3.0,2.0,-0.2459999999999993,-0.2459999999999993,-0.2449999999999993,-0.2479999999999993,38.0,0.0,293.0,198.0,0.0,0.0,0.0,0.0,14.714999496936798,200.12400150299072,51.1150016784668,50.80500030517578,53.46500015258789,53.26499938964844,19.140000414848327,25.0,38.0,0.0,0.0,51.1150016784668,0.0,0.0,0.0,0.0,-1111.702,-1111.702,0.0,38.0,11.500167846679805,0.0,0.0,25.500488281250817,2.0,25.0,64.0,0.0,0.00014179166687859442,0.0056726041634877515,0.0,0.0,0.0,0.0,0.0,0.0,0.0,0.0,0.41000000000000003,0.0056726041634877515,0.0,0.0,0.0,0.0,0.0,0.0099610519043926,0.0,0.0,48.459999084472656,0.0,57.02749324721211,63.99743994629391,0.0,63.99743994629391,0.0
42,42,0.4199610519043926,2.0,2.0,2.0,2.0,64.0,63.0,63.0,63.0,32827.0,28114.0,32827.0,28275.0,32969.0,28204.0,32809.0,28556.0,13.947298139653324,0.0266609627148629,1.4296327984917427,1.1640734403016515,2.0,2.0,3.0,2.0,-0.2459999999999993,-0.2459999999999993,-0.2449999999999993,-0.2479999999999993,38.0,0.0,293.0,198.0,0.0,0.0,0.0,0.0,27.46799886226654,209.93399620056152,51.0,50.79999923706055,53.369998931884766,52.91999816894531,21.75,25.0,38.0,0.0,0.0,51.0,0.0,0.0,0.0,0.0,-1111.702,-1111.702,0.0,38.0,-2.0000457763671857,0.0,0.0,-13.50021362304699,2.0,25.0,64.0,0.0,0.00014182639122009132,0.005814430554707843,0.0,0.0,0.0,0.0,0.0,0.0,0.0,0.0,0.41999999999999993,0.005814430554707843,0.0,0.0,0.0,0.0,0.0,0.0099610519043926,0.0,0.0,48.459999084472656,0.0,56.92739136341366,63.997444439877405,0.0,63.997444439877405,0.0
43,43,0.4299610519043926,2.0,2.0,2.0,2.0,64.0,63.0,63.0,63.0,32848.0,28122.0,32807.0,28281.0,32948.0,28178.0,32788.0,28565.0,13.963383522119791,-0.4387234289841033,0.7378722847857675,0.7689361423928838,2.0,2.0,3.0,2.0,-0.2459999999999993,-0.2459999999999993,-0.2449999999999993,-0.2479999999999993,38.0,0.0,293.0,198.0,0.0,0.0,0.0,0.0,-4.904999956488609,222.6870059967041,51.02000045776367,50.8849983215332,53.45500183105469,52.875,20.00999958515167,25.0,38.0,0.0,0.0,51.02000045776367,0.0,0.0,0.0,0.0,-1111.702,-1111.702,0.0,38.0,-29.499816894530515,0.0,0.0,-27.49977111816333,2.0,25.0,64.0,0.0,0.00014169444508022746,0.00595612499978807,0.0,0.0,0.0,0.0,0.0,0.0,0.0,0.0,0.42999999999999994,0.00595612499978807,0.0,0.0,0.0,0.0,0.0,0.0099610519043926,0.0,0.0,48.459999084472656,0.0,56.94480409531731,63.9974436582181,0.0,63.9974436582181,0.0
44,44,0.4399610519043926,2.0,2.0,2.0,2.0,64.0,63.0,63.0,63.0,32868.0,28088.0,32848.0,28296.0,32969.0,28175.0,32788.0,28491.0,13.977299813215076,-0.1620405016746844,-0.7095930560105975,0.5310202508373423,2.0,2.0,3.0,2.0,-0.2459999999999993,-0.2459999999999993,-0.2449999999999993,-0.2479999999999993,38.0,0.0,293.0,198.0,0.0,0.0,0.0,0.0,10.790999978780746,190.31399488449097,51.31499862670898,50.900001525878906,53.46500015258789,53.29499816894531,12.179999792575837,25.0,38.0,0.0,0.0,51.31499862670898,0.0,0.0,0.0,0.0,-1111.702,-1111.702,0.0,38.0,-0.5001068115241448,0.0,0.0,28.99971008300637,2.0,25.0,64.0,0.0,0.0001421319431728788,0.006098256942960949,0.0,0.0,0.0,0.0,0.0,0.0,0.0,0.0,0.43999999999999995,0.006098256942960949,0.0,0.0,0.0,0.0,0.0,0.0099610519043926,0.0,0.0,48.459999084472656,0.0,57.201460382558245,63.99743213689318,0.0,63.99743213689318,0.0
45,45,0.4499610519043927,2.0,2.0,2.0,2.0,64.0,63.0,63.0,63.0,32847.0,28085.0,32827.0,28296.0,32969.0,28224.0,32809.0,28368.0,13.99212492594484,-0.4856400660466097,-0.1358709716793797,1.099884547183615,2.0,2.0,3.0,2.0,-0.2459999999999993,-0.2459999999999993,-0.2449999999999993,-0.2479999999999993,38.0,0.0,293.0,198.0,0.0,0.0,0.0,0.0,37.27799952030182,160.8839988708496,51.31999969482422,51.005001068115234,53.27999877929688,53.900001525878906,8.7,25.0,38.0,0.0,0.0,51.31999969482422,0.0,0.0,0.0,0.0,-1111.702,-1111.702,0.0,38.0,-9.500122070312491,0.0,0.0,-9.000015258788347,2.0,25.0,64.0,0.0,0.00014254860877990815,0.0062408055517408564,0.0,0.0,0.0,0.0,0.0,0.0,0.0,0.0,0.45,0.0062408055517408564,0.0,0.0,0.0,0.0,0.0,0.0099610519043926,0.0,0.0,48.459999084472656,0.0,57.205808642632775,63.99743194169941,0.0,63.99743194169941,0.0
46,46,0.4599610519043927,2.0,2.0,2.0,2.0,64.0,63.0,63.0,63.0,32848.0,28076.0,32827.0,28288.0,32969.0,28268.0,32788.0,28259.0,14.00990637190482,-0.8076741367179354,0.1717827578119569,1.328837068358968,2.0,2.0,3.0,2.0,-0.2459999999999993,-0.2459999999999993,-0.2449999999999993,-0.2479999999999993,38.0,0.0,293.0,198.0,0.0,0.0,0.0,0.0,56.89799785614014,180.50400018692017,51.415000915527344,51.1349983215332,53.21500015258789,54.275001525878906,20.88000082969665,25.0,38.0,0.0,0.0,51.415000915527344,0.0,0.0,0.0,0.0,-1111.702,-1111.702,0.0,38.0,5.50003051757812,0.0,0.0,15.00015258789061,2.0,25.0,64.0,0.0,0.00014268750084771065,0.006383493052588567,0.0,0.0,0.0,0.0,0.0,0.0,0.0,0.0,0.46,0.006383493052588567,0.0,0.0,0.0,0.0,0.0,0.0099610519043926,0.0,0.0,48.459999084472656,0.0,57.28839130801861,63.99742823455652,0.0,63.99742823455652,0.0
47,47,0.4699610519043927,2.0,2.0,2.0,2.0,64.0,63.0,63.0,63.0,32889.0,28088.0,32827.0,28304.0,33031.0,28253.0,32768.0,28200.0,14.027968035439612,-0.1201377016836533,0.0282676945138008,1.0924015417707014,2.0,2.0,3.0,2.0,-0.2459999999999993,-0.2459999999999993,-0.2449999999999993,-0.2479999999999993,38.0,0.0,293.0,198.0,0.0,0.0,0.0,0.0,14.714999496936798,212.8770112991333,51.36000061035156,51.10499954223633,53.47499847412109,54.345001220703125,23.490000414848325,25.0,38.0,0.0,0.0,51.36000061035156,0.0,0.0,0.0,0.0,-1111.702,-1111.702,0.0,38.0,-4.499816894532007,0.0,0.0,-9.999847412110126,2.0,25.0,64.0,0.0,0.00014274305767483195,0.006526236110263399,0.0,0.0,0.0,0.0,0.0,0.0,0.0,0.0,0.47000000000000003,0.006526236110263399,0.0,0.0,0.0,0.0,0.0,0.0099610519043926,0.0,0.0,48.459999084472656,0.0,57.24058473594213,63.99743038059757,0.0,63.99743038059757,0.0
48,48,0.4799610519043926,2.0,2.0,2.0,2.0,64.0,63.0,63.0,63.0,32827.0,28092.0,32869.0,28308.0,32969.0,28259.0,32809.0,28221.0,14.042749707505944,-0.5523704209174651,0.5098803885391986,1.05,2.0,2.0,3.0,2.0,-0.2459999999999993,-0.2459999999999993,-0.2449999999999993,-0.2479999999999993,38.0,0.0,293.0,198.0,0.0,0.0,0.0,0.0,10.790999978780746,196.2000012397766,51.40499877929688,51.165000915527344,53.55500030517578,54.119998931884766,18.269999170303343,25.0,38.0,0.0,0.0,51.40499877929688,0.0,0.0,0.0,0.0,-1111.702,-1111.702,0.0,38.0,-17.000198364257088,0.0,0.0,-12.500381469725081,2.0,25.0,64.0,0.0,0.0001427291658189547,0.006668965276082353,0.0,0.0,0.0,0.0,0.0,0.0,0.0,0.0,0.4799999999999999,0.006668965276082353,0.0,0.0,0.0,0.0,0.0,0.0099610519043926,0.0,0.0,48.459999084472656,0.0,57.27969823271835,63.99742862478939,0.0,63.99742862478939,0.0
49,49,0.4899610519043926,2.0,2.0,2.0,2.0,64.0,63.0,63.0,63.0,32847.0,28076.0,32827.0,28308.0,32990.0,28173.0,32809.0,28271.0,14.056439238402572,-1.2413560552874685,1.191356055287469,0.585363099416989,2.0,2.0,3.0,2.0,-0.2459999999999993,-0.2459999999999993,-0.2449999999999993,-0.2479999999999993,38.0,0.0,293.0,198.0,0.0,0.0,0.0,0.0,30.410999059677124,167.75100231170654,51.57500076293945,51.25,54.095001220703125,53.72499847412109,18.269999170303343,25.0,38.0,0.0,0.0,51.57500076293945,0.0,0.0,0.0,0.0,-1111.702,-1111.702,0.0,38.0,1.0002136230475847,0.0,0.0,18.000411987304673,2.0,25.0,64.0,0.0,0.00014302777714199504,0.006811993053224348,0.0,0.0,0.0,0.0,0.0,0.0,0.0,0.0,0.48999999999999994,0.006811993053224348,0.0,0.0,0.0,0.0,0.0,0.0099610519043926,0.0,0.0,48.459999084472656,0.0,57.42740015740772,63.99742199443822,0.0,63.99742199443822,0.0
50,50,0.4999610519043926,2.0,2.0,2.0,2.0,64.0,63.0,63.0,63.0,32827.0,28081.0,32827.0,28318.0,32990.0,28007.0,32768.0,28318.0,14.069988054633772,-0.8432908353679422,1.3,0.8800318734740434,2.0,2.0,3.0,2.0,-0.2459999999999993,-0.2459999999999993,-0.2449999999999993,-0.2479999999999993,38.0,0.0,293.0,198.0,0.0,0.0,0.0,0.0,30.410999059677124,148.131000995636,51.56499862670898,51.27999877929688,54.790000915527344,53.54999923706055,8.7,25.0,38.0,0.0,0.0,51.56499862670898,0.0,0.0,0.0,0.0,-1111.702,-1111.702,0.0,38.0,-0.5001068115241448,0.0,0.0,-1.5003204345717296,2.0,25.0,64.0,0.0,0.00014324999915228963,0.006955243052376638,0.0,0.0,0.0,0.0,0.0,0.0,0.0,0.0,0.49999999999999994,0.006955243052376638,0.0,0.0,0.0,0.0,0.0,0.0099610519043926,0.0,0.0,48.459999084472656,0.0,57.41871302290445,63.997422384404345,0.0,63.997422384404345,0.0
51,51,0.5099610519043927,2.0,2.0,2.0,2.0,64.0,63.0,63.0,63.0,32827.0,28088.0,32827.0,28329.0,32969.0,27837.0,32788.0,28391.0,14.085644258382626,-0.9642342009767544,1.5570810411721052,0.650072118632544,2.0,2.0,3.0,2.0,-0.2459999999999993,-0.2459999999999993,-0.2449999999999993,-0.2479999999999993,38.0,0.0,293.0,198.0,0.0,0.0,0.0,0.0,37.27799952030182,148.131000995636,51.56999969482422,51.310001373291016,55.11000061035156,53.470001220703125,16.529999792575836,25.0,38.0,0.0,0.0,51.56999969482422,0.0,0.0,0.0,0.0,-1111.702,-1111.702,0.0,38.0,3.4999847412109344,0.0,0.0,4.000091552735079,2.0,25.0,64.0,0.0,0.0001432430532243526,0.00709848610560099,0.0,0.0,0.0,0.0,0.0,0.0,0.0,0.0,0.51,0.00709848610560099,0.0,0.0,0.0,0.0,0.0,0.0099610519043926,0.0,0.0,48.459999084472656,0.0,57.42305663649063,63.997422189419204,0.0,63.997422189419204,0.0
52,52,0.5199610519043927,2.0,2.0,2.0,2.0,64.0,63.0,63.0,63.0,32827.0,28115.0,32807.0,28347.0,32990.0,27721.0,32768.0,28376.0,14.102588721316575,-1.1289040159823145,0.4398638561591697,0.7289040159823145,2.0,2.0,3.0,2.0,-0.2459999999999993,-0.2459999999999993,-0.2449999999999993,-0.2479999999999993,38.0,0.0,293.0,198.0,0.0,0.0,0.0,0.0,10.790999978780746,170.69400548934937,51.53499984741211,51.31999969482422,55.040000915527344,53.435001373291016,10.440000414848328,25.0,38.0,0.0,0.0,51.53499984741211,0.0,0.0,0.0,0.0,-1111.702,-1111.702,0.0,38.0,-6.999969482421869,0.0,0.0,-10.499954223632804,2.0,25.0,64.0,0.0,0.00014320138825310615,0.007241687493854096,0.0,0.0,0.0,0.0,0.0,0.0,0.0,0.0,0.52,0.007241687493854096,0.0,0.0,0.0,0.0,0.0,0.0099610519043926,0.0,0.0,48.459999084472656,0.0,57.39265602205446,63.997423554105126,0.0,63.997423554105126,0.0
53,53,0.5299610519043927,2.0,2.0,2.0,2.0,64.0,63.0,63.0,63.0,32847.0,28138.0,32827.0,28361.0,32948.0,27740.0,32788.0,28189.0,14.117904313669143,-1.1070282095456394,-0.8672665518133791,0.8789153713630822,2.0,2.0,3.0,2.0,-0.2459999999999993,-0.2459999999999993,-0.2449999999999993,-0.2479999999999993,38.0,0.0,293.0,198.0,0.0,0.0,0.0,0.0,24.52500015497208,180.50400018692017,51.60499954223633,51.369998931884766,54.3650016784668,54.15499877929688,13.05,25.0,38.0,0.0,0.0,51.60499954223633,0.0,0.0,0.0,0.0,-1111.702,-1111.702,0.0,38.0,4.000091552735082,0.0,0.0,11.00006103515695,2.0,25.0,64.0,0.0,0.00014324999915228963,0.007384937493006385,0.0,0.0,0.0,0.0,0.0,0.0,0.0,0.0,0.53,0.007384937493006385,0.0,0.0,0.0,0.0,0.0,0.0099610519043926,0.0,0.0,48.459999084472656,0.0,57.45345271212019,63.99742082493708,0.0,63.99742082493708,0.0
54,54,0.5399610519043927,2.0,2.0,2.0,2.0,64.0,63.0,63.0,63.0,32827.0,28171.0,32848.0,28380.0,32990.0,27825.0,32768.0,27914.0,14.131770288046988,-1.0149811795787285,-1.2200376408425433,1.1125470510531792,2.0,2.0,3.0,2.0,-0.2459999999999993,-0.2459999999999993,-0.2449999999999993,-0.2479999999999993,38.0,0.0,293.0,198.0,0.0,0.0,0.0,0.0,4.904999956488609,154.01699542999268,51.56499862670898,51.400001525878906,53.79999923706055,55.27999877929688,15.65999958515167,25.0,38.0,0.0,0.0,51.56499862670898,0.0,0.0,0.0,0.0,-1111.702,-1111.702,0.0,38.0,-21.500015258790466,0.0,0.0,-25.500106811525548,2.0,25.0,64.0,0.0,0.0001432916641235353,0.00752822915712992,0.0,0.0,0.0,0.0,0.0,0.0,0.0,0.0,0.54,0.00752822915712992,0.0,0.0,0.0,0.0,0.0,0.0099610519043926,0.0,0.0,48.459999084472656,0.0,57.41871302290445,63.997422384404345,0.0,63.997422384404345,0.0
55,55,0.5499610519043927,2.0,2.0,2.0,2.0,64.0,63.0,63.0,63.0,32847.0,28165.0,32848.0,28390.0,32990.0,27924.0,32768.0,27659.0,14.147068830582247,-0.9145787494365544,-0.0113918668300367,1.1072893747182773,2.0,2.0,3.0,2.0,-0.2459999999999993,-0.2459999999999993,-0.2449999999999993,-0.2479999999999993,38.0,0.0,293.0,198.0,0.0,0.0,0.0,0.0,40.2209997177124,148.131000995636,51.77999877929688,51.47499847412109,53.60499954223633,56.02000045776367,20.00999958515167,25.0,38.0,0.0,0.0,51.77999877929688,0.0,0.0,0.0,0.0,-1111.702,-1111.702,0.0,38.0,-4.000091552733661,0.0,0.0,17.499923706056805,2.0,25.0,64.0,0.0,0.00014353471861945272,0.007671763875749373,0.0,0.0,0.0,0.0,0.0,0.0,0.0,0.0,0.55,0.007671763875749373,0.0,0.0,0.0,0.0,0.0,0.0099610519043926,0.0,0.0,48.459999084472656,0.0,57.60536513940642,63.99741400557748,0.0,63.99741400557748,0.0
56,56,0.5599610519043927,2.0,2.0,2.0,2.0,64.0,63.0,63.0,63.0,32868.0,28182.0,32827.0,28404.0,32969.0,28035.0,32809.0,27497.0,14.16458544166864,-0.5565140472757443,-0.0576144645431918,0.6706425590946803,2.0,2.0,3.0,2.0,-0.2459999999999993,-0.2459999999999993,-0.2449999999999993,-0.2479999999999993,38.0,0.0,293.0,198.0,0.0,0.0,0.0,0.0,-1.9619999453425407,170.69400548934937,51.81999969482422,51.52000045776367,53.45000076293945,56.18000030517578,19.140000414848327,25.0,38.0,0.0,0.0,51.81999969482422,0.0,0.0,0.0,0.0,-1111.702,-1111.702,0.0,38.0,-31.999969482421847,0.0,0.0,-27.999877929688186,2.0,25.0,64.0,0.0,0.00014388888676961277,0.007815652762518987,0.0,0.0,0.0,0.0,0.0,0.0,0.0,0.0,0.56,0.007815652762518987,0.0,0.0,0.0,0.0,0.0,0.0099610519043926,0.0,0.0,48.459999084472656,0.0,57.640073055358954,63.99741244753685,0.0,63.99741244753685,0.0
57,57,0.5699610519043927,2.0,2.0,2.0,2.0,64.0,63.0,63.0,63.0,32847.0,28130.0,32827.0,28422.0,32990.0,28167.0,32788.0,27442.0,14.18293103397088,0.0143024024524724,-0.2285756006131181,0.6,2.0,2.0,3.0,2.0,-0.2459999999999993,-0.2459999999999993,-0.2449999999999993,-0.2479999999999993,38.0,0.0,293.0,198.0,0.0,0.0,0.0,0.0,-11.772000044584274,186.38999462127688,52.13999938964844,51.54499816894531,53.255001068115234,55.775001525878906,10.440000414848328,25.0,38.0,0.0,0.0,52.13999938964844,0.0,0.0,0.0,0.0,-1111.702,-1111.702,0.0,38.0,-11.500167846679805,0.0,0.0,20.499801635742042,2.0,25.0,64.0,0.0,0.00014438888761732327,0.00796004165013631,0.0,0.0,0.0,0.0,0.0,0.0,0.0,0.0,0.5700000000000001,0.00796004165013631,0.0,0.0,0.0,0.0,0.0,0.0099610519043926,0.0,0.0,48.459999084472656,0.0,57.91751806462159,63.997399993014355,0.0,63.997399993014355,0.0
58,58,0.5799610519043926,2.0,2.0,2.0,2.0,64.0,63.0,63.0,63.0,32848.0,28104.0,32728.0,28437.0,32948.0,28268.0,32827.0,27496.0,14.203036436259056,0.2271768817752378,0.0467460574755549,0.8119614696253964,2.0,2.0,3.0,2.0,-0.2459999999999993,-0.2459999999999993,-0.2449999999999993,-0.2479999999999993,38.0,0.0,293.0,198.0,0.0,0.0,0.0,0.0,24.52500015497208,196.2000012397766,52.255001068115234,51.6150016784668,53.334999084472656,55.1150016784668,10.440000414848328,25.0,38.0,0.0,0.0,52.255001068115234,0.0,0.0,0.0,0.0,-1111.702,-1111.702,0.0,38.0,-7.99980163574218,0.0,0.0,3.5003662109376243,2.0,25.0,64.0,0.0,0.00014499305619133696,0.008105034706327648,0.0,0.0,0.0,0.0,0.0,0.0,0.0,0.0,0.58,0.008105034706327648,0.0,0.0,0.0,0.0,0.0,0.0099610519043926,0.0,0.0,48.459999084472656,0.0,58.01713482546359,63.99739552121318,0.0,63.99739552121318,0.0
59,59,0.5899610519043926,2.0,2.0,2.0,2.0,64.0,63.0,63.0,63.0,32847.0,28070.0,32827.0,28429.0,32969.0,28339.0,32788.0,27594.0,14.221627203285372,0.4194368787021254,0.7777475148085016,0.722922340973406,2.0,2.0,3.0,2.0,-0.2459999999999993,-0.2459999999999993,-0.2449999999999993,-0.2479999999999993,38.0,0.0,293.0,198.0,0.0,0.0,0.0,0.0,44.144999980926514,215.8200025558472,52.334999084472656,51.76499938964844,53.61000061035156,54.459999084472656,14.790000414848327,25.0,38.0,0.0,0.0,52.334999084472656,0.0,0.0,0.0,0.0,-1111.702,-1111.702,0.0,38.0,15.999984741210923,0.0,0.0,23.999786376953104,2.0,25.0,64.0,0.0,0.00014526388910081665,0.008250298595428465,0.0,0.0,0.0,0.0,0.0,0.0,0.0,0.0,0.59,0.008250298595428465,0.0,0.0,0.0,0.0,0.0,0.0099610519043926,0.0,0.0,48.459999084472656,0.0,58.08640226610815,63.99739241179474,0.0,63.99739241179474,0.0
60,60,0.5999610519043926,2.0,2.0,2.0,2.0,64.0,63.0,63.0,63.0,32847.0,28081.0,32827.0,28419.0,32990.0,28303.0,32809.0,27662.0,14.23663005666575,0.744489304140807,1.0262097017746317,0.6579300994084561,2.0,2.0,3.0,2.0,-0.2459999999999993,-0.2459999999999993,-0.2449999999999993,-0.2479999999999993,38.0,0.0,293.0,198.0,0.0,0.0,0.0,0.0,10.790999978780746,190.31399488449097,52.17499923706055,51.875,54.21500015258789,54.20000076293945,12.179999792575837,25.0,38.0,0.0,0.0,52.17499923706055,0.0,0.0,0.0,0.0,-1111.702,-1111.702,0.0,38.0,6.999969482421869,0.0,0.0,-9.000015258789055,2.0,25.0,64.0,0.0,0.00014515277544657404,0.008395451370875039,0.0,0.0,0.0,0.0,0.0,0.0,0.0,0.0,0.6,0.008395451370875039,0.0,0.0,0.0,0.0,0.0,0.0099610519043926,0.0,0.0,48.459999084472656,0.0,57.9478407468202,63.99739863182764,0.0,63.99739863182764,0.0
61,61,0.6099610519043926,2.0,2.0,2.0,2.0,64.0,63.0,63.0,63.0,32847.0,28101.0,32827.0,28395.0,32969.0,28208.0,32809.0,27717.0,14.249041111413398,0.6718677362370509,0.9645784908247006,0.9062645275258984,2.0,2.0,3.0,2.0,-0.2459999999999993,-0.2459999999999993,-0.2449999999999993,-0.2479999999999993,38.0,0.0,293.0,198.0,0.0,0.0,0.0,0.0,-11.772000044584274,163.82700204849243,52.10499954223633,52.03499984741211,54.77000045776367,54.2400016784668,11.30999958515167,25.0,38.0,0.0,0.0,52.10499954223633,0.0,0.0,0.0,0.0,-1111.702,-1111.702,0.0,38.0,-18.99986267089842,0.0,0.0,-25.999832153320288,2.0,25.0,64.0,0.0,0.00014483333163791247,0.008540284702512951,0.0,0.0,0.0,0.0,0.0,0.0,0.0,0.0,0.61,0.008540284702512951,0.0,0.0,0.0,0.0,0.0,0.0099610519043926,0.0,0.0,48.459999084472656,0.0,57.887190904078174,63.99740135440215,0.0,63.99740135440215,0.0
62,62,0.6199610519043927,2.0,2.0,2.0,2.0,64.0,63.0,63.0,63.0,32847.0,28084.0,32807.0,28372.0,32969.0,28151.0,32788.0,27739.0,14.263302575458228,0.5643217812162697,0.2645742497301577,1.1641955469593257,2.0,2.0,3.0,2.0,-0.2459999999999993,-0.2459999999999993,-0.2449999999999993,-0.2479999999999993,38.0,0.0,293.0,198.0,0.0,0.0,0.0,0.0,44.144999980926514,138.32099437713623,52.29499816894531,52.1349983215332,54.834999084472656,54.380001068115234,16.529999792575836,25.0,38.0,0.0,0.0,52.29499816894531,0.0,0.0,0.0,0.0,-1111.702,-1111.702,0.0,38.0,8.499908447265618,0.0,0.0,27.499771118164038,2.0,25.0,64.0,0.0,0.00014499999682108576,0.008685284699334037,0.0,0.0,0.0,0.0,0.0,0.0,0.0,0.0,0.62,0.008685284699334037,0.0,0.0,0.0,0.0,0.0,0.0099610519043926,0.0,0.0,48.459999084472656,0.0,58.051769808222666,63.99739396644726,0.0,63.99739396644726,0.0
63,63,0.6299610519043927,2.0,2.0,2.0,2.0,64.0,63.0,63.0,63.0,32848.0,28109.0,32889.0,28354.0,32948.0,28104.0,32809.0,27757.0,14.280151117560155,0.9298754929364496,-0.1876671048323996,0.3558322379190008,2.0,2.0,3.0,2.0,-0.2459999999999993,-0.2459999999999993,-0.2449999999999993,-0.2479999999999993,38.0,0.0,293.0,198.0,0.0,0.0,0.0,0.0,30.410999059677124,180.50400018692017,52.209999084472656,52.185001373291016,54.8849983215332,54.59999847412109,20.88000082969665,25.0,38.0,0.0,0.0,52.209999084472656,0.0,0.0,0.0,0.0,-1111.702,-1111.702,0.0,38.0,-16.50009155273436,0.0,0.0,-24.99999999999998,2.0,25.0,64.0,0.0,0.00014514582951863622,0.008830430528852672,0.0,0.0,0.0,0.0,0.0,0.0,0.0,0.0,0.63,0.008830430528852672,0.0,0.0,0.0,0.0,0.0,0.0099610519043926,0.0,0.0,48.459999084472656,0.0,57.978158954338795,63.997397270841844,0.0,63.997397270841844,0.0
64,64,0.6399610519043927,2.0,2.0,2.0,2.0,64.0,63.0,63.0,63.0,32848.0,28100.0,32807.0,28335.0,32990.0,28108.0,32768.0,27776.0,14.293866482868648,1.2114350327104206,-0.0808519738316635,0.2845740130841682,2.0,2.0,3.0,2.0,-0.2459999999999993,-0.2459999999999993,-0.2449999999999993,-0.2479999999999993,38.0,0.0,293.0,198.0,0.0,0.0,0.0,0.0,7.847999781370163,190.31399488449097,52.375,52.2400016784668,54.73500061035156,54.68000030517578,3.4800000518560408,25.0,38.0,0.0,0.0,52.375,0.0,0.0,0.0,0.0,-1111.702,-1111.702,0.0,38.0,-33.4999084472656,0.0,0.0,-16.999816894531236,2.0,25.0,64.0,0.0,0.00014525694317287882,0.00897568747202555,0.0,0.0,0.0,0.0,0.0,0.0,0.0,0.0,0.64,0.00897568747202555,0.0,0.0,0.0,0.0,0.0,0.0099610519043926,0.0,0.0,48.459999084472656,0.0,58.121028900987596,63.99739085740369,0.0,63.99739085740369,0.0
65,65,0.6499610519043927,2.0,2.0,2.0,2.0,64.0,63.0,63.0,63.0,32807.0,28046.0,32827.0,28314.0,33010.0,28117.0,32809.0,27785.0,14.305926701655483,1.7204031979253984,-0.2210557083365084,0.5565835625047627,2.0,2.0,3.0,2.0,-0.2459999999999993,-0.2459999999999993,-0.2449999999999993,-0.2479999999999993,38.0,0.0,293.0,198.0,0.0,0.0,0.0,0.0,34.334999322891235,167.75100231170654,52.709999084472656,52.29999923706055,54.66999816894531,54.81999969482422,5.220000207424164,25.0,38.0,0.0,0.0,52.709999084472656,0.0,0.0,0.0,0.0,-1111.702,-1111.702,0.0,38.0,5.500030517577409,0.0,0.0,38.999938964843004,2.0,25.0,64.0,0.0,0.00014595138761732326,0.009121638859642874,0.0,0.0,0.0,0.0,0.0,0.0,0.0,0.0,0.65,0.009121638859642874,0.0,0.0,0.0,0.0,0.0,0.0099610519043926,0.0,0.0,48.459999084472656,0.0,58.41079168503123,63.997377849942865,0.0,63.997377849942865,0.0
66,66,0.6599610519043927,2.0,2.0,2.0,2.0,64.0,63.0,63.0,63.0,32868.0,28043.0,32807.0,28318.0,32969.0,28137.0,32768.0,27766.0,14.317694113108493,1.5428348311248428,-0.25,0.8143043073959643,2.0,2.0,3.0,2.0,-0.2459999999999993,-0.2459999999999993,-0.2449999999999993,-0.2479999999999993,38.0,0.0,293.0,198.0,0.0,0.0,0.0,0.0,40.2209997177124,154.01699542999268,52.65499877929688,52.2599983215332,54.56999969482422,54.94499969482422,10.440000414848328,25.0,38.0,0.0,0.0,52.65499877929688,0.0,0.0,0.0,0.0,-1111.702,-1111.702,0.0,38.0,4.999923706055394,0.0,0.0,-0.5001068115220155,2.0,25.0,64.0,0.0,0.00014634027481079116,0.009267979134453664,0.0,0.0,0.0,0.0,0.0,0.0,0.0,0.0,0.66,0.009267979134453664,0.0,0.0,0.0,0.0,0.0,0.0099610519043926,0.0,0.0,48.459999084472656,0.0,58.36324615947878,63.99737998426276,0.0,63.99737998426276,0.0
67,67,0.6699610519043927,2.0,2.0,2.0,2.0,64.0,63.0,63.0,63.0,32827.0,28043.0,32869.0,28307.0,32948.0,28185.0,32809.0,27726.0,14.33074103344146,1.6713930561970334,-0.0786069438029666,0.59291041570445,2.0,2.0,3.0,2.0,-0.2459999999999993,-0.2459999999999993,-0.2449999999999993,-0.2479999999999993,38.0,0.0,293.0,198.0,0.0,0.0,0.0,0.0,37.27799952030182,157.9409956932068,52.60499954223633,52.34000015258789,54.43000030517578,55.20500183105469,14.790000414848327,25.0,38.0,0.0,0.0,52.60499954223633,0.0,0.0,0.0,0.0,-1111.702,-1111.702,0.0,38.0,8.499908447265618,0.0,0.0,3.4999847412102243,2.0,25.0,64.0,0.0,0.0001461944421132407,0.009414173576566905,0.0,0.0,0.0,0.0,0.0,0.0,0.0,0.0,0.67,0.009414173576566905,0.0,0.0,0.0,0.0,0.0,0.0099610519043926,0.0,0.0,48.459999084472656,0.0,58.320014372190556,63.99738192493893,0.0,63.99738192493893,0.0
68,68,0.6799610519043927,2.0,2.0,2.0,2.0,64.0,63.0,63.0,63.0,32827.0,28075.0,32869.0,28308.0,32969.0,28175.0,32747.0,27699.0,14.342866680911376,1.7424305563056368,0.2894444504450946,0.9743055630563682,2.0,2.0,3.0,2.0,-0.2459999999999993,-0.2459999999999993,-0.2449999999999993,-0.2479999999999993,38.0,0.0,293.0,198.0,0.0,0.0,0.0,0.0,7.847999781370163,170.69400548934937,52.52000045776367,52.36000061035156,54.73500061035156,55.34999847412109,9.570000207424163,25.0,38.0,0.0,0.0,52.52000045776367,0.0,0.0,0.0,0.0,-1111.702,-1111.702,0.0,38.0,-30.500030517578097,0.0,0.0,-38.999938964843714,2.0,25.0,64.0,0.0,0.0001460069444444446,0.00956018052101135,0.0,0.0,0.0,0.0,0.0,0.0,0.0,0.0,0.68,0.00956018052101135,0.0,0.0,0.0,0.0,0.0,0.0099610519043926,0.0,0.0,48.459999084472656,0.0,58.24649924951601,63.99738522503512,0.0,63.99738522503512,0.0
