,Unnamed: 0,currentTime,Agp_Pos_Sp_FL,Agp_Pos_Sp_FR,Agp_Pos_Sp_RL,Agp_Pos_Sp_RR,Disc_T_Est_FL,Disc_T_Est_FR,Disc_T_Est_RL,Disc_T_Est_RR,Motor_current_FL,Wheel_Decl_FL,Motor_current_FR,Wheel_Decl_FR,Motor_current_RL,Wheel_Decl_RL,Motor_current_RR,Wheel_Decl_RR,Vehicle_speed,Gyro_Rate_Pitch,IMU_Gyro_Rate_Roll,IMU_Gyro_Rate_Yaw,RealizedClampingForce_FL,RealizedClampingForce_FR,RealizedClampingForce_RL,RealizedClampingForce_RR,Piston_position_FL,Piston_position_FR,Piston_position_RL,Piston_position_RR,CF_FL,CF_FR,CF_RL,CF_RR,ESTIMATED_PRESSURE_FL,ESTIMATED_PRESSURE_FR,ESTIMATED_PRESSURE_RL,ESTIMATED_PRESSURE_RR,LATERAL_ACCELERATION,LONGITUDINAL_ACCELERATION,Wheel_Speed_FL,Wheel_Speed_FR,Wheel_Speed_RL,Wheel_Speed_RR,Yaw_rate,Ambiant_Temperature,Init_Disc_CF_FL,POS_MEASUREREV,TMC_filtered,Vitesse_Vehicule_Roues,Pressure_Speed_FL,Position_previous_FL,POS_MEASUREREV_square,POS_MEASUREREV_cube,Estimated_CF_FL,Estimated_CF_previous_FL,Pressure_Speed_previous_FL,CF_previous_FL,Deceleration_g,PosDiff,PreDiff,DecDiff,Lookup_Table,Temp_amb_C,Initial_temp_FL,RPM,Distance_Roues_instant,Distance_Roues,Brake_apply,Brake_release,Time_since_brake_apply,Miles_since_brake_apply,Time_since_brake_release,Miles_since_brake_release,BrakingTime_2,BrakingMiles_2,TimeSinceLastBrake_2,MilesSinceLastBrake_2,Change_Position,Change_pressure,BrakingForce_2,BrakingForce_ma_2,Start_braking_time,End_braking_time,BrakeStartSpeed,LastBrakStartSpeed,LastBrakEndtSpeed,LastDeceleration,conv_heat_trans_coef,temp_change_conv_FL,disc_heating_BTM_FL,temp_change_instant_BTM_1_FL,Pressure_Speed_time_FL
0,0,-0.0003816922608166,1160.0,1164.0,1147.0,1165.0,0.0620000000000006,0.0620000000000006,0.1290000000000007,0.1300000000000007,360.0,1244.0,758.0,1952.0,400.0,400.0,400.0,400.0,-11.772000044584274,-66.70799851417542,1.7599999904632568,1.659999966621399,1.725000023841858,1.6749999523162842,4.35,25.0,2.0,2.0,2.0,2.0,71.0,71.0,71.0,71.0,32827.0,34746.0,32848.0,33649.0,32990.0,32397.0,32768.0,34380.0,0.3123765462899045,0.108444512755064,0.3,0.158444512755064,71.0,21.68,32827.0,32768.0,1075675136.0,21.68,470.0224,10190.085632,34873.11560947199,34873.11560947199,1075675136.0,71.0,-4000.00000000004,0.0,0.0,0.0,1.725000023841858,0.158444512755064,0.0620000000000006,0.0,0.0,0.0,0.0,0.0,0.0,0.0,0.0,0.0,0.0,0.0,0.0,0.0,0.0,0.0,0.0,0.0,0.0,0.0,0.0,0.0,0.0,0.0,0.0,0.0,0.0,0.0,0.0
1,1,0.0096183077391833,1160.0,1164.0,1147.0,1165.0,0.0620000000000006,0.0620000000000006,0.1290000000000007,0.1300000000000007,360.0,1082.0,603.0,1952.0,400.0,400.0,400.0,400.0,-7.847999781370163,-66.70799851417542,1.725000023841858,1.649999976158142,1.649999976158142,1.649999976158142,0.8700000129640102,25.0,2.0,2.0,2.0,2.0,71.0,71.0,71.0,71.0,32848.0,34475.0,32827.0,33423.0,32969.0,30441.0,32808.0,34119.0,0.3037117270825188,0.0696310191823155,0.1607379616353689,0.0267896602725614,71.0,21.68,32848.0,32808.0,1077677184.0,21.68,470.0224,10190.085632,34873.11560947199,34873.11560947199,1075675136.0,71.0,2000.0,0.0,21.0,6000.00000000004,1.649999976158142,0.0267896602725614,0.0620000000000006,0.0,0.09107777777777687,0.09107777777777687,1.0,0.0,0.0099999999999999,0.09107777777777687,0.0,0.0,0.0099999999999999,0.09107777777777687,0.0,0.0,0.0,21.0,0.0,-2190000.000000022,0.0096183077391833,0.0,32808.0,0.0,0.0,0.0,8828.374663865496,0.06164399134998089,335.97367136695317,336.03531535830314,10776771.839999892
2,2,0.0196183077391833,1160.0,1164.0,1147.0,1165.0,0.0620000000000006,0.0620000000000006,0.1290000000000007,0.1300000000000007,360.0,1244.0,758.0,1952.0,400.0,400.0,400.0,400.0,-7.847999781370163,-66.70799851417542,1.690000057220459,1.6399999856948853,1.6100000143051147,1.6299999952316284,0.0,25.0,2.0,2.0,2.0,2.0,71.0,71.0,71.0,71.0,32827.0,34217.0,32869.0,33208.0,32969.0,28593.0,32788.0,33871.0,0.2954311972536025,0.19643158392113,0.04643158392113,0.04643158392113,71.0,21.68,32827.0,32788.0,1076331676.0,21.68,470.0224,10190.085632,34873.11560947199,34873.11560947199,1077677184.0,71.0,1999.9999999999995,0.0,-21.0,-4.547473508864641e-13,1.6100000143051147,0.04643158392113,0.0620000000000006,0.0,0.09110555555555556,0.18218333333333242,0.0,1.0,0.0,0.0,0.01,0.09110555555555555,0.0199999999999999,0.18218333333333242,0.0,0.0,0.0,-21.0,359138100.0,1095000.0,0.0096183077391833,0.0,32808.0,0.0,0.0,0.0,8824.176545044216,0.06184266358688062,671.1083989957937,671.1702416593805,21526633.51999989
3,3,0.0296183077391833,1160.0,1164.0,1147.0,1165.0,0.0620000000000006,0.0620000000000006,0.1290000000000007,0.1300000000000007,199.0,1244.0,603.0,2111.0,400.0,400.0,400.0,400.0,-11.772000044584274,-66.70799851417542,1.659999966621399,1.5700000524520874,1.5850000381469729,1.6200000047683716,1.7400000259280204,25.0,2.0,2.0,2.0,2.0,71.0,71.0,71.0,71.0,32868.0,33970.0,32827.0,32311.0,32990.0,26851.0,32768.0,33634.0,0.2871519473861778,0.180338950959238,0.2393220980815239,0.053559300639492,71.0,21.68,32868.0,32768.0,1077018624.0,21.68,470.0224,10190.085632,34873.11560947199,34873.11560947199,1076331676.0,71.0,-1999.9999999999995,0.0,41.0,-3999.999999999999,1.5850000381469729,0.053559300639492,0.0620000000000006,0.0,0.09105000000000002,0.27323333333333244,1.0,0.0,0.010000000000000002,0.09105000000000002,0.0,0.0,0.029999999999999902,0.27323333333333244,0.0,0.0,0.0,41.0,718057200.0,1094999.9999999998,0.0096183077391833,0.0,32808.0,0.0,0.0,0.0,8819.977862816706,0.06191473759052378,1007.3050815443445,1007.366996281935,32310558.719999894
4,4,0.0396183077391833,1160.0,1164.0,1147.0,1165.0,0.0620000000000006,0.0620000000000006,0.1290000000000007,0.1300000000000007,360.0,1082.0,758.0,1952.0,400.0,400.0,400.0,400.0,-14.714999496936798,-66.70799851417542,1.6449999809265137,1.5149999856948853,1.559999942779541,1.6100000143051147,0.0,25.0,2.0,2.0,2.0,2.0,71.0,71.0,71.0,71.0,32848.0,33734.0,32868.0,31296.0,33010.0,25211.0,32788.0,33409.0,0.2788021189966215,0.1464183950701054,0.2607448147896837,0.0464183950701054,71.0,21.68,32848.0,32788.0,1077020224.0,21.68,470.0224,10190.085632,34873.11560947199,34873.11560947199,1077018624.0,71.0,2000.000000000001,0.0,-20.0,4000.0000000000005,1.559999942779541,0.0464183950701054,0.0620000000000006,0.0,0.09105000000000002,0.36428333333333246,0.0,1.0,0.0,0.0,0.010000000000000002,0.09105000000000002,0.039999999999999904,0.36428333333333246,0.0,0.0,0.0,-20.0,359138100.0,-1094999.9999999998,0.0096183077391833,0.0,32808.0,0.0,0.0,0.0,8824.176545044216,0.06184253029865767,1343.075437305504,1343.1372798358027,43080808.9599999
5,5,0.0496183077391833,1160.0,1164.0,1147.0,1165.0,0.0620000000000006,0.0620000000000006,0.1290000000000007,0.1300000000000007,360.0,1244.0,758.0,1952.0,400.0,400.0,400.0,400.0,-17.65799969434738,-69.65100169181824,1.6349999904632568,1.475000023841858,1.5449999570846558,1.600000023841858,1.7400000259280204,25.0,2.0,2.0,2.0,2.0,71.0,71.0,71.0,71.0,32827.0,33510.0,32827.0,30337.0,32969.0,23670.0,32768.0,33195.0,0.2704829861420468,0.4039067877736989,-0.0585941682684324,0.2812504780210657,71.0,21.68,32827.0,32768.0,1075675136.0,21.68,470.0224,10190.085632,34873.11560947199,34873.11560947199,1077020224.0,71.0,-1999.9999999999995,0.0,-21.0,-4000.0000000000005,1.5449999570846558,0.2812504780210657,0.0620000000000006,0.0,0.09104999999999995,0.4553333333333324,0.0,1.0,0.0,0.0,0.019999999999999997,0.18209999999999998,0.0499999999999999,0.4553333333333324,0.0,0.0,0.0,-21.0,718057200.0,1095000.0000000005,0.0096183077391833,0.0,32808.0,0.0,0.0,0.0,8819.977862816706,0.06421472454314492,1676.7475919768083,1676.8118067013513,53783756.79999989
6,6,0.0596183077391833,1160.0,1164.0,1147.0,1165.0,0.0620000000000006,0.0620000000000006,0.1290000000000007,0.1300000000000007,360.0,1244.0,758.0,2111.0,400.0,400.0,400.0,400.0,-17.65799969434738,-66.70799851417542,1.625,1.440000057220459,1.5399999618530271,1.5950000286102295,8.7,25.0,2.0,2.0,2.0,2.0,71.0,71.0,71.0,71.0,32869.0,33297.0,32848.0,29434.0,32990.0,22226.0,32788.0,32992.0,0.26372731704347,0.5146524200486253,-0.0244207000810421,0.3420944900567295,71.0,21.68,32869.0,32788.0,1077708772.0,21.68,470.0224,10190.085632,34873.11560947199,34873.11560947199,1075675136.0,71.0,-2099.9999999999995,0.0,42.0,-100.0,1.5399999618530271,0.3420944900567295,0.0620000000000006,0.0,0.09105000000000002,0.5463833333333324,1.0,0.0,0.010000000000000002,0.09105000000000002,0.0,0.0,0.0599999999999999,0.5463833333333324,0.0,0.0,0.0,42.0,359138100.0,-1094999.9999999998,0.0096183077391833,0.0,32808.0,0.0,0.0,0.0,8824.176545044216,0.06483067090299677,2015.9011149291273,2015.9659456000302,64662526.319999896
7,7,0.0696183077391833,1160.0,1164.0,1147.0,1165.0,0.0620000000000006,0.0620000000000006,0.1290000000000007,0.1300000000000007,360.0,1244.0,758.0,1952.0,400.0,400.0,400.0,400.0,-14.714999496936798,-66.70799851417542,1.6150000095367432,1.4149999618530271,1.5399999618530271,1.534999966621399,2.610000103712082,25.0,2.0,2.0,2.0,2.0,71.0,71.0,71.0,71.0,32868.0,33094.0,32868.0,28585.0,32989.0,20874.0,32809.0,32498.0,0.2568385562857194,0.3035485511228918,0.2732257244385541,0.0570971022457835,71.0,21.68,32868.0,32809.0,1078366212.0,21.68,470.0224,10190.085632,34873.11560947199,34873.11560947199,1077708772.0,71.0,4100.000000000002,0.0,-1.0,6200.000000000002,1.5399999618530271,0.0570971022457835,0.0620000000000006,0.0,0.09110694444444446,0.6374902777777769,0.0,1.0,0.0,0.0,0.010000000000000002,0.09110694444444445,0.0699999999999999,0.6374902777777769,0.0,0.0,0.0,-1.0,-17962653.75,-1149749.9999999998,0.0096183077391833,0.0,32808.0,0.0,0.0,0.0,8828.584555024665,0.06195042605917437,2353.3193658723876,2353.3813162984466,75485634.83999988
8,8,0.0796183077391833,1160.0,1164.0,1147.0,1165.0,0.0620000000000006,0.0620000000000006,0.1290000000000007,0.1300000000000007,360.0,1244.0,603.0,2111.0,400.0,400.0,400.0,400.0,-11.772000044584274,-69.65100169181824,1.5549999475479126,1.409999966621399,1.534999966621399,1.4850000143051147,-0.8700000129640102,25.0,2.0,2.0,2.0,2.0,71.0,71.0,71.0,71.0,32868.0,32702.0,32868.0,27788.0,32989.0,19613.0,32768.0,31958.0,0.2498345106659091,0.3428433056881816,0.4160541321102271,-0.0267891735779545,71.0,21.68,32868.0,32768.0,1077018624.0,21.68,470.0224,10190.085632,34873.11560947199,34873.11560947199,1078366212.0,71.0,0.0,0.0,0.0,-4100.000000000002,1.534999966621399,-0.0267891735779545,0.0620000000000006,0.0,0.09107916666666661,0.7285694444444435,1.0,0.0,0.009999999999999995,0.0910791666666666,0.0,0.0,0.07999999999999989,0.7285694444444435,0.0,0.0,0.0,0.0,718057200.0,2244750.000000001,0.0096183077391833,0.0,32808.0,0.0,0.0,0.0,8819.977862816706,0.061103109997007285,2686.1468841182573,2686.2079872282543,86161489.91999988
9,9,0.0896183077391833,1160.0,1164.0,1147.0,1165.0,0.0620000000000006,0.0620000000000006,0.1290000000000007,0.1300000000000007,360.0,1244.0,758.0,1952.0,400.0,400.0,400.0,400.0,-14.714999496936798,-69.65100169181824,1.4950000047683716,1.4049999713897705,1.534999966621399,1.4500000476837158,0.0,25.0,2.0,2.0,2.0,2.0,71.0,71.0,71.0,71.0,32848.0,32200.0,32848.0,27041.0,32990.0,18440.0,32768.0,31448.0,0.2428341539095481,0.2441185213924812,0.3441185213924813,0.1143785992263992,71.0,21.68,32848.0,32768.0,1076363264.0,21.68,470.0224,10190.085632,34873.11560947199,34873.11560947199,1077018624.0,71.0,-4100.000000000002,0.0,-20.0,-4100.000000000002,1.534999966621399,0.1143785992263992,0.0620000000000006,0.0,0.09102222222222231,0.8195916666666658,0.0,1.0,0.0,0.0,0.010000000000000009,0.09102222222222234,0.0899999999999999,0.8195916666666658,0.0,0.0,0.0,-20.0,718057200.0,0.0,0.0096183077391833,0.0,32808.0,0.0,0.0,0.0,8819.977862816706,0.06252909425917516,3020.0764255721706,3020.13895466643,96872693.75999989
10,10,0.0996183077391833,1160.0,1164.0,1147.0,1165.0,0.0620000000000006,0.0620000000000006,0.1290000000000007,0.1300000000000007,360.0,1244.0,603.0,2111.0,400.0,400.0,400.0,400.0,-7.847999781370163,-69.65100169181824,1.4550000429153442,1.399999976158142,1.534999966621399,1.4149999618530271,4.35,25.0,2.0,2.0,2.0,2.0,71.0,71.0,71.0,71.0,32807.0,31726.0,32848.0,26343.0,32969.0,18733.0,32809.0,30968.0,0.2354704148960745,0.1369506058538365,0.0543497980487211,0.0445740912192451,71.0,21.68,32807.0,32809.0,1076364863.0,21.68,470.0224,10190.085632,34873.11560947199,34873.11560947199,1076363264.0,71.0,4100.000000000002,0.0,-41.0,8200.000000000004,1.534999966621399,0.0445740912192451,0.0620000000000006,0.0,0.09107916666666661,0.9106708333333324,0.0,1.0,0.0,0.0,0.020000000000000004,0.18210138888888894,0.0999999999999999,0.9106708333333324,0.0,0.0,0.0,-41.0,-17962653.75,-2244750.000000001,0.0096183077391833,0.0,32808.0,0.0,0.0,0.0,8828.584555024665,0.06182380400040069,3355.6454578563366,3355.7072816603372,107636486.2999999
11,11,0.1096183077391833,1160.0,1164.0,1147.0,1165.0,0.0620000000000006,0.0620000000000006,0.1290000000000007,0.1300000000000007,360.0,1244.0,603.0,1952.0,400.0,400.0,400.0,400.0,-14.714999496936798,-69.65100169181824,1.4199999570846558,1.399999976158142,1.4249999523162842,1.3899999856948853,-3.4800000518560408,25.0,2.0,2.0,2.0,2.0,71.0,71.0,71.0,71.0,32848.0,31280.0,32848.0,25692.0,33010.0,21049.0,32768.0,30517.0,0.2272552141529353,0.4860262235195294,-0.0465065558798823,-0.1767467220600588,71.0,21.68,32848.0,32768.0,1076363264.0,21.68,470.0224,10190.085632,34873.11560947199,34873.11560947199,1076364863.0,71.0,-4099.999999999996,0.0,41.0,-8199.999999999998,1.4249999523162842,-0.1767467220600588,0.0620000000000006,0.0,0.09107916666666661,1.001749999999999,1.0,0.0,0.009999999999999995,0.0910791666666666,0.0,0.0,0.10999999999999989,1.001749999999999,0.0,0.0,0.0,41.0,718057200.0,2244750.000000001,0.0096183077391833,0.0,32808.0,0.0,0.0,0.0,8819.977862816706,0.05958833718533224,3691.2045201437645,3691.2641084809497,118399959.03999989
12,12,0.1196183077391833,1160.0,1164.0,1147.0,1165.0,0.0620000000000006,0.0620000000000006,0.1290000000000007,0.1300000000000007,360.0,1244.0,758.0,1952.0,400.0,400.0,400.0,400.0,-4.904999956488609,-69.65100169181824,1.3949999809265137,1.399999976158142,1.3600000143051147,1.3849999904632568,-2.610000103712082,25.0,2.0,2.0,2.0,2.0,71.0,71.0,71.0,71.0,32889.0,30860.0,32848.0,25087.0,33010.0,23261.0,32809.0,30093.0,0.2192376595595865,0.7464991357970016,-0.0302512963044977,-0.0802512963044977,71.0,21.68,32889.0,32809.0,1079055201.0,21.68,470.0224,10190.085632,34873.11560947199,34873.11560947199,1076363264.0,71.0,4099.999999999996,0.0,41.0,8199.999999999993,1.3600000143051147,-0.0802512963044977,0.0620000000000006,0.0,0.09107916666666675,1.0928291666666659,1.0,0.0,0.020000000000000004,0.18215833333333342,0.0,0.0,0.1199999999999999,1.0928291666666659,0.0,0.0,0.0,41.0,-17962653.75,-2244749.999999998,0.0096183077391833,0.0,32808.0,0.0,0.0,0.0,8828.584555024665,0.06056167562552464,4036.83933782804,4036.8998995036654,129486624.11999989
13,13,0.1296183077391833,1160.0,1164.0,1147.0,1165.0,0.0620000000000006,0.0620000000000006,0.1290000000000007,0.1300000000000007,360.0,1244.0,758.0,1952.0,400.0,400.0,400.0,400.0,-7.847999781370163,-69.65100169181824,1.3849999904632568,1.399999976158142,1.315000057220459,1.3799999952316284,0.0,25.0,2.0,2.0,2.0,2.0,71.0,71.0,71.0,71.0,32889.0,30465.0,32848.0,24525.0,32969.0,25370.0,32768.0,29697.0,0.211387926486015,0.4050678095046687,0.2823130532325478,-0.1858504425860382,71.0,21.68,32889.0,32768.0,1077706752.0,21.68,470.0224,10190.085632,34873.11560947199,34873.11560947199,1079055201.0,71.0,0.0,0.0,0.0,-4099.999999999996,1.315000057220459,-0.1858504425860382,0.0620000000000006,0.0,0.09107916666666675,1.1839083333333327,1.0,0.0,0.030000000000000013,0.27323750000000024,0.0,0.0,0.1299999999999999,1.1839083333333327,0.0,0.0,0.0,0.0,718057200.0,2244749.999999998,0.0096183077391833,0.0,32808.0,0.0,0.0,0.0,8819.977862816706,0.059496377370855225,4367.777562267823,4367.837058645194,140101877.75999987
14,14,0.1396183077391833,1160.0,1164.0,1147.0,1165.0,0.0620000000000006,0.0620000000000006,0.1290000000000007,0.1300000000000007,360.0,1082.0,758.0,2111.0,400.0,400.0,400.0,400.0,-4.904999956488609,-66.70799851417542,1.3799999952316284,1.274999976158142,1.2799999713897705,1.3799999952316284,-6.9600001037120816,25.0,2.0,2.0,2.0,2.0,71.0,71.0,71.0,71.0,32848.0,30096.0,32868.0,25775.0,32948.0,27379.0,32768.0,29326.0,0.2038462572866823,0.0187103062051859,0.3438690813844421,-0.4,71.0,21.68,32848.0,32768.0,1076363264.0,21.68,470.0224,10190.085632,34873.11560947199,34873.11560947199,1077706752.0,71.0,-1999.9999999999982,0.0,-41.0,-1999.9999999999982,1.2799999713897705,-0.4,0.0620000000000006,0.0,0.09102222222222205,1.2749305555555548,0.0,1.0,0.0,0.0,0.009999999999999981,0.09102222222222212,0.13999999999999987,1.2749305555555548,0.0,0.0,0.0,-41.0,718057200.0,0.0,0.0096183077391833,0.0,32808.0,0.0,0.0,0.0,8819.977862816706,0.05733317898246848,4697.896662001156,4697.953995180139,150690856.95999986
15,15,0.1496183077391833,1160.0,1164.0,1147.0,1165.0,0.0620000000000006,0.0620000000000006,0.1290000000000007,0.1300000000000007,360.0,1244.0,1069.0,1952.0,400.0,400.0,400.0,400.0,-1.9619999453425407,-66.70799851417542,1.3799999952316284,1.215000033378601,1.2899999618530271,1.3799999952316284,-6.9600001037120816,25.0,2.0,2.0,2.0,2.0,71.0,71.0,71.0,71.0,32848.0,29750.0,32848.0,26968.0,33010.0,29289.0,32788.0,28981.0,0.195714455759685,0.1227478444409062,-0.2639655110545003,-0.2862607777954687,71.0,21.68,32848.0,32788.0,1077020224.0,21.68,470.0224,10190.085632,34873.11560947199,34873.11560947199,1076363264.0,71.0,6099.9999999999945,0.0,0.0,8099.999999999993,1.2899999618530271,-0.2862607777954687,0.0620000000000006,0.0,0.09105000000000009,1.3659805555555549,1.0,0.0,0.010000000000000009,0.09105000000000008,0.0,0.0,0.14999999999999988,1.3659805555555549,0.0,0.0,0.0,0.0,359138100.0,-1094999.999999999,0.0096183077391833,0.0,32808.0,0.0,0.0,0.0,8824.176545044216,0.05848043183512602,5036.532889895649,5036.591370327484,161553033.59999987
16,16,0.1596183077391833,1160.0,1164.0,1147.0,1165.0,0.0620000000000006,0.0620000000000006,0.1290000000000007,0.1300000000000007,360.0,1244.0,758.0,1952.0,400.0,400.0,400.0,400.0,1.9619999453425407,-66.70799851417542,1.3799999952316284,1.1799999475479126,1.3250000476837158,1.3799999952316284,-2.610000103712082,25.0,2.0,2.0,2.0,2.0,71.0,71.0,71.0,71.0,32848.0,29428.0,32848.0,28106.0,33010.0,31104.0,32727.0,28660.0,0.1868569067496157,0.0343384285061991,-0.3761475998173575,-0.2425292571950407,71.0,21.68,32848.0,32727.0,1075016496.0,21.68,470.0224,10190.085632,34873.11560947199,34873.11560947199,1077020224.0,71.0,100.00000000000018,0.0,0.0,-5999.9999999999945,1.3250000476837158,-0.2425292571950407,0.0620000000000006,0.0,0.09099305555555565,1.4569736111111105,1.0,0.0,0.020000000000000018,0.18204305555555567,0.0,0.0,0.1599999999999999,1.4569736111111105,0.0,0.0,0.0,0.0,1453156706.25,3339749.999999997,0.0096183077391833,0.0,32808.0,0.0,0.0,0.0,8811.36880113023,0.058926832547701535,5362.306921641736,5362.365848474284,172002639.3599999
17,17,0.1696183077391833,1160.0,1164.0,1147.0,1165.0,0.0620000000000006,0.0620000000000006,0.1290000000000007,0.1300000000000007,199.0,1244.0,603.0,2111.0,400.0,400.0,400.0,400.0,4.904999956488609,-69.65100169181824,1.375,1.1549999713897705,1.375,1.375,-6.089999896287917,25.0,2.0,2.0,2.0,2.0,71.0,71.0,71.0,71.0,32807.0,29128.0,32848.0,29190.0,32969.0,32826.0,32726.0,28363.0,0.1778106780634533,0.0394500603359187,0.0929667068906124,-0.2105499396640813,71.0,21.68,32807.0,32726.0,1073641882.0,21.68,470.0224,10190.085632,34873.11560947199,34873.11560947199,1075016496.0,71.0,-6199.9999999999945,0.0,-41.0,-6299.9999999999945,1.375,-0.2105499396640813,0.0620000000000006,0.0,0.09090694444444426,1.5478805555555548,0.0,1.0,0.0,0.0,0.009999999999999981,0.09090694444444436,0.16999999999999987,1.5478805555555548,0.0,0.0,0.0,-41.0,1471074465.0,54750.0000000001,0.0096183077391833,0.0,32808.0,0.0,0.0,0.0,8811.15879438455,0.05924961814950436,5690.1658243613365,5690.225073979486,182519119.93999988
18,18,0.1796183077391833,1160.0,1164.0,1147.0,1165.0,0.0620000000000006,0.0620000000000006,0.1290000000000007,0.1300000000000007,199.0,1082.0,758.0,1952.0,400.0,400.0,400.0,400.0,1.9619999453425407,-69.65100169181824,1.375,1.1549999713897705,1.4249999523162842,1.375,-0.8700000129640102,25.0,2.0,2.0,2.0,2.0,71.0,71.0,71.0,71.0,32868.0,28850.0,32868.0,30222.0,32989.0,34457.0,32788.0,28088.0,0.1687604187436749,0.1535203688510918,0.3859185245956328,-0.1429592622978164,71.0,21.68,32868.0,32788.0,1077675984.0,21.68,470.0224,10190.085632,34873.11560947199,34873.11560947199,1073641882.0,71.0,1999.9999999999982,0.0,61.0,8199.999999999993,1.4249999523162842,-0.1429592622978164,0.0620000000000006,0.0,0.09099166666666675,1.6388722222222216,1.0,0.0,0.010000000000000009,0.0909916666666668,0.0,0.0,0.17999999999999988,1.6388722222222216,0.0,0.0,0.0,61.0,359138100.0,-3394499.999999997,0.0096183077391833,0.0,32808.0,0.0,0.0,0.0,8824.176545044216,0.05992865536209474,6047.519350648691,6047.579279304054,193981677.1199999
19,19,0.1896183077391833,1160.0,1164.0,1147.0,1165.0,0.0620000000000006,0.0620000000000006,0.1290000000000007,0.1300000000000007,360.0,1244.0,758.0,1952.0,400.0,400.0,400.0,400.0,1.9619999453425407,-69.65100169181824,1.375,1.1749999523162842,1.4800000190734863,1.375,-4.35,25.0,2.0,2.0,2.0,2.0,71.0,71.0,71.0,71.0,32868.0,28593.0,32848.0,31203.0,32969.0,36000.0,32768.0,27835.0,0.1598714485289439,0.237441558000796,0.508372294666136,-0.341627705333864,71.0,21.68,32868.0,32768.0,1077018624.0,21.68,470.0224,10190.085632,34873.11560947199,34873.11560947199,1077675984.0,71.0,2100.000000000004,0.0,0.0,100.00000000000591,1.4800000190734863,-0.341627705333864,0.0620000000000006,0.0,0.09105000000000009,1.7299222222222217,1.0,0.0,0.020000000000000018,0.18204166666666688,0.0,0.0,0.1899999999999999,1.7299222222222217,0.0,0.0,0.0,0.0,718057200.0,1094999.999999999,0.0096183077391833,0.0,32808.0,0.0,0.0,0.0,8819.977862816706,0.05792281762227258,6379.598849780866,6379.656772598488,204633538.55999988
20,20,0.1996183077391833,1160.0,1164.0,1147.0,1165.0,0.0620000000000006,0.0620000000000006,0.1290000000000007,0.1300000000000007,360.0,1244.0,603.0,2111.0,400.0,400.0,400.0,400.0,1.9619999453425407,-66.70799851417542,1.375,1.2000000476837158,1.5299999713897705,1.2599999904632568,-7.829999792575835,25.0,2.0,2.0,2.0,2.0,71.0,71.0,71.0,71.0,32768.0,28356.0,32848.0,32134.0,32990.0,37457.0,32747.0,28482.0,0.15130357071606,0.2862335758881785,0.5137664241118215,-0.2907270062434499,71.0,21.68,32768.0,32747.0,1073053696.0,21.68,470.0224,10190.085632,34873.11560947199,34873.11560947199,1077018624.0,71.0,-2099.999999999998,0.0,-100.0,-4200.000000000002,1.5299999713897705,-0.2907270062434499,0.0620000000000006,0.0,0.09099305555555538,1.820915277777777,0.0,1.0,0.0,0.0,0.009999999999999981,0.09099305555555537,0.19999999999999987,1.820915277777777,0.0,0.0,0.0,-100.0,1094686556.25,1149750.0000000023,0.0096183077391833,0.0,32808.0,0.0,0.0,0.0,8815.568639652778,0.058438755280389165,6690.645309588401,6690.703748343682,214610739.19999987
21,21,0.2096183077391833,1160.0,1164.0,1147.0,1165.0,0.0620000000000006,0.0620000000000006,0.1290000000000007,0.1300000000000007,360.0,1244.0,758.0,2111.0,400.0,400.0,400.0,400.0,1.9619999453425407,-69.65100169181824,1.375,1.2300000190734863,1.5850000381469729,1.184999942779541,-1.7400000259280204,25.0,2.0,2.0,2.0,2.0,71.0,71.0,71.0,71.0,32847.0,28138.0,32848.0,33016.0,33010.0,38831.0,32768.0,29314.0,0.1424493928312565,0.1268684219853464,0.65,0.1313157801465355,71.0,21.68,32847.0,32768.0,1076330496.0,21.68,470.0224,10190.085632,34873.11560947199,34873.11560947199,1073053696.0,71.0,-4099.999999999996,0.0,79.0,-1999.9999999999982,1.5850000381469729,0.1313157801465355,0.0620000000000006,0.0,0.09099305555555565,1.9119083333333327,1.0,0.0,0.010000000000000009,0.09099305555555559,0.0,0.0,0.20999999999999988,1.9119083333333327,0.0,0.0,0.0,79.0,718057200.0,-1149749.999999999,0.0096183077391833,0.0,32808.0,0.0,0.0,0.0,8819.977862816706,0.062700182553322,7046.630464111302,7046.693164293855,226029404.15999988
22,22,0.2196183077391833,1160.0,1164.0,1147.0,1165.0,0.0620000000000006,0.0620000000000006,0.1290000000000007,0.1300000000000007,360.0,1244.0,758.0,1952.0,400.0,400.0,400.0,400.0,7.847999781370163,-69.65100169181824,1.3350000381469729,1.2549999952316284,1.6349999904632568,1.1399999856948853,6.9600001037120816,25.0,2.0,2.0,2.0,2.0,71.0,71.0,71.0,71.0,32827.0,27935.0,32889.0,33851.0,32969.0,40124.0,32809.0,30107.0,0.1337255117265681,0.1,0.65,0.3767701652504274,71.0,21.68,32827.0,32809.0,1077021043.0,21.68,470.0224,10190.085632,34873.11560947199,34873.11560947199,1076330496.0,71.0,0.0,0.0,-20.0,4099.999999999996,1.6349999904632568,0.3767701652504274,0.0620000000000006,0.0,0.09107916666666675,2.0029874999999993,0.0,1.0,0.0,0.0,0.010000000000000009,0.0910791666666666,0.2199999999999999,2.0029874999999993,0.0,0.0,0.0,-20.0,-17962653.75,-2244749.999999998,0.0096183077391833,0.0,32808.0,0.0,0.0,0.0,8828.584555024665,0.06518268875433286,7386.9205224223515,7386.985705111106,236944629.4599999
23,23,0.2296183077391833,1160.0,1164.0,1147.0,1165.0,0.0620000000000006,0.0620000000000006,0.1290000000000007,0.1300000000000007,360.0,1244.0,758.0,1952.0,400.0,400.0,400.0,400.0,1.9619999453425407,-69.65100169181824,1.215000033378601,1.284999966621399,1.690000057220459,1.100000023841858,6.089999896287917,25.0,2.0,2.0,2.0,2.0,71.0,71.0,71.0,71.0,32827.0,27735.0,32848.0,34640.0,33010.0,41339.0,32809.0,30861.0,0.1250173873947707,0.1464752386098248,0.5802871420852628,0.35,71.0,21.68,32827.0,32809.0,1077021043.0,21.68,470.0224,10190.085632,34873.11560947199,34873.11560947199,1077021043.0,71.0,2099.999999999998,0.0,0.0,2099.999999999998,1.690000057220459,0.35,0.0620000000000006,0.0,0.09113611111111093,2.0941236111111103,1.0,0.0,0.009999999999999981,0.09113611111111108,0.0,0.0,0.22999999999999987,2.0941236111111103,0.0,0.0,0.0,0.0,-17962653.75,0.0,0.0096183077391833,0.0,32808.0,0.0,0.0,0.0,8828.584555024665,0.0649120115641158,7722.689637077912,7722.754549089476,247714839.88999987
24,24,0.2396183077391833,1160.0,1164.0,1147.0,1165.0,0.0620000000000006,0.0620000000000006,0.1290000000000007,0.1300000000000007,360.0,1244.0,758.0,1952.0,400.0,400.0,400.0,400.0,4.904999956488609,-66.70799851417542,1.149999976158142,1.315000057220459,1.7400000095367432,1.0850000381469729,6.089999896287917,25.0,2.0,2.0,2.0,2.0,71.0,71.0,71.0,71.0,32848.0,27554.0,32848.0,35384.0,33010.0,42477.0,32788.0,31576.0,0.1169524659175414,0.2,0.3605727692225551,0.1640970256300735,71.0,21.68,32848.0,32788.0,1077020224.0,21.68,470.0224,10190.085632,34873.11560947199,34873.11560947199,1077021043.0,71.0,1999.9999999999982,0.0,21.0,-100.0,1.7400000095367432,0.1640970256300735,0.0620000000000006,0.0,0.09110694444444453,2.1852305555555547,1.0,0.0,0.01999999999999999,0.18224305555555542,0.0,0.0,0.23999999999999988,2.1852305555555547,0.0,0.0,0.0,21.0,359138100.0,1149749.999999999,0.0096183077391833,0.0,32808.0,0.0,0.0,0.0,8824.176545044216,0.06303180565842312,8058.452623833039,8058.515655638697,258484853.75999987
25,25,0.2496183077391833,1160.0,1164.0,1147.0,1165.0,0.0620000000000006,0.0620000000000006,0.1290000000000007,0.1300000000000007,360.0,1082.0,758.0,1952.0,400.0,400.0,400.0,400.0,1.9619999453425407,-66.70799851417542,1.1100000143051147,1.3450000286102295,1.7949999570846558,1.090000033378601,-0.8700000129640102,25.0,2.0,2.0,2.0,2.0,71.0,71.0,71.0,71.0,32848.0,27390.0,32848.0,36085.0,33010.0,43542.0,32768.0,32255.0,0.1083327951515077,0.2901879710022297,0.2676409782516722,0.0176409782516722,71.0,21.68,32848.0,32768.0,1076363264.0,21.68,470.0224,10190.085632,34873.11560947199,34873.11560947199,1077020224.0,71.0,0.0,0.0,0.0,-1999.9999999999982,1.7949999570846558,0.0176409782516722,0.0620000000000006,0.0,0.09105000000000009,2.2762805555555548,1.0,0.0,0.03,0.2732930555555555,0.0,0.0,0.2499999999999999,2.2762805555555548,0.0,0.0,0.0,0.0,718057200.0,1094999.999999999,0.0096183077391833,0.0,32808.0,0.0,0.0,0.0,8819.977862816706,0.06155191425322081,8389.101182144925,8389.162734059179,269090815.9999999
26,26,0.2596183077391834,1160.0,1164.0,1147.0,1165.0,0.0620000000000006,0.0620000000000006,0.1290000000000007,0.1300000000000007,521.0,1082.0,758.0,1792.0,400.0,400.0,400.0,400.0,4.904999956488609,-69.65100169181824,1.0750000476837158,1.375,1.8450000286102293,1.1050000190734863,1.7400000259280204,25.0,2.0,2.0,2.0,2.0,71.0,71.0,71.0,71.0,32889.0,27244.0,32848.0,36744.0,33031.0,44536.0,32768.0,32898.0,0.0992105183295252,0.4,0.4844172262430574,0.2568200972835669,71.0,21.68,32889.0,32768.0,1077706752.0,21.68,470.0224,10190.085632,34873.11560947199,34873.11560947199,1076363264.0,71.0,0.0,0.0,41.0,0.0,1.8450000286102293,0.2568200972835669,0.0620000000000006,0.0,0.09102222222222281,2.3673027777777778,1.0,0.0,0.04000000000000006,0.3643152777777785,0.0,0.0,0.25999999999999995,2.3673027777777778,0.0,0.0,0.0,41.0,718057200.0,0.0,0.0096183077391833,0.0,32808.0,0.0,0.0,0.0,8819.977862816706,0.06396794485853005,8735.555124535651,8735.619092480509,280203755.5199999
27,27,0.2696183077391834,1160.0,1164.0,1147.0,1165.0,0.0620000000000006,0.0620000000000006,0.1290000000000007,0.1300000000000007,360.0,919.0,603.0,1952.0,400.0,400.0,400.0,400.0,-1.9619999453425407,-66.70799851417542,1.0700000524520874,1.399999976158142,1.899999976158142,1.1200000047683716,7.829999792575835,25.0,2.0,2.0,2.0,2.0,71.0,71.0,71.0,71.0,32868.0,27114.0,32848.0,37362.0,32929.0,44951.0,32768.0,33507.0,0.0902861633106311,0.4697429193440366,0.5570094408746178,0.3105141613119266,71.0,21.68,32868.0,32768.0,1077018624.0,21.68,470.0224,10190.085632,34873.11560947199,34873.11560947199,1077706752.0,71.0,2099.999999999998,0.0,-21.0,2099.999999999998,1.899999976158142,0.3105141613119266,0.0620000000000006,0.0,0.09102222222222231,2.458325,0.0,1.0,0.0,0.0,0.010000000000000009,0.09102222222222212,0.26999999999999996,2.458325,0.0,0.0,0.0,-21.0,718057200.0,0.0,0.0096183077391833,0.0,32808.0,0.0,0.0,0.0,8819.977862816706,0.06451032708044405,9065.74573389913,9065.81024422621,290795028.47999996
28,28,0.2796183077391834,1160.0,1164.0,1147.0,1165.0,0.0620000000000006,0.0620000000000006,0.1290000000000007,0.1300000000000007,360.0,1082.0,758.0,1952.0,400.0,400.0,400.0,400.0,4.904999956488609,-69.65100169181824,1.0800000429153442,1.4299999475479126,1.2549999952316284,1.1349999904632568,2.610000103712082,25.0,2.0,2.0,2.0,2.0,71.0,71.0,71.0,71.0,32848.0,27000.0,32868.0,37941.0,32969.0,44582.0,32747.0,34081.0,0.0810572252622537,0.2710616938570302,0.5662242942262374,-0.0359588707619798,71.0,21.68,32848.0,32747.0,1075673456.0,21.68,470.0224,10190.085632,34873.11560947199,34873.11560947199,1077018624.0,71.0,-2100.0000000000214,0.0,-20.0,-4200.00000000002,1.2549999952316284,-0.0359588707619798,0.0620000000000006,0.0,0.09099305555555565,2.5493180555555557,0.0,1.0,0.0,0.0,0.020000000000000018,0.18201527777777793,0.27999999999999997,2.5493180555555557,0.0,0.0,0.0,-20.0,1094686556.25,1149749.999999999,0.0096183077391833,0.0,32808.0,0.0,0.0,0.0,8815.568639652778,0.061010975896188646,9389.771850009274,9389.83286098517,301188567.67999995
29,29,0.2896183077391833,1160.0,1164.0,1147.0,1165.0,0.0620000000000006,0.0620000000000006,0.1290000000000007,0.1300000000000007,360.0,1244.0,603.0,2111.0,400.0,400.0,400.0,400.0,1.9619999453425407,-72.59399890899658,1.090000033378601,1.4600000381469729,1.0199999809265137,1.1549999713897705,-4.35,25.0,2.0,2.0,2.0,2.0,71.0,71.0,71.0,71.0,32827.0,26902.0,32848.0,38481.0,32969.0,44215.0,32768.0,34622.0,0.0717475680913494,0.0875278090338377,0.5395508894605227,-0.1812360954830811,71.0,21.68,32827.0,32768.0,1075675136.0,21.68,470.0224,10190.085632,34873.11560947199,34873.11560947199,1075673456.0,71.0,-1999.9999999999982,0.0,-21.0,100.00000000002319,1.0199999809265137,-0.1812360954830811,0.0620000000000006,0.0,0.09099305555555463,2.64031111111111,0.0,1.0,0.0,0.0,0.029999999999999916,0.2730083333333324,0.28999999999999987,2.64031111111111,0.0,0.0,0.0,-21.0,718057200.0,-1149750.0000000116,0.0096183077391833,0.0,32808.0,0.0,0.0,0.0,8819.977862816706,0.05954298847917183,9725.136033465502,9725.195576453982,311945789.4399999
30,30,0.2996183077391833,1160.0,1164.0,1147.0,1165.0,0.0620000000000006,0.0620000000000006,0.1290000000000007,0.1300000000000007,360.0,1244.0,603.0,2111.0,400.0,400.0,400.0,400.0,1.9619999453425407,-69.65100169181824,1.1100000143051147,1.4900000095367432,0.925000011920929,1.1699999570846558,-1.7400000259280204,25.0,2.0,2.0,2.0,2.0,71.0,71.0,71.0,71.0,32827.0,26817.0,32848.0,38985.0,32990.0,43851.0,32788.0,35131.0,0.0629576317349094,0.1128115794294539,0.3728647367617577,-0.1228647367617576,71.0,21.68,32827.0,32788.0,1076331676.0,21.68,470.0224,10190.085632,34873.11560947199,34873.11560947199,1075675136.0,71.0,-1999.9999999999982,0.0,0.0,0.0,0.925000011920929,-0.1228647367617576,0.0620000000000006,0.0,0.09105000000000009,2.7313611111111102,1.0,0.0,0.010000000000000009,0.09105000000000008,0.0,0.0,0.2999999999999999,2.7313611111111102,0.0,0.0,0.0,0.0,359138100.0,-1094999.999999999,0.0096183077391833,0.0,32808.0,0.0,0.0,0.0,8824.176545044216,0.060131733218902694,10066.625984936953,10066.686116670171,322899502.7999999
31,31,0.3096183077391833,1160.0,1164.0,1147.0,1165.0,0.0620000000000006,0.0620000000000006,0.1290000000000007,0.1300000000000007,360.0,1082.0,603.0,1952.0,400.0,400.0,400.0,400.0,-1.9619999453425407,-69.65100169181824,1.125,1.5149999856948853,0.8799999952316284,1.190000057220459,-2.610000103712082,25.0,2.0,2.0,2.0,2.0,71.0,71.0,71.0,71.0,32868.0,26747.0,32848.0,39452.0,32969.0,43490.0,32808.0,35610.0,0.0533562136338476,0.0430064293716805,0.4232516073429201,0.1290192881150417,71.0,21.68,32868.0,32808.0,1078333344.0,21.68,470.0224,10190.085632,34873.11560947199,34873.11560947199,1076331676.0,71.0,-99.99999999999991,0.0,41.0,1899.9999999999982,0.8799999952316284,0.1290192881150417,0.0620000000000006,0.0,0.09110555555555565,2.822466666666666,1.0,0.0,0.020000000000000018,0.18215555555555563,0.0,0.0,0.3099999999999999,2.822466666666666,0.0,0.0,0.0,41.0,0.0,-1094999.999999999,0.0096183077391833,0.0,32808.0,0.0,0.0,0.0,8828.374663865496,0.06267762613118288,10421.525254053908,10421.587931680038,334283336.63999987
32,32,0.3196183077391833,1160.0,1164.0,1147.0,1165.0,0.0620000000000006,0.0620000000000006,0.1290000000000007,0.1300000000000007,360.0,1082.0,758.0,1952.0,400.0,400.0,400.0,400.0,-4.904999956488609,-66.70799851417542,1.1399999856948853,1.5449999570846558,0.8399999737739563,1.2050000429153442,7.829999792575835,25.0,2.0,2.0,2.0,2.0,71.0,71.0,71.0,71.0,32827.0,26689.0,32868.0,39886.0,32969.0,43133.0,32809.0,36058.0,0.0444027967441503,0.1034670075096207,0.4732664962451896,0.4732664962451896,71.0,21.68,32827.0,32809.0,1077021043.0,21.68,470.0224,10190.085632,34873.11560947199,34873.11560947199,1078333344.0,71.0,4099.999999999974,0.0,-41.0,4199.999999999974,0.8399999737739563,0.4732664962451896,0.0620000000000006,0.0,0.09113472222222231,2.913601388888888,0.0,1.0,0.0,0.0,0.010000000000000009,0.0911347222222223,0.3199999999999999,2.913601388888888,0.0,0.0,0.0,-41.0,-17962653.75,-54749.999999999956,0.0096183077391833,0.0,32808.0,0.0,0.0,0.0,8828.584555024665,0.06615837775346978,10744.61166897797,10744.677827355723,344646733.7599999
33,33,0.3296183077391834,1160.0,1164.0,1147.0,1165.0,0.0620000000000006,0.0620000000000006,0.1290000000000007,0.1300000000000007,360.0,1244.0,758.0,1952.0,400.0,400.0,400.0,400.0,-7.847999781370163,-69.65100169181824,1.159999966621399,1.5750000476837158,0.800000011920929,1.225000023841858,8.7,25.0,2.0,2.0,2.0,2.0,71.0,71.0,71.0,71.0,32788.0,26645.0,32848.0,40285.0,32990.0,42779.0,32768.0,36477.0,0.0351458145712465,0.1663249471435514,0.662854926000972,0.4534700211425794,71.0,21.68,32788.0,32768.0,1074397184.0,21.68,470.0224,10190.085632,34873.11560947199,34873.11560947199,1077021043.0,71.0,-4099.999999999996,0.0,-39.0,-8199.99999999997,0.800000011920929,0.4534700211425794,0.0620000000000006,0.0,0.09107916666666725,3.0046805555555554,0.0,1.0,0.0,0.0,0.020000000000000073,0.18221388888888956,0.32999999999999996,3.0046805555555554,0.0,0.0,0.0,-39.0,718057200.0,2244749.9999999856,0.0096183077391833,0.0,32808.0,0.0,0.0,0.0,8819.977862816706,0.06595437342511301,11053.386550761737,11053.452505135163,354551070.71999997
34,34,0.3396183077391834,1160.0,1164.0,1147.0,1165.0,0.0620000000000006,0.0620000000000006,0.1290000000000007,0.1300000000000007,360.0,1244.0,758.0,1952.0,400.0,400.0,400.0,400.0,-11.772000044584274,-72.59399890899658,1.1749999523162842,1.6050000190734863,0.7549999952316284,1.2400000095367432,6.9600001037120816,25.0,2.0,2.0,2.0,2.0,71.0,71.0,71.0,71.0,32848.0,26612.0,32909.0,40653.0,32989.0,42430.0,32809.0,36868.0,0.025772611844496,0.1394488447597029,0.7123847240797454,0.1706412067995756,71.0,21.68,32848.0,32809.0,1077710032.0,21.68,470.0224,10190.085632,34873.11560947199,34873.11560947199,1074397184.0,71.0,2099.999999999998,0.0,60.0,6199.9999999999945,0.7549999952316284,0.1706412067995756,0.0620000000000006,0.0,0.09107916666666675,3.095759722222222,1.0,0.0,0.010000000000000009,0.09107916666666682,0.0,0.0,0.33999999999999997,3.095759722222222,0.0,0.0,0.0,60.0,-17962653.75,-2244749.999999998,0.0096183077391833,0.0,32808.0,0.0,0.0,0.0,8828.584555024665,0.063098487675486,11423.453006945509,11423.516105433184,366421410.88
35,35,0.3496183077391834,1160.0,1164.0,1147.0,1165.0,0.0620000000000006,0.0620000000000006,0.1290000000000007,0.1300000000000007,360.0,1244.0,758.0,1952.0,400.0,400.0,400.0,400.0,-4.904999956488609,-72.59399890899658,1.190000057220459,1.6299999952316284,0.7149999737739563,1.2599999904632568,-1.7400000259280204,25.0,2.0,2.0,2.0,2.0,71.0,71.0,71.0,71.0,32848.0,26590.0,32788.0,40991.0,32969.0,42085.0,32788.0,37232.0,0.0168379057134067,0.0186163193012148,0.55,-0.1228721064337382,71.0,21.68,32848.0,32788.0,1077020224.0,21.68,470.0224,10190.085632,34873.11560947199,34873.11560947199,1077710032.0,71.0,2000.0000000000205,0.0,0.0,-99.99999999997772,0.7149999737739563,-0.1228721064337382,0.0620000000000006,0.0,0.09110694444444453,3.1868666666666665,1.0,0.0,0.020000000000000018,0.18218611111111116,0.0,0.0,0.35,3.1868666666666665,0.0,0.0,0.0,0.0,359138100.0,1149749.999999999,0.0096183077391833,0.0,32808.0,0.0,0.0,0.0,8824.176545044216,0.06013165874005079,11751.910076423186,11751.970208081926,376957078.4
36,36,0.3596183077391833,1160.0,1164.0,1147.0,1165.0,0.0620000000000006,0.0620000000000006,0.1290000000000007,0.1300000000000007,360.0,1082.0,758.0,1952.0,400.0,400.0,400.0,400.0,-11.772000044584274,-72.59399890899658,1.2100000381469729,1.659999966621399,0.6700000166893005,1.274999976158142,-2.610000103712082,25.0,2.0,2.0,2.0,2.0,71.0,71.0,71.0,71.0,32827.0,26579.0,32848.0,41298.0,32990.0,41745.0,32768.0,37569.0,0.0069780679584112,0.2162924451664654,0.55,0.0128094232330515,71.0,21.68,32827.0,32768.0,1075675136.0,21.68,470.0224,10190.085632,34873.11560947199,34873.11560947199,1077020224.0,71.0,0.0,0.0,-21.0,-2000.0000000000205,0.6700000166893005,0.0128094232330515,0.0620000000000006,0.0,0.09104999999999908,3.2779166666666657,0.0,1.0,0.0,0.0,0.009999999999999898,0.09104999999999919,0.3599999999999999,3.2779166666666657,0.0,0.0,0.0,-21.0,718057200.0,1095000.0000000112,0.0096183077391833,0.0,32808.0,0.0,0.0,0.0,8819.977862816706,0.06150310905298648,12072.58266223304,12072.644165342093,387243048.95999986
37,37,0.3696183077391833,1160.0,1164.0,1147.0,1165.0,0.0620000000000006,0.0620000000000006,0.1290000000000007,0.1300000000000007,360.0,1244.0,758.0,1952.0,400.0,400.0,400.0,400.0,-7.847999781370163,-72.59399890899658,1.225000023841858,1.690000057220459,0.6299999952316284,1.2949999570846558,3.4800000518560408,25.0,2.0,2.0,2.0,2.0,71.0,71.0,71.0,71.0,32848.0,26578.0,32848.0,41577.0,32969.0,41411.0,32768.0,37882.0,0.00015,0.3965007107508246,0.5267496446245877,0.2465007107508246,71.0,21.68,32848.0,32768.0,1076363264.0,21.68,470.0224,10190.085632,34873.11560947199,34873.11560947199,1075675136.0,71.0,-4099.999999999996,0.0,21.0,-4099.999999999996,0.6299999952316284,0.2465007107508246,0.0620000000000006,0.0,0.09102222222222231,3.368938888888888,1.0,0.0,0.010000000000000009,0.09102222222222212,0.0,0.0,0.3699999999999999,3.368938888888888,0.0,0.0,0.0,21.0,718057200.0,0.0,0.0096183077391833,0.0,32808.0,0.0,0.0,0.0,8819.977862816706,0.06386370518329404,12415.86974957449,12415.933613279672,398254407.6799999
38,38,0.3796183077391833,1160.0,1164.0,1147.0,1165.0,0.0620000000000006,0.0620000000000006,0.1290000000000007,0.1300000000000007,360.0,1244.0,603.0,1952.0,400.0,400.0,400.0,400.0,-11.772000044584274,-66.70799851417542,1.2400000095367432,1.7200000286102295,0.5849999785423279,1.309999942779541,5.220000207424164,25.0,2.0,2.0,2.0,2.0,71.0,71.0,71.0,71.0,32848.0,26586.0,32848.0,41828.0,32990.0,41081.0,32809.0,38169.0,0.0003175435316088,0.4034857959898371,0.4069715919796741,0.1139431839593481,71.0,21.68,32848.0,32809.0,1077710032.0,21.68,470.0224,10190.085632,34873.11560947199,34873.11560947199,1076363264.0,71.0,-1799.9999999999884,0.0,0.0,2300.000000000008,0.5849999785423279,0.1139431839593481,0.0620000000000006,0.0,0.09107916666666675,3.4600180555555546,1.0,0.0,0.020000000000000018,0.18210138888888894,0.0,0.0,0.3799999999999999,3.4600180555555546,0.0,0.0,0.0,0.0,-17962653.75,-2244749.999999998,0.0096183077391833,0.0,32808.0,0.0,0.0,0.0,8828.584555024665,0.06252520539016235,12767.388654821447,12767.451180026837,409529812.1599999
39,39,0.3896183077391834,1160.0,1164.0,1147.0,1165.0,0.0620000000000006,0.0620000000000006,0.1290000000000007,0.1300000000000007,360.0,1244.0,758.0,1952.0,400.0,400.0,400.0,400.0,-14.714999496936798,-59.84100103378296,1.2599999904632568,1.75,0.5400000214576721,1.3300000429153442,-1.7400000259280204,25.0,2.0,2.0,2.0,2.0,71.0,71.0,71.0,71.0,32889.0,26604.0,32869.0,42054.0,32969.0,40758.0,32827.0,38434.0,0.0006106718212638,0.1664818087445696,0.3,-0.214698869534644,71.0,21.68,32889.0,32827.0,1079647203.0,21.68,470.0224,10190.085632,34873.11560947199,34873.11560947199,1077710032.0,71.0,5899.9999999999945,0.0,41.0,7699.999999999983,0.5400000214576721,-0.214698869534644,0.0620000000000006,0.0,0.0911611111111117,3.5511791666666666,1.0,0.0,0.030000000000000082,0.27326250000000085,0.0,0.0,0.38999999999999996,3.5511791666666666,0.0,0.0,0.0,41.0,-341384043.75,-985499.9999999936,0.0096183077391833,0.0,32808.0,0.0,0.0,0.0,8832.362355272315,0.05920106478074272,13126.925723562552,13126.984924627333,421062409.16999996
40,40,0.3996183077391834,1160.0,1164.0,1147.0,1165.0,0.0620000000000006,0.0620000000000006,0.1290000000000007,0.1300000000000007,360.0,1244.0,758.0,1792.0,400.0,400.0,400.0,400.0,-11.772000044584274,-50.03100037574768,1.274999976158142,1.774999976158142,0.5,1.3450000286102295,-6.089999896287917,25.0,2.0,2.0,2.0,2.0,71.0,71.0,71.0,71.0,32807.0,26630.0,32848.0,42254.0,32990.0,40439.0,32768.0,38675.0,0.0011898159377809,-0.05,0.4143277972849223,-0.1670755243441243,71.0,21.68,32807.0,32768.0,1075019776.0,21.68,470.0224,10190.085632,34873.11560947199,34873.11560947199,1079647203.0,71.0,0.0,0.0,-82.0,-5899.9999999999945,0.5,-0.1670755243441243,0.0620000000000006,0.0,0.09110416666666675,3.6422833333333333,0.0,1.0,0.0,0.0,0.010000000000000009,0.09110416666666676,0.39999999999999997,3.6422833333333333,0.0,0.0,0.0,-82.0,718057200.0,3230249.999999997,0.0096183077391833,0.0,32808.0,0.0,0.0,0.0,8819.977862816706,0.059686029282227104,13405.808206655072,13405.867892684355,430007910.4
41,41,0.4096183077391834,1160.0,1164.0,1147.0,1165.0,0.0620000000000006,0.0620000000000006,0.1290000000000007,0.1300000000000007,360.0,1244.0,758.0,1952.0,400.0,400.0,400.0,400.0,-11.772000044584274,-37.27799952030182,1.2899999618530271,1.8049999475479128,0.4550000131130218,1.3650000095367432,0.8700000129640102,25.0,2.0,2.0,2.0,2.0,71.0,71.0,71.0,71.0,32908.0,26664.0,32848.0,42430.0,32969.0,40127.0,32768.0,38895.0,0.0016086940067301,-0.1197688953945923,0.2709244184216305,0.0732562984648641,71.0,21.68,32908.0,32768.0,1078329344.0,21.68,470.0224,10190.085632,34873.11560947199,34873.11560947199,1075019776.0,71.0,0.0,0.0,101.0,0.0,0.4550000131130218,0.0732562984648641,0.0620000000000006,0.0,0.09102222222222231,3.7333055555555554,1.0,0.0,0.010000000000000009,0.09102222222222212,0.0,0.0,0.41,3.7333055555555554,0.0,0.0,0.0,101.0,718057200.0,0.0,0.0096183077391833,0.0,32808.0,0.0,0.0,0.0,8819.977862816706,0.062113703745142246,13783.256465882898,13783.318579586643,442115031.03999996
42,42,0.4196183077391833,1160.0,1164.0,1147.0,1165.0,0.0620000000000006,0.0620000000000006,0.1290000000000007,0.1300000000000007,360.0,1244.0,914.0,2111.0,400.0,400.0,400.0,400.0,-4.904999956488609,-24.52500015497208,1.309999942779541,1.8350000381469729,0.4099999964237213,1.3799999952316284,1.7400000259280204,25.0,2.0,2.0,2.0,2.0,71.0,71.0,71.0,71.0,32848.0,26706.0,32848.0,42583.0,32990.0,39821.0,32768.0,39094.0,0.0022405351884657,0.0093475234238217,-0.0034783281280396,0.1232608359359802,71.0,21.68,32848.0,32768.0,1076363264.0,21.68,470.0224,10190.085632,34873.11560947199,34873.11560947199,1078329344.0,71.0,4199.999999999996,0.0,-60.0,4199.999999999996,0.4099999964237213,0.1232608359359802,0.0620000000000006,0.0,0.0910222222222213,3.8243277777777767,0.0,1.0,0.0,0.0,0.009999999999999898,0.09102222222222123,0.4199999999999999,3.8243277777777767,0.0,0.0,0.0,-60.0,718057200.0,0.0,0.0096183077391833,0.0,32808.0,0.0,0.0,0.0,8819.977862816706,0.06261881678938938,14093.689986003474,14093.752604820264,452072570.8799999
43,43,0.4296183077391833,1160.0,1164.0,1147.0,1165.0,0.0620000000000006,0.0620000000000006,0.1290000000000007,0.1300000000000007,360.0,1244.0,758.0,2111.0,400.0,400.0,400.0,400.0,-11.772000044584274,-14.714999496936798,1.3250000476837158,1.8650000095367432,0.3700000047683716,1.3949999809265137,2.610000103712082,25.0,2.0,2.0,2.0,2.0,71.0,71.0,71.0,71.0,32869.0,26755.0,32848.0,42714.0,32969.0,39522.0,32726.0,39272.0,0.0024649546203908,0.4127152249548682,0.2127152249548682,0.0802649035907707,71.0,21.68,32869.0,32726.0,1075670894.0,21.68,470.0224,10190.085632,34873.11560947199,34873.11560947199,1076363264.0,71.0,-4199.999999999996,0.0,21.0,-8399.999999999993,0.3700000047683716,0.0802649035907707,0.0620000000000006,0.0,0.09096388888888898,3.9152916666666657,1.0,0.0,0.010000000000000009,0.09096388888888907,0.0,0.0,0.4299999999999999,3.9152916666666657,0.0,0.0,0.0,21.0,1471074465.0,2299499.999999998,0.0096183077391833,0.0,32808.0,0.0,0.0,0.0,8811.15879438455,0.06218431653075836,14419.972424608295,14420.034608924825,462538484.4199999
44,44,0.4396183077391833,1160.0,1164.0,1147.0,1165.0,0.0620000000000006,0.0620000000000006,0.1290000000000007,0.1300000000000007,199.0,1244.0,758.0,1952.0,400.0,400.0,400.0,400.0,-11.772000044584274,1.9619999453425407,1.340000033378601,1.8899999856948853,0.324999988079071,1.4149999618530271,0.0,25.0,2.0,2.0,2.0,2.0,71.0,71.0,71.0,71.0,32848.0,26810.0,32827.0,42823.0,32989.0,39228.0,32768.0,39432.0,0.0031757681391442,0.5535204137430518,0.3302806206145778,0.1394387587708443,71.0,21.68,32848.0,32768.0,1076363264.0,21.68,470.0224,10190.085632,34873.11560947199,34873.11560947199,1075670894.0,71.0,-4099.999999999974,0.0,-21.0,100.00000000002274,0.324999988079071,0.1394387587708443,0.0620000000000006,0.0,0.09096388888888898,4.006255555555555,0.0,1.0,0.0,0.0,0.010000000000000009,0.09096388888888907,0.4399999999999999,4.006255555555555,0.0,0.0,0.0,-21.0,718057200.0,-2299499.999999998,0.0096183077391833,0.0,32808.0,0.0,0.0,0.0,8819.977862816706,0.06278223555628497,14764.818080575069,14764.880862810625,473599836.1599999
45,45,0.4496183077391834,1160.0,1164.0,1147.0,1165.0,0.0620000000000006,0.0620000000000006,0.1290000000000007,0.1300000000000007,360.0,1244.0,758.0,1952.0,400.0,400.0,400.0,400.0,-14.714999496936798,11.772000044584274,1.3600000143051147,1.919999957084656,0.2849999964237213,1.4299999475479126,5.220000207424164,25.0,2.0,2.0,2.0,2.0,71.0,71.0,71.0,71.0,32848.0,26872.0,32889.0,42913.0,33010.0,38941.0,32809.0,39573.0,0.0031018853280841,0.5221355685773572,0.1614577256905712,0.2114577256905712,71.0,21.68,32848.0,32809.0,1077710032.0,21.68,470.0224,10190.085632,34873.11560947199,34873.11560947199,1076363264.0,71.0,0.0,0.0,0.0,4099.999999999974,0.2849999964237213,0.2114577256905712,0.0620000000000006,0.0,0.09107916666666725,4.097334722222222,1.0,0.0,0.010000000000000064,0.09107916666666682,0.0,0.0,0.44999999999999996,4.097334722222222,0.0,0.0,0.0,0.0,-17962653.75,-2244749.9999999856,0.0096183077391833,0.0,32808.0,0.0,0.0,0.0,8828.584555024665,0.06351118967207456,15119.276038604346,15119.339549794018,484969514.4
46,46,0.4596183077391834,1160.0,1164.0,1147.0,1165.0,0.0620000000000006,0.0620000000000006,0.1290000000000007,0.1300000000000007,360.0,1244.0,758.0,1952.0,400.0,400.0,400.0,400.0,-14.714999496936798,14.714999496936798,1.375,1.950000047683716,0.2399999946355819,1.4500000476837158,1.7400000259280204,25.0,2.0,2.0,2.0,2.0,71.0,71.0,71.0,71.0,32869.0,26939.0,32827.0,42984.0,33010.0,38661.0,32809.0,39696.0,0.0017749138038277,0.5932297595301995,0.0716148797650997,-0.0080743988254985,71.0,21.68,32869.0,32809.0,1078399021.0,21.68,470.0224,10190.085632,34873.11560947199,34873.11560947199,1077710032.0,71.0,2099.999999999998,0.0,21.0,2099.999999999998,0.2399999946355819,-0.0080743988254985,0.0620000000000006,0.0,0.0911361111111112,4.188470833333333,1.0,0.0,0.020000000000000073,0.1822152777777779,0.0,0.0,0.45999999999999996,4.188470833333333,0.0,0.0,0.0,21.0,-17962653.75,0.0,0.0096183077391833,0.0,32808.0,0.0,0.0,0.0,8828.584555024665,0.06129146715372187,15465.140626990831,15465.201918457984,496063549.65999997
47,47,0.4696183077391834,1160.0,1164.0,1147.0,1165.0,0.0620000000000006,0.0620000000000006,0.1290000000000007,0.1300000000000007,360.0,1082.0,293.0,1952.0,400.0,400.0,400.0,400.0,-14.714999496936798,17.65799969434738,1.3949999809265137,1.9800000190734863,0.1949999928474426,1.465000033378601,-2.610000103712082,25.0,2.0,2.0,2.0,2.0,71.0,71.0,71.0,71.0,32827.0,27011.0,32848.0,43037.0,33010.0,38387.0,32788.0,39803.0,0.0050139380478402,0.7879940655612816,0.2609930764881617,-0.1729990109268802,71.0,21.68,32827.0,32788.0,1076331676.0,21.68,470.0224,10190.085632,34873.11560947199,34873.11560947199,1078399021.0,71.0,0.0,0.0,-42.0,-2099.999999999998,0.1949999928474426,-0.1729990109268802,0.0620000000000006,0.0,0.09110694444444453,4.279577777777777,0.0,1.0,0.0,0.0,0.010000000000000009,0.09110694444444434,0.47,4.279577777777777,0.0,0.0,0.0,-42.0,359138100.0,1149749.999999999,0.0096183077391833,0.0,32808.0,0.0,0.0,0.0,8824.176545044216,0.059625069802948655,15771.047376401231,15771.107001471035,505875887.71999997
48,48,0.4796183077391833,1160.0,1164.0,1147.0,1165.0,0.0620000000000006,0.0620000000000006,0.1290000000000007,0.1300000000000007,521.0,1244.0,914.0,1792.0,400.0,400.0,400.0,400.0,-17.65799969434738,34.334999322891235,1.409999966621399,2.005000114440918,0.1550000011920929,1.4850000143051147,-3.4800000518560408,25.0,2.0,2.0,2.0,2.0,71.0,71.0,71.0,71.0,32868.0,27088.0,32848.0,43072.0,32969.0,38120.0,32788.0,39893.0,0.0101935000872873,0.8802603039598575,0.3802603039598575,-0.0372740425730009,71.0,21.68,32868.0,32788.0,1077675984.0,21.68,470.0224,10190.085632,34873.11560947199,34873.11560947199,1076331676.0,71.0,4099.999999999996,0.0,41.0,4099.999999999996,0.1550000011920929,-0.0372740425730009,0.0620000000000006,0.0,0.09107777777777686,4.370655555555554,1.0,0.0,0.009999999999999898,0.0910777777777767,0.0,0.0,0.47999999999999987,4.370655555555554,0.0,0.0,0.0,41.0,359138100.0,0.0,0.0096183077391833,0.0,32808.0,0.0,0.0,0.0,8824.176545044216,0.06099672377104915,16126.718268396517,16126.779265120287,517284472.3199999
49,49,0.4896183077391833,1160.0,1164.0,1147.0,1165.0,0.0620000000000006,0.0620000000000006,0.1290000000000007,0.1300000000000007,521.0,1244.0,914.0,1952.0,400.0,400.0,400.0,400.0,-7.847999781370163,40.2209997177124,1.4249999523162842,2.0350000858306885,0.1099999994039535,1.5,2.610000103712082,25.0,2.0,2.0,2.0,2.0,71.0,71.0,71.0,71.0,32827.0,27170.0,32827.0,43091.0,33031.0,37859.0,32747.0,39968.0,0.0157591064480832,0.754175900257165,0.3687361496142526,0.2187361496142525,71.0,21.68,32827.0,32747.0,1074985769.0,21.68,470.0224,10190.085632,34873.11560947199,34873.11560947199,1077675984.0,71.0,-6199.9999999999945,0.0,-41.0,-10299.99999999999,0.1099999994039535,0.2187361496142525,0.0620000000000006,0.0,0.09102083333333343,4.461676388888887,0.0,1.0,0.0,0.0,0.010000000000000009,0.09102083333333333,0.4899999999999999,4.461676388888887,0.0,0.0,0.0,-41.0,1094686556.25,2244749.999999998,0.0096183077391833,0.0,32808.0,0.0,0.0,0.0,8815.568639652778,0.06358245831849049,16421.59555864726,16421.659141105578,526743026.8099999
50,50,0.4996183077391833,1160.0,1164.0,1147.0,1165.0,0.0620000000000006,0.0620000000000006,0.1290000000000007,0.1300000000000007,521.0,1244.0,914.0,1952.0,400.0,400.0,400.0,400.0,-4.904999956488609,47.0880001783371,1.4450000524520874,2.065000057220459,0.0649999976158142,1.5199999809265137,5.220000207424164,25.0,2.0,2.0,2.0,2.0,71.0,71.0,71.0,71.0,32869.0,27256.0,32848.0,43095.0,33010.0,37606.0,32809.0,40028.0,0.0220779610219757,0.7457716380166813,0.1524843528915719,0.116913447933275,71.0,21.68,32869.0,32809.0,1078399021.0,21.68,470.0224,10190.085632,34873.11560947199,34873.11560947199,1074985769.0,71.0,2099.9999999999864,0.0,42.0,8299.999999999982,0.0649999976158142,0.116913447933275,0.0620000000000006,0.0,0.09105000000000009,4.552726388888887,1.0,0.0,0.010000000000000009,0.09105000000000008,0.0,0.0,0.4999999999999999,4.552726388888887,0.0,0.0,0.0,42.0,-17962653.75,-3394499.999999997,0.0096183077391833,0.0,32808.0,0.0,0.0,0.0,8828.584555024665,0.06255523817849759,16809.935464120466,16809.998019358645,539199510.4999999
51,51,0.5096183077391834,1160.0,1164.0,1147.0,1165.0,0.0620000000000006,0.0620000000000006,0.1290000000000007,0.1300000000000007,521.0,1082.0,1069.0,1792.0,400.0,400.0,400.0,400.0,-4.904999956488609,50.03100037574768,1.4600000381469729,2.095000028610229,0.025000000372529,1.534999966621399,-1.7400000259280204,25.0,2.0,2.0,2.0,2.0,71.0,71.0,71.0,71.0,32889.0,27345.0,32889.0,43084.0,33031.0,37359.0,32788.0,40075.0,0.0291969758210997,0.9396900448737824,-0.0370282809805874,-0.0534366517087392,71.0,21.68,32889.0,32788.0,1078364532.0,21.68,470.0224,10190.085632,34873.11560947199,34873.11560947199,1078399021.0,71.0,-10099.99999999999,0.0,20.0,-12199.999999999978,0.025000000372529,-0.0534366517087392,0.0620000000000006,0.0,0.09110694444444503,4.643833333333332,1.0,0.0,0.020000000000000073,0.1821569444444453,0.0,0.0,0.51,4.643833333333332,0.0,0.0,0.0,20.0,359138100.0,1149749.9999999925,0.0096183077391833,0.0,32808.0,0.0,0.0,0.0,8824.176545044216,0.06083338236655466,17145.585811423694,17145.64664480606,549965911.32
52,52,0.5196183077391834,1160.0,1164.0,1147.0,1165.0,0.0620000000000006,0.0620000000000006,0.1290000000000007,0.1300000000000007,521.0,1082.0,758.0,1952.0,400.0,400.0,400.0,400.0,-1.9619999453425407,53.95500063896179,1.475000023841858,2.125,0.0049999998882412,1.5549999475479126,0.0,25.0,2.0,2.0,2.0,2.0,71.0,71.0,71.0,71.0,32848.0,27438.0,32848.0,43060.0,33010.0,37119.0,32889.0,40108.0,0.0365433087261994,1.1232791370264374,0.1965582740528748,-0.1396748221586245,71.0,21.68,32848.0,32889.0,1080337872.0,21.68,470.0224,10190.085632,34873.11560947199,34873.11560947199,1078364532.0,71.0,12099.999999999989,0.0,-41.0,22199.999999999978,0.0049999998882412,-0.1396748221586245,0.0620000000000006,0.0,0.09121805555555565,4.735051388888888,0.0,1.0,0.0,0.0,0.010000000000000009,0.09121805555555529,0.52,4.735051388888888,0.0,0.0,0.0,-41.0,-1456748853.75,-5529749.999999995,0.0096183077391833,0.0,32808.0,0.0,0.0,0.0,8845.371292190572,0.05995697778953488,17513.76432682783,17513.824283805618,561775693.44
53,53,0.5296183077391834,1160.0,1164.0,1147.0,1165.0,0.0620000000000006,0.0620000000000006,0.1290000000000007,0.1300000000000007,521.0,1082.0,758.0,1792.0,400.0,400.0,400.0,400.0,-11.772000044584274,59.84100103378296,1.4950000047683716,2.150000095367432,2.0816681711721685e-15,1.5700000524520874,-5.220000207424164,25.0,2.0,2.0,2.0,2.0,71.0,71.0,71.0,71.0,32868.0,27534.0,32848.0,43022.0,32969.0,36886.0,32768.0,40129.0,0.0443299234104417,1.1732883198073836,0.2965766396147672,-0.2301350405778491,71.0,21.68,32868.0,32768.0,1077018624.0,21.68,470.0224,10190.085632,34873.11560947199,34873.11560947199,1080337872.0,71.0,-1999.9999999999982,0.0,20.0,-14099.999999999987,2.0816681711721685e-15,-0.2301350405778491,0.0620000000000006,0.0,0.09119027777777787,4.826241666666665,1.0,0.0,0.010000000000000009,0.09119027777777777,0.0,0.0,0.53,4.826241666666665,0.0,0.0,0.0,20.0,718057200.0,6624749.999999994,0.0096183077391833,0.0,32808.0,0.0,0.0,0.0,8819.977862816706,0.05904904340405617,17795.72310728348,17795.782156326884,570819870.72
54,54,0.5396183077391834,1160.0,1164.0,1147.0,1165.0,0.0620000000000006,0.0620000000000006,0.1290000000000007,0.1300000000000007,521.0,919.0,914.0,1792.0,400.0,400.0,400.0,400.0,-4.904999956488609,59.84100103378296,1.5099999904632568,2.180000066757202,2.0816681711721685e-15,1.590000033378601,-2.610000103712082,25.0,2.0,2.0,2.0,2.0,71.0,71.0,71.0,71.0,32848.0,27633.0,32848.0,42972.0,33010.0,36659.0,32788.0,40137.0,0.0519620466643436,1.1311708608677624,0.2352847681129375,-0.0352847681129374,71.0,21.68,32848.0,32788.0,1077020224.0,21.68,470.0224,10190.085632,34873.11560947199,34873.11560947199,1077018624.0,71.0,0.0,0.0,-20.0,1999.9999999999982,2.0816681711721685e-15,-0.0352847681129374,0.0620000000000006,0.0,0.09105000000000009,4.9172916666666655,0.0,1.0,0.0,0.0,0.010000000000000009,0.09105000000000008,0.54,4.9172916666666655,0.0,0.0,0.0,-20.0,359138100.0,-1094999.999999999,0.0096183077391833,0.0,32808.0,0.0,0.0,0.0,8824.176545044216,0.061016827634324124,18131.518403624348,18131.57942045198,581590920.96
55,55,0.5496183077391834,1160.0,1164.0,1147.0,1165.0,0.0620000000000006,0.0620000000000006,0.1290000000000007,0.1300000000000007,360.0,1082.0,758.0,1952.0,400.0,400.0,400.0,400.0,-7.847999781370163,56.89799785614014,1.524999976158142,2.2100000381469727,2.0816681711721685e-15,1.6050000190734863,1.7400000259280204,25.0,2.0,2.0,2.0,2.0,71.0,71.0,71.0,71.0,32807.0,27734.0,32848.0,42911.0,32950.0,36439.0,32788.0,40135.0,0.0590657499960208,0.958503236201576,-0.0829935275968479,0.1,71.0,21.68,32807.0,32788.0,1075675916.0,21.68,470.0224,10190.085632,34873.11560947199,34873.11560947199,1077020224.0,71.0,-2099.999999999998,0.0,-41.0,-2099.999999999998,2.0816681711721685e-15,0.1,0.0620000000000006,0.0,0.09107777777777787,5.008369444444443,0.0,1.0,0.0,0.0,0.020000000000000018,0.18212777777777767,0.55,5.008369444444443,0.0,0.0,0.0,-41.0,359138100.0,0.0,0.0096183077391833,0.0,32808.0,0.0,0.0,0.0,8824.176545044216,0.062384032882232834,18444.236886130795,18444.299270163676,591621753.8000001
56,56,0.5596183077391834,1160.0,1164.0,1147.0,1165.0,0.0620000000000006,0.0620000000000006,0.1290000000000007,0.1300000000000007,521.0,1082.0,914.0,1792.0,400.0,400.0,400.0,400.0,-4.904999956488609,59.84100103378296,1.5449999570846558,2.240000009536743,2.0816681711721685e-15,1.625,1.7400000259280204,25.0,2.0,2.0,2.0,2.0,71.0,71.0,71.0,71.0,32848.0,27838.0,32827.0,42838.0,33010.0,36226.0,32809.0,40122.0,0.0672740151302682,0.8732744919703334,-0.3232744919703334,0.1465489839406668,71.0,21.68,32848.0,32809.0,1077710032.0,21.68,470.0224,10190.085632,34873.11560947199,34873.11560947199,1075675916.0,71.0,-1999.9999999999982,0.0,41.0,100.0,2.0816681711721685e-15,0.1465489839406668,0.0620000000000006,0.0,0.09110694444444453,5.099476388888887,1.0,0.0,0.010000000000000009,0.09110694444444434,0.0,0.0,0.56,5.099476388888887,0.0,0.0,0.0,41.0,-17962653.75,-1149749.999999999,0.0096183077391833,0.0,32808.0,0.0,0.0,0.0,8828.584555024665,0.06285488756586662,18815.099070263193,18815.161925150758,603517617.9200001
