,Unnamed: 0,currentTime,Agp_Pos_Sp_FL,Agp_Pos_Sp_FR,Agp_Pos_Sp_RL,Agp_Pos_Sp_RR,Disc_T_Est_FL,Disc_T_Est_FR,Disc_T_Est_RL,Disc_T_Est_RR,Motor_current_FL,Wheel_Decl_FL,Motor_current_FR,Wheel_Decl_FR,Motor_current_RL,Wheel_Decl_RL,Motor_current_RR,Wheel_Decl_RR,Vehicle_speed,Gyro_Rate_Pitch,IMU_Gyro_Rate_Roll,IMU_Gyro_Rate_Yaw,RealizedClampingForce_FL,RealizedClampingForce_FR,RealizedClampingForce_RL,RealizedClampingForce_RR,Piston_position_FL,Piston_position_FR,Piston_position_RL,Piston_position_RR,CF_FL,CF_FR,CF_RL,CF_RR,ESTIMATED_PRESSURE_FL,ESTIMATED_PRESSURE_FR,ESTIMATED_PRESSURE_RL,ESTIMATED_PRESSURE_RR,LATERAL_ACCELERATION,LONGITUDINAL_ACCELERATION,Wheel_Speed_FL,Wheel_Speed_FR,Wheel_Speed_RL,Wheel_Speed_RR,Yaw_rate,Ambiant_Temperature,Init_Disc_CF_FL,POS_MEASUREREV,TMC_filtered,Vitesse_Vehicule_Roues,Pressure_Speed_FL,Position_previous_FL,POS_MEASUREREV_square,POS_MEASUREREV_cube,Estimated_CF_FL,Estimated_CF_previous_FL,Pressure_Speed_previous_FL,CF_previous_FL,Deceleration_g,PosDiff,PreDiff,DecDiff,Lookup_Table,Temp_amb_C,Initial_temp_FL,RPM,Distance_Roues_instant,Distance_Roues,Brake_apply,Brake_release,Time_since_brake_apply,Miles_since_brake_apply,Time_since_brake_release,Miles_since_brake_release,BrakingTime_2,BrakingMiles_2,TimeSinceLastBrake_2,MilesSinceLastBrake_2,Change_Position,Change_pressure,BrakingForce_2,BrakingForce_ma_2,Start_braking_time,End_braking_time,BrakeStartSpeed,LastBrakStartSpeed,LastBrakEndtSpeed,LastDeceleration,conv_heat_trans_coef,temp_change_conv_FL,disc_heating_BTM_FL,temp_change_instant_BTM_1_FL,Pressure_Speed_time_FL
0,0,-0.0001037228271343,2.0,2.0,2.0,2.0,90.0,90.0,90.0,90.0,32807.0,32768.0,32827.0,32768.0,32969.0,32768.0,32768.0,32768.0,0.0,0.2133896979501724,0.5366103020498275,0.3535587918006897,0.0,0.0,0.0,0.0,-0.3489999999999993,-0.3489999999999993,-0.3509999999999993,-0.3499999999999993,38.0,0.0,293.0,198.0,0.0,0.0,0.0,0.0,-4.904999956488609,11.772000044584274,2.0816681711721685e-15,2.0816681711721685e-15,2.0816681711721685e-15,2.0816681711721685e-15,1.7400000259280204,25.0,38.0,0.0,0.0,2.0816681711721685e-15,0.0,0.0,0.0,0.0,-1111.702,-1111.702,0.0,38.0,0.0,0.0,0.0,0.0,0.0,25.0,90.0,0.0,0.0,0.0,0.0,0.0,0.0,0.0,0.0,0.0,0.0,0.0,0.0,0.0,0.0,0.0,0.0,0.0,0.0,0.0,0.0,0.0,0.0,0.0,0.0,0.0,0.0,0.0,0.0
1,1,0.0098962771728656,2.0,2.0,2.0,2.0,90.0,90.0,90.0,90.0,32848.0,32768.0,32827.0,32768.0,32990.0,32768.0,32768.0,32768.0,0.0,0.0932262829195238,0.1550978224229525,0.3432262829195238,0.0,0.0,0.0,0.0,-0.3489999999999993,-0.3489999999999993,-0.3509999999999993,-0.3499999999999993,38.0,0.0,293.0,198.0,0.0,0.0,0.0,0.0,1.9619999453425407,11.772000044584274,2.0816681711721685e-15,2.0816681711721685e-15,2.0816681711721685e-15,2.0816681711721685e-15,8.7,25.0,38.0,0.0,0.0,2.0816681711721685e-15,0.0,0.0,0.0,0.0,-1111.702,-1111.702,0.0,38.0,0.0,0.0,0.0,0.0,0.0,25.0,90.0,0.0,5.7824115865893e-21,5.7824115865893e-21,0.0,0.0,0.0,0.0,0.0,0.0,0.0,0.0,0.009999999999999901,5.7824115865893e-21,0.0,0.0,0.0,0.0,0.0,0.0098962771728656,0.0,0.0,2.0816681711721685e-15,2.1034861239334037e-13,5.600000000000002,89.99958099961134,0.0,89.99958099961134,0.0
2,2,0.0198962771728656,2.0,2.0,2.0,2.0,90.0,90.0,90.0,90.0,32889.0,32768.0,32848.0,32768.0,32909.0,32768.0,32747.0,32768.0,0.0,-0.0315336675750029,0.2022693406000233,0.25,0.0,0.0,0.0,0.0,-0.3489999999999993,-0.3489999999999993,-0.3509999999999993,-0.3499999999999993,38.0,0.0,293.0,198.0,0.0,0.0,0.0,0.0,-4.904999956488609,11.772000044584274,2.0816681711721685e-15,2.0816681711721685e-15,2.0816681711721685e-15,2.0816681711721685e-15,4.35,25.0,38.0,0.0,0.0,2.0816681711721685e-15,0.0,0.0,0.0,0.0,-1111.702,-1111.702,0.0,38.0,0.0,0.0,0.0,0.0,0.0,25.0,90.0,0.0,5.782411586589357e-21,1.1564823173178658e-20,0.0,0.0,0.0,0.0,0.0,0.0,0.0,0.0,0.0199999999999999,1.1564823173178658e-20,0.0,0.0,0.0,0.0,0.0,0.0098962771728656,0.0,0.0,2.0816681711721685e-15,0.0,5.600000000000002,89.99958099961134,0.0,89.99958099961134,0.0
3,3,0.0298962771728656,2.0,2.0,2.0,2.0,90.0,90.0,90.0,90.0,32869.0,32768.0,32889.0,32768.0,32990.0,32768.0,32768.0,32768.0,0.0,0.2042656833440859,0.222867158327957,0.1546503687459677,0.0,0.0,0.0,0.0,-0.3489999999999993,-0.3489999999999993,-0.3509999999999993,-0.3499999999999993,38.0,0.0,293.0,198.0,0.0,0.0,0.0,0.0,-7.847999781370163,11.772000044584274,2.0816681711721685e-15,2.0816681711721685e-15,2.0816681711721685e-15,2.0816681711721685e-15,4.35,25.0,38.0,0.0,0.0,2.0816681711721685e-15,0.0,0.0,0.0,0.0,-1111.702,-1111.702,0.0,38.0,0.0,0.0,0.0,0.0,0.0,25.0,90.0,0.0,5.7824115865893566e-21,1.7347234759768014e-20,0.0,0.0,0.0,0.0,0.0,0.0,0.0,0.0,0.0299999999999999,1.7347234759768014e-20,0.0,0.0,0.0,0.0,0.0,0.0098962771728656,0.0,0.0,2.0816681711721685e-15,0.0,5.600000000000002,89.99958099961134,0.0,89.99958099961134,0.0
4,4,0.0398962771728656,2.0,2.0,2.0,2.0,90.0,90.0,90.0,90.0,32827.0,32768.0,32827.0,32768.0,32969.0,32768.0,32747.0,32768.0,0.0,0.4132450372402589,0.1816225186201294,0.1632450372402589,0.0,0.0,0.0,0.0,-0.3489999999999993,-0.3489999999999993,-0.3509999999999993,-0.3499999999999993,38.0,0.0,293.0,198.0,0.0,0.0,0.0,0.0,-4.904999956488609,11.772000044584274,2.0816681711721685e-15,2.0816681711721685e-15,2.0816681711721685e-15,2.0816681711721685e-15,1.7400000259280204,25.0,38.0,0.0,0.0,2.0816681711721685e-15,0.0,0.0,0.0,0.0,-1111.702,-1111.702,0.0,38.0,0.0,0.0,0.0,0.0,0.0,25.0,90.0,0.0,5.7824115865893566e-21,2.3129646346357372e-20,0.0,0.0,0.0,0.0,0.0,0.0,0.0,0.0,0.0399999999999999,2.3129646346357372e-20,0.0,0.0,0.0,0.0,0.0,0.0098962771728656,0.0,0.0,2.0816681711721685e-15,0.0,5.600000000000002,89.99958099961134,0.0,89.99958099961134,0.0
5,5,0.0498962771728656,2.0,2.0,2.0,2.0,90.0,90.0,90.0,90.0,32889.0,32768.0,32848.0,32768.0,32990.0,32768.0,32788.0,32768.0,0.0,0.1950439030140736,0.1681304878767592,0.2318695121232408,0.0,0.0,0.0,0.0,-0.3489999999999993,-0.3489999999999993,-0.3509999999999993,-0.3499999999999993,38.0,0.0,293.0,198.0,0.0,0.0,0.0,0.0,-1.9619999453425407,17.65799969434738,2.0816681711721685e-15,2.0816681711721685e-15,2.0816681711721685e-15,2.0816681711721685e-15,3.4800000518560408,25.0,38.0,0.0,0.0,2.0816681711721685e-15,0.0,0.0,0.0,0.0,-1111.702,-1111.702,0.0,38.0,0.0,0.0,0.0,0.0,0.0,25.0,90.0,0.0,5.782411586589358e-21,2.891205793294673e-20,0.0,0.0,0.0,0.0,0.0,0.0,0.0,0.0,0.0499999999999999,2.891205793294673e-20,0.0,0.0,0.0,0.0,0.0,0.0098962771728656,0.0,0.0,2.0816681711721685e-15,0.0,5.600000000000002,89.99958099961134,0.0,89.99958099961134,0.0
6,6,0.0598962771728656,2.0,2.0,2.0,2.0,90.0,90.0,90.0,90.0,32807.0,32768.0,32848.0,32768.0,32948.0,32768.0,32768.0,32768.0,0.0,0.0181474673016683,0.2137050653966633,0.1544424019050049,0.0,0.0,0.0,0.0,-0.3489999999999993,-0.3489999999999993,-0.3509999999999993,-0.3499999999999993,38.0,0.0,293.0,198.0,0.0,0.0,0.0,0.0,1.9619999453425407,17.65799969434738,2.0816681711721685e-15,2.0816681711721685e-15,2.0816681711721685e-15,2.0816681711721685e-15,4.35,25.0,38.0,0.0,0.0,2.0816681711721685e-15,0.0,0.0,0.0,0.0,-1111.702,-1111.702,0.0,38.0,0.0,0.0,0.0,0.0,0.0,25.0,90.0,0.0,5.782411586589358e-21,3.469446951953609e-20,0.0,0.0,0.0,0.0,0.0,0.0,0.0,0.0,0.0599999999999999,3.469446951953609e-20,0.0,0.0,0.0,0.0,0.0,0.0098962771728656,0.0,0.0,2.0816681711721685e-15,0.0,5.600000000000002,89.99958099961134,0.0,89.99958099961134,0.0
7,7,0.0698962771728656,2.0,2.0,2.0,2.0,90.0,90.0,90.0,90.0,32868.0,32768.0,32848.0,32768.0,32929.0,32768.0,32768.0,32768.0,0.0,0.1906507869784442,0.3453253934892221,0.4177513116307404,0.0,0.0,0.0,0.0,-0.3489999999999993,-0.3489999999999993,-0.3509999999999993,-0.3499999999999993,38.0,0.0,293.0,198.0,0.0,0.0,0.0,0.0,-1.9619999453425407,11.772000044584274,2.0816681711721685e-15,2.0816681711721685e-15,2.0816681711721685e-15,2.0816681711721685e-15,1.7400000259280204,25.0,38.0,0.0,0.0,2.0816681711721685e-15,0.0,0.0,0.0,0.0,-1111.702,-1111.702,0.0,38.0,0.0,0.0,0.0,0.0,0.0,25.0,90.0,0.0,5.782411586589358e-21,4.0476881106125447e-20,0.0,0.0,0.0,0.0,0.0,0.0,0.0,0.0,0.0699999999999999,4.0476881106125447e-20,0.0,0.0,0.0,0.0,0.0,0.0098962771728656,0.0,0.0,2.0816681711721685e-15,0.0,5.600000000000002,89.99958099961134,0.0,89.99958099961134,0.0
8,8,0.0798962771728656,2.0,2.0,2.0,2.0,90.0,90.0,90.0,90.0,32868.0,32768.0,32827.0,32768.0,32948.0,32768.0,32747.0,32768.0,0.0,0.3639193720966021,0.2721612558067957,0.2164837674203872,0.0,0.0,0.0,0.0,-0.3489999999999993,-0.3489999999999993,-0.3509999999999993,-0.3499999999999993,38.0,0.0,293.0,198.0,0.0,0.0,0.0,0.0,-7.847999781370163,14.714999496936798,2.0816681711721685e-15,2.0816681711721685e-15,2.0816681711721685e-15,2.0816681711721685e-15,10.440000414848328,25.0,38.0,0.0,0.0,2.0816681711721685e-15,0.0,0.0,0.0,0.0,-1111.702,-1111.702,0.0,38.0,0.0,0.0,0.0,0.0,0.0,25.0,90.0,0.0,5.7824115865893536e-21,4.62592926927148e-20,0.0,0.0,0.0,0.0,0.0,0.0,0.0,0.0,0.07999999999999989,4.62592926927148e-20,0.0,0.0,0.0,0.0,0.0,0.0098962771728656,0.0,0.0,2.0816681711721685e-15,0.0,5.600000000000002,89.99958099961134,0.0,89.99958099961134,0.0
9,9,0.0898962771728656,2.0,2.0,2.0,2.0,90.0,90.0,90.0,90.0,32868.0,32768.0,32827.0,32768.0,32969.0,32768.0,32788.0,32768.0,0.0,0.5586837891389055,0.0413162108610945,-0.0634735156555621,0.0,0.0,0.0,0.0,-0.3489999999999993,-0.3489999999999993,-0.3509999999999993,-0.3499999999999993,38.0,0.0,293.0,198.0,0.0,0.0,0.0,0.0,-4.904999956488609,7.847999781370163,2.0816681711721685e-15,2.0816681711721685e-15,2.0816681711721685e-15,2.0816681711721685e-15,0.0,25.0,38.0,0.0,0.0,2.0816681711721685e-15,0.0,0.0,0.0,0.0,-1111.702,-1111.702,0.0,38.0,0.0,0.0,0.0,0.0,0.0,25.0,90.0,0.0,5.7824115865893536e-21,5.204170427930415e-20,0.0,0.0,0.0,0.0,0.0,0.0,0.0,0.0,0.08999999999999989,5.204170427930415e-20,0.0,0.0,0.0,0.0,0.0,0.0098962771728656,0.0,0.0,2.0816681711721685e-15,0.0,5.600000000000002,89.99958099961134,0.0,89.99958099961134,0.0
10,10,0.0998962771728656,2.0,2.0,2.0,2.0,90.0,90.0,90.0,90.0,32827.0,32768.0,32827.0,32768.0,32948.0,32768.0,32788.0,32768.0,0.0,0.4587839883953533,0.1093466763372055,-0.0362613294651177,0.0,0.0,0.0,0.0,-0.3489999999999993,-0.3489999999999993,-0.3509999999999993,-0.3499999999999993,38.0,0.0,293.0,198.0,0.0,0.0,0.0,0.0,1.9619999453425407,7.847999781370163,2.0816681711721685e-15,2.0816681711721685e-15,2.0816681711721685e-15,2.0816681711721685e-15,-1.7400000259280204,25.0,38.0,0.0,0.0,2.0816681711721685e-15,0.0,0.0,0.0,0.0,-1111.702,-1111.702,0.0,38.0,0.0,0.0,0.0,0.0,0.0,25.0,90.0,0.0,5.7824115865893626e-21,5.782411586589351e-20,0.0,0.0,0.0,0.0,0.0,0.0,0.0,0.0,0.0999999999999999,5.782411586589351e-20,0.0,0.0,0.0,0.0,0.0,0.0098962771728656,0.0,0.0,2.0816681711721685e-15,0.0,5.600000000000002,89.99958099961134,0.0,89.99958099961134,0.0
11,11,0.1098962771728656,2.0,2.0,2.0,2.0,90.0,90.0,90.0,90.0,32868.0,32768.0,32827.0,32768.0,32969.0,32768.0,32788.0,32768.0,0.0,0.0372747867657738,0.2,0.2189076492639583,0.0,0.0,0.0,0.0,-0.3489999999999993,-0.3489999999999993,-0.3509999999999993,-0.3499999999999993,38.0,0.0,293.0,198.0,0.0,0.0,0.0,0.0,1.9619999453425407,14.714999496936798,2.0816681711721685e-15,2.0816681711721685e-15,2.0816681711721685e-15,2.0816681711721685e-15,0.0,25.0,38.0,0.0,0.0,2.0816681711721685e-15,0.0,0.0,0.0,0.0,-1111.702,-1111.702,0.0,38.0,0.0,0.0,0.0,0.0,0.0,25.0,90.0,0.0,5.7824115865893536e-21,6.360652745248287e-20,0.0,0.0,0.0,0.0,0.0,0.0,0.0,0.0,0.10999999999999989,6.360652745248287e-20,0.0,0.0,0.0,0.0,0.0,0.0098962771728656,0.0,0.0,2.0816681711721685e-15,0.0,5.600000000000002,89.99958099961134,0.0,89.99958099961134,0.0
12,12,0.1198962771728656,2.0,2.0,2.0,2.0,90.0,90.0,90.0,90.0,32868.0,32768.0,32848.0,32768.0,32969.0,32768.0,32768.0,32768.0,0.0,-0.0871498490023693,0.388550452992892,0.0357492450118467,0.0,0.0,0.0,0.0,-0.3489999999999993,-0.3489999999999993,-0.3509999999999993,-0.3499999999999993,38.0,106.0,293.0,198.0,0.0,0.0,0.0,0.0,-4.904999956488609,11.772000044584274,2.0816681711721685e-15,2.0816681711721685e-15,2.0816681711721685e-15,2.0816681711721685e-15,6.089999896287917,25.0,38.0,0.0,0.0,2.0816681711721685e-15,0.0,0.0,0.0,0.0,-1111.702,-1111.702,0.0,38.0,0.0,0.0,0.0,0.0,0.0,25.0,90.0,0.0,5.7824115865893626e-21,6.938893903907223e-20,0.0,0.0,0.0,0.0,0.0,0.0,0.0,0.0,0.1199999999999999,6.938893903907223e-20,0.0,0.0,0.0,0.0,0.0,0.0098962771728656,0.0,0.0,2.0816681711721685e-15,0.0,5.600000000000002,89.99958099961134,0.0,89.99958099961134,0.0
13,13,0.1298962771728656,2.0,2.0,2.0,2.0,90.0,90.0,90.0,90.0,32848.0,32768.0,32869.0,32768.0,32969.0,32768.0,32768.0,32768.0,0.0,0.0771989922469253,0.6271989922469253,0.2951964728642384,0.0,0.0,0.0,0.0,-0.3489999999999993,-0.3489999999999993,-0.3509999999999993,-0.3499999999999993,38.0,0.0,293.0,198.0,0.0,0.0,0.0,0.0,-7.847999781370163,11.772000044584274,2.0816681711721685e-15,2.0816681711721685e-15,2.0816681711721685e-15,2.0816681711721685e-15,-2.610000103712082,25.0,38.0,0.0,0.0,2.0816681711721685e-15,0.0,0.0,0.0,0.0,-1111.702,-1111.702,0.0,38.0,0.0,0.0,0.0,0.0,0.0,25.0,90.0,0.0,5.782411586589346e-21,7.517135062566157e-20,0.0,0.0,0.0,0.0,0.0,0.0,0.0,0.0,0.1299999999999999,7.517135062566157e-20,0.0,0.0,0.0,0.0,0.0,0.0098962771728656,0.0,0.0,2.0816681711721685e-15,0.0,5.600000000000002,89.99958099961134,0.0,89.99958099961134,0.0
14,14,0.1398962771728656,2.0,2.0,2.0,2.0,90.0,90.0,90.0,90.0,32848.0,32768.0,32827.0,32768.0,32990.0,32768.0,32768.0,32768.0,0.0,0.02408443287331,0.5111266493099651,0.2981688657466201,0.0,0.0,0.0,0.0,-0.3489999999999993,-0.3489999999999993,-0.3509999999999993,-0.3499999999999993,38.0,0.0,293.0,198.0,0.0,0.0,0.0,0.0,-1.9619999453425407,11.772000044584274,2.0816681711721685e-15,2.0816681711721685e-15,2.0816681711721685e-15,2.0816681711721685e-15,9.570000207424163,25.0,38.0,0.0,0.0,2.0816681711721685e-15,0.0,0.0,0.0,0.0,-1111.702,-1111.702,0.0,38.0,0.0,0.0,0.0,0.0,0.0,25.0,90.0,0.0,5.7824115865893626e-21,8.095376221225093e-20,0.0,0.0,0.0,0.0,0.0,0.0,0.0,0.0,0.1399999999999999,8.095376221225093e-20,0.0,0.0,0.0,0.0,0.0,0.0098962771728656,0.0,0.0,2.0816681711721685e-15,0.0,5.600000000000002,89.99958099961134,0.0,89.99958099961134,0.0
15,15,0.1498962771728656,2.0,2.0,2.0,2.0,90.0,90.0,90.0,90.0,32889.0,32768.0,32827.0,32768.0,32969.0,32768.0,32768.0,32768.0,0.0,-0.018213617423447,0.368213617423447,0.340718295459318,0.0,0.0,0.0,0.0,-0.3489999999999993,-0.3489999999999993,-0.3509999999999993,-0.3499999999999993,38.0,0.0,293.0,198.0,0.0,0.0,0.0,0.0,-1.9619999453425407,11.772000044584274,2.0816681711721685e-15,2.0816681711721685e-15,2.0816681711721685e-15,2.0816681711721685e-15,2.610000103712082,25.0,38.0,0.0,0.0,2.0816681711721685e-15,0.0,0.0,0.0,0.0,-1111.702,-1111.702,0.0,38.0,0.0,0.0,0.0,0.0,0.0,25.0,90.0,0.0,5.7824115865893626e-21,8.673617379884029e-20,0.0,0.0,0.0,0.0,0.0,0.0,0.0,0.0,0.1499999999999999,8.673617379884029e-20,0.0,0.0,0.0,0.0,0.0,0.0098962771728656,0.0,0.0,2.0816681711721685e-15,0.0,5.600000000000002,89.99958099961134,0.0,89.99958099961134,0.0
16,16,0.1598962771728656,2.0,2.0,2.0,2.0,90.0,90.0,90.0,90.0,32848.0,32768.0,32848.0,32768.0,32969.0,32768.0,32768.0,32768.0,0.0,0.1562726585651396,0.4437635951390838,0.1374546828697206,0.0,0.0,0.0,0.0,-0.3489999999999993,-0.3489999999999993,-0.3509999999999993,-0.3499999999999993,38.0,0.0,293.0,198.0,0.0,0.0,0.0,0.0,-1.9619999453425407,14.714999496936798,2.0816681711721685e-15,2.0816681711721685e-15,2.0816681711721685e-15,2.0816681711721685e-15,7.829999792575835,25.0,38.0,0.0,0.0,2.0816681711721685e-15,0.0,0.0,0.0,0.0,-1111.702,-1111.702,0.0,38.0,0.0,0.0,0.0,0.0,0.0,25.0,90.0,0.0,5.782411586589346e-21,9.251858538542963e-20,0.0,0.0,0.0,0.0,0.0,0.0,0.0,0.0,0.1599999999999999,9.251858538542963e-20,0.0,0.0,0.0,0.0,0.0,0.0098962771728656,0.0,0.0,2.0816681711721685e-15,0.0,5.600000000000002,89.99958099961134,0.0,89.99958099961134,0.0
17,17,0.1698962771728656,2.0,2.0,2.0,2.0,90.0,90.0,90.0,90.0,32889.0,32768.0,32827.0,32768.0,32990.0,32768.0,32768.0,32768.0,0.0,0.3128230845473283,0.5314115422736642,0.0128230845473282,0.0,0.0,0.0,0.0,-0.3489999999999993,-0.3489999999999993,-0.3509999999999993,-0.3499999999999993,38.0,0.0,293.0,198.0,0.0,0.0,0.0,0.0,-1.9619999453425407,14.714999496936798,2.0816681711721685e-15,2.0816681711721685e-15,2.0816681711721685e-15,2.0816681711721685e-15,-0.8700000129640102,25.0,38.0,0.0,0.0,2.0816681711721685e-15,0.0,0.0,0.0,0.0,-1111.702,-1111.702,0.0,38.0,0.0,0.0,0.0,0.0,0.0,25.0,90.0,0.0,5.7824115865893626e-21,9.830099697201899e-20,0.0,0.0,0.0,0.0,0.0,0.0,0.0,0.0,0.1699999999999999,9.830099697201899e-20,0.0,0.0,0.0,0.0,0.0,0.0098962771728656,0.0,0.0,2.0816681711721685e-15,0.0,5.600000000000002,89.99958099961134,0.0,89.99958099961134,0.0
18,18,0.1798962771728656,2.0,2.0,2.0,2.0,90.0,90.0,90.0,90.0,32868.0,32768.0,32848.0,32768.0,32948.0,32768.0,32768.0,32768.0,0.0,0.4139491725229249,0.4540762412156126,0.2418475175687747,0.0,0.0,0.0,0.0,-0.3489999999999993,-0.3489999999999993,-0.3509999999999993,-0.3499999999999993,38.0,0.0,293.0,198.0,0.0,0.0,0.0,0.0,-4.904999956488609,11.772000044584274,2.0816681711721685e-15,2.0816681711721685e-15,2.0816681711721685e-15,2.0816681711721685e-15,0.8700000129640102,25.0,38.0,0.0,0.0,2.0816681711721685e-15,0.0,0.0,0.0,0.0,-1111.702,-1111.702,0.0,38.0,0.0,0.0,0.0,0.0,0.0,25.0,90.0,0.0,5.7824115865893626e-21,1.0408340855860835e-19,0.0,0.0,0.0,0.0,0.0,0.0,0.0,0.0,0.1799999999999999,1.0408340855860835e-19,0.0,0.0,0.0,0.0,0.0,0.0098962771728656,0.0,0.0,2.0816681711721685e-15,0.0,5.600000000000002,89.99958099961134,0.0,89.99958099961134,0.0
19,19,0.1898962771728656,2.0,2.0,2.0,2.0,90.0,90.0,90.0,90.0,32848.0,32768.0,32869.0,32768.0,32969.0,32768.0,32768.0,32768.0,0.0,0.2911578057126061,0.3364631222850424,0.0323156114252121,0.0,0.0,0.0,0.0,-0.3489999999999993,-0.3489999999999993,-0.3509999999999993,-0.3499999999999993,38.0,0.0,293.0,198.0,0.0,0.0,0.0,0.0,-4.904999956488609,11.772000044584274,2.0816681711721685e-15,2.0816681711721685e-15,2.0816681711721685e-15,2.0816681711721685e-15,6.089999896287917,25.0,38.0,0.0,0.0,2.0816681711721685e-15,0.0,0.0,0.0,0.0,-1111.702,-1111.702,0.0,38.0,0.0,0.0,0.0,0.0,0.0,25.0,90.0,0.0,5.7824115865893626e-21,1.0986582014519772e-19,0.0,0.0,0.0,0.0,0.0,0.0,0.0,0.0,0.18999999999999992,1.0986582014519772e-19,0.0,0.0,0.0,0.0,0.0,0.0098962771728656,0.0,0.0,2.0816681711721685e-15,0.0,5.600000000000002,89.99958099961134,0.0,89.99958099961134,0.0
20,20,0.1998962771728656,2.0,2.0,2.0,2.0,90.0,90.0,90.0,90.0,32889.0,32768.0,32827.0,32768.0,32969.0,32768.0,32809.0,32768.0,0.0,0.0086260060828979,0.1086260060828979,-0.0224173373885985,0.0,0.0,0.0,0.0,-0.3489999999999993,-0.3489999999999993,-0.3509999999999993,-0.3499999999999993,38.0,0.0,293.0,198.0,0.0,0.0,0.0,0.0,-4.904999956488609,11.772000044584274,2.0816681711721685e-15,2.0816681711721685e-15,2.0816681711721685e-15,2.0816681711721685e-15,-2.610000103712082,25.0,38.0,0.0,0.0,2.0816681711721685e-15,0.0,0.0,0.0,0.0,-1111.702,-1111.702,0.0,38.0,0.0,0.0,0.0,0.0,0.0,25.0,90.0,0.0,5.782411586589346e-21,1.1564823173178707e-19,0.0,0.0,0.0,0.0,0.0,0.0,0.0,0.0,0.1999999999999999,1.1564823173178707e-19,0.0,0.0,0.0,0.0,0.0,0.0098962771728656,0.0,0.0,2.0816681711721685e-15,0.0,5.600000000000002,89.99958099961134,0.0,89.99958099961134,0.0
21,21,0.2098962771728656,2.0,2.0,2.0,2.0,90.0,90.0,90.0,90.0,32848.0,32768.0,32848.0,32768.0,32948.0,32768.0,32726.0,32768.0,0.0,0.0914741026135707,0.0957370513067853,-0.2052988034847609,0.0,0.0,0.0,0.0,-0.3489999999999993,-0.3489999999999993,-0.3509999999999993,-0.3499999999999993,38.0,0.0,293.0,198.0,0.0,0.0,0.0,0.0,-4.904999956488609,11.772000044584274,2.0816681711721685e-15,2.0816681711721685e-15,2.0816681711721685e-15,2.0816681711721685e-15,0.8700000129640102,25.0,38.0,0.0,0.0,2.0816681711721685e-15,0.0,0.0,0.0,0.0,-1111.702,-1111.702,0.0,38.0,0.0,0.0,0.0,0.0,0.0,25.0,90.0,0.0,5.7824115865893626e-21,1.2143064331837644e-19,0.0,0.0,0.0,0.0,0.0,0.0,0.0,0.0,0.2099999999999999,1.2143064331837644e-19,0.0,0.0,0.0,0.0,0.0,0.0098962771728656,0.0,0.0,2.0816681711721685e-15,0.0,5.600000000000002,89.99958099961134,0.0,89.99958099961134,0.0
22,22,0.2198962771728656,2.0,2.0,2.0,2.0,90.0,90.0,90.0,90.0,32889.0,32768.0,32827.0,32768.0,32948.0,32768.0,32768.0,32768.0,0.0,0.1045828950917513,0.2772228065443315,-0.3818057016360829,0.0,0.0,0.0,0.0,-0.3489999999999993,-0.3489999999999993,-0.3509999999999993,-0.3499999999999993,38.0,0.0,293.0,198.0,0.0,0.0,0.0,0.0,-4.904999956488609,11.772000044584274,2.0816681711721685e-15,2.0816681711721685e-15,2.0816681711721685e-15,2.0816681711721685e-15,-6.089999896287917,25.0,38.0,0.0,0.0,2.0816681711721685e-15,0.0,0.0,0.0,0.0,-1111.702,-1111.702,0.0,38.0,0.0,0.0,0.0,0.0,0.0,25.0,90.0,0.0,5.7824115865893626e-21,1.272130549049658e-19,0.0,0.0,0.0,0.0,0.0,0.0,0.0,0.0,0.21999999999999992,1.272130549049658e-19,0.0,0.0,0.0,0.0,0.0,0.0098962771728656,0.0,0.0,2.0816681711721685e-15,0.0,5.600000000000002,89.99958099961134,0.0,89.99958099961134,0.0
23,23,0.2298962771728656,2.0,2.0,2.0,2.0,90.0,90.0,90.0,90.0,32889.0,32768.0,32827.0,32768.0,32929.0,32768.0,32768.0,32768.0,0.0,0.2726600078188738,0.1591485647266796,-0.240957137272233,0.0,0.0,0.0,0.0,-0.3489999999999993,-0.3489999999999993,-0.3509999999999993,-0.3499999999999993,38.0,0.0,293.0,198.0,0.0,0.0,0.0,0.0,-1.9619999453425407,11.772000044584274,2.0816681711721685e-15,2.0816681711721685e-15,2.0816681711721685e-15,2.0816681711721685e-15,-6.9600001037120816,25.0,38.0,0.0,0.0,2.0816681711721685e-15,0.0,0.0,0.0,0.0,-1111.702,-1111.702,0.0,38.0,0.0,0.0,0.0,0.0,0.0,25.0,90.0,0.0,5.782411586589346e-21,1.3299546649155515e-19,0.0,0.0,0.0,0.0,0.0,0.0,0.0,0.0,0.2299999999999999,1.3299546649155515e-19,0.0,0.0,0.0,0.0,0.0,0.0098962771728656,0.0,0.0,2.0816681711721685e-15,0.0,5.600000000000002,89.99958099961134,0.0,89.99958099961134,0.0
24,24,0.2398962771728656,2.0,2.0,2.0,2.0,90.0,90.0,90.0,90.0,32869.0,32768.0,32848.0,32768.0,32990.0,32768.0,32768.0,32768.0,0.0,0.0864710957592438,-0.2948817946648317,-0.2127057808481512,0.0,0.0,0.0,0.0,-0.3489999999999993,-0.3489999999999993,-0.3509999999999993,-0.3499999999999993,38.0,0.0,293.0,198.0,0.0,0.0,0.0,0.0,-1.9619999453425407,11.772000044584274,2.0816681711721685e-15,2.0816681711721685e-15,2.0816681711721685e-15,2.0816681711721685e-15,-2.610000103712082,25.0,38.0,0.0,0.0,2.0816681711721685e-15,0.0,0.0,0.0,0.0,-1111.702,-1111.702,0.0,38.0,0.0,0.0,0.0,0.0,0.0,25.0,90.0,0.0,5.7824115865893626e-21,1.3877787807814452e-19,0.0,0.0,0.0,0.0,0.0,0.0,0.0,0.0,0.2399999999999999,1.3877787807814452e-19,0.0,0.0,0.0,0.0,0.0,0.0098962771728656,0.0,0.0,2.0816681711721685e-15,0.0,5.600000000000002,89.99958099961134,0.0,89.99958099961134,0.0
25,25,0.2498962771728656,2.0,2.0,2.0,2.0,90.0,90.0,90.0,90.0,32869.0,32768.0,32848.0,32768.0,32990.0,32768.0,32768.0,32768.0,0.0,0.0891346625686137,-0.1532531186242081,0.002179550091485,0.0,0.0,0.0,0.0,-0.3489999999999993,-0.3489999999999993,-0.3509999999999993,-0.3499999999999993,38.0,0.0,293.0,198.0,0.0,0.0,0.0,0.0,-1.9619999453425407,7.847999781370163,2.0816681711721685e-15,2.0816681711721685e-15,2.0816681711721685e-15,2.0816681711721685e-15,-4.35,25.0,38.0,0.0,0.0,2.0816681711721685e-15,0.0,0.0,0.0,0.0,-1111.702,-1111.702,0.0,38.0,0.0,0.0,0.0,0.0,0.0,25.0,90.0,0.0,5.7824115865893626e-21,1.445602896647339e-19,0.0,0.0,0.0,0.0,0.0,0.0,0.0,0.0,0.24999999999999992,1.445602896647339e-19,0.0,0.0,0.0,0.0,0.0,0.0098962771728656,0.0,0.0,2.0816681711721685e-15,0.0,5.600000000000002,89.99958099961134,0.0,89.99958099961134,0.0
26,26,0.2598962771728657,2.0,2.0,2.0,2.0,90.0,90.0,90.0,90.0,32848.0,32768.0,32869.0,32768.0,32969.0,32768.0,32768.0,32768.0,0.0,0.2,0.4313703469694543,0.2453425867423636,0.0,0.0,0.0,0.0,-0.3489999999999993,-0.3489999999999993,-0.3509999999999993,-0.3499999999999993,38.0,0.0,293.0,198.0,0.0,0.0,0.0,0.0,1.9619999453425407,7.847999781370163,2.0816681711721685e-15,2.0816681711721685e-15,2.0816681711721685e-15,2.0816681711721685e-15,2.610000103712082,25.0,38.0,0.0,0.0,2.0816681711721685e-15,0.0,0.0,0.0,0.0,-1111.702,-1111.702,0.0,38.0,0.0,0.0,0.0,0.0,0.0,25.0,90.0,0.0,5.782411586589394e-21,1.5034270125132329e-19,0.0,0.0,0.0,0.0,0.0,0.0,0.0,0.0,0.26,1.5034270125132329e-19,0.0,0.0,0.0,0.0,0.0,0.0098962771728656,0.0,0.0,2.0816681711721685e-15,0.0,5.600000000000002,89.99958099961134,0.0,89.99958099961134,0.0
27,27,0.2698962771728657,2.0,2.0,2.0,2.0,90.0,90.0,90.0,90.0,32848.0,32768.0,32869.0,32768.0,32990.0,32768.0,32768.0,32768.0,0.0,0.2,0.3003489586535121,0.3,0.0,0.0,0.0,0.0,-0.3489999999999993,-0.3489999999999993,-0.3509999999999993,-0.3499999999999993,38.0,0.0,293.0,198.0,0.0,0.0,0.0,0.0,-1.9619999453425407,7.847999781370163,2.0816681711721685e-15,2.0816681711721685e-15,2.0816681711721685e-15,2.0816681711721685e-15,5.220000207424164,25.0,38.0,0.0,0.0,2.0816681711721685e-15,0.0,0.0,0.0,0.0,-1111.702,-1111.702,0.0,38.0,0.0,0.0,0.0,0.0,0.0,25.0,90.0,0.0,5.7824115865893626e-21,1.5612511283791266e-19,0.0,0.0,0.0,0.0,0.0,0.0,0.0,0.0,0.27,1.5612511283791266e-19,0.0,0.0,0.0,0.0,0.0,0.0098962771728656,0.0,0.0,2.0816681711721685e-15,0.0,5.600000000000002,89.99958099961134,0.0,89.99958099961134,0.0
28,28,0.2798962771728657,2.0,2.0,2.0,2.0,90.0,90.0,90.0,90.0,32848.0,32768.0,32848.0,32768.0,32969.0,32768.0,32788.0,32768.0,0.0,0.1050254112324977,0.2582909812791705,0.4266327850233363,0.0,0.0,0.0,0.0,-0.3489999999999993,-0.3489999999999993,-0.3509999999999993,-0.3499999999999993,38.0,0.0,293.0,198.0,0.0,0.0,0.0,0.0,-4.904999956488609,7.847999781370163,2.0816681711721685e-15,2.0816681711721685e-15,2.0816681711721685e-15,2.0816681711721685e-15,5.220000207424164,25.0,38.0,0.0,0.0,2.0816681711721685e-15,0.0,0.0,0.0,0.0,-1111.702,-1111.702,0.0,38.0,0.0,0.0,0.0,0.0,0.0,25.0,90.0,0.0,5.7824115865893626e-21,1.6190752442450203e-19,0.0,0.0,0.0,0.0,0.0,0.0,0.0,0.0,0.28,1.6190752442450203e-19,0.0,0.0,0.0,0.0,0.0,0.0098962771728656,0.0,0.0,2.0816681711721685e-15,0.0,5.600000000000002,89.99958099961134,0.0,89.99958099961134,0.0
29,29,0.2898962771728656,2.0,2.0,2.0,2.0,90.0,90.0,90.0,90.0,32827.0,32768.0,32848.0,32768.0,32990.0,32768.0,32768.0,32768.0,0.0,0.0812602398719416,0.0999180810244667,0.3749590405122333,0.0,0.0,0.0,0.0,-0.3489999999999993,-0.3489999999999993,-0.3509999999999993,-0.3499999999999993,38.0,0.0,293.0,198.0,0.0,0.0,0.0,0.0,-4.904999956488609,11.772000044584274,2.0816681711721685e-15,2.0816681711721685e-15,2.0816681711721685e-15,2.0816681711721685e-15,8.7,25.0,38.0,0.0,0.0,2.0816681711721685e-15,0.0,0.0,0.0,0.0,-1111.702,-1111.702,0.0,38.0,0.0,0.0,0.0,0.0,0.0,25.0,90.0,0.0,5.782411586589298e-21,1.6768993601109132e-19,0.0,0.0,0.0,0.0,0.0,0.0,0.0,0.0,0.2899999999999999,1.6768993601109132e-19,0.0,0.0,0.0,0.0,0.0,0.0098962771728656,0.0,0.0,2.0816681711721685e-15,0.0,5.600000000000002,89.99958099961134,0.0,89.99958099961134,0.0
30,30,0.2998962771728656,2.0,2.0,2.0,2.0,90.0,90.0,90.0,90.0,32889.0,32768.0,32827.0,32768.0,32969.0,32768.0,32747.0,32768.0,0.0,0.2902333707449634,0.1085278089541362,0.3634111235816545,0.0,0.0,0.0,0.0,-0.3489999999999993,-0.3489999999999993,-0.3509999999999993,-0.3499999999999993,38.0,0.0,293.0,198.0,0.0,0.0,0.0,0.0,-1.9619999453425407,11.772000044584274,2.0816681711721685e-15,2.0816681711721685e-15,2.0816681711721685e-15,2.0816681711721685e-15,5.220000207424164,25.0,38.0,0.0,0.0,2.0816681711721685e-15,0.0,0.0,0.0,0.0,-1111.702,-1111.702,0.0,38.0,0.0,0.0,0.0,0.0,0.0,25.0,90.0,0.0,5.7824115865893626e-21,1.734723475976807e-19,0.0,0.0,0.0,0.0,0.0,0.0,0.0,0.0,0.29999999999999993,1.734723475976807e-19,0.0,0.0,0.0,0.0,0.0,0.0098962771728656,0.0,0.0,2.0816681711721685e-15,0.0,5.600000000000002,89.99958099961134,0.0,89.99958099961134,0.0
31,31,0.3098962771728656,2.0,2.0,2.0,2.0,90.0,90.0,90.0,90.0,32889.0,32768.0,32827.0,32768.0,32948.0,32768.0,32768.0,32768.0,0.0,0.3049555324741856,0.0732740432989141,0.3049555324741856,0.0,0.0,0.0,0.0,-0.3489999999999993,-0.3489999999999993,-0.3509999999999993,-0.3499999999999993,38.0,0.0,293.0,198.0,0.0,0.0,0.0,0.0,-1.9619999453425407,11.772000044584274,2.0816681711721685e-15,2.0816681711721685e-15,2.0816681711721685e-15,2.0816681711721685e-15,6.9600001037120816,25.0,38.0,0.0,0.0,2.0816681711721685e-15,0.0,0.0,0.0,0.0,-1111.702,-1111.702,0.0,38.0,0.0,0.0,0.0,0.0,0.0,25.0,90.0,0.0,5.7824115865893626e-21,1.7925475918427007e-19,0.0,0.0,0.0,0.0,0.0,0.0,0.0,0.0,0.30999999999999994,1.7925475918427007e-19,0.0,0.0,0.0,0.0,0.0,0.0098962771728656,0.0,0.0,2.0816681711721685e-15,0.0,5.600000000000002,89.99958099961134,0.0,89.99958099961134,0.0
32,32,0.3198962771728657,2.0,2.0,2.0,2.0,90.0,90.0,90.0,90.0,32889.0,32768.0,32869.0,32768.0,32948.0,32768.0,32768.0,32768.0,0.0,0.0907321554980647,-0.0637071378007741,0.3455607067011612,0.0,0.0,0.0,0.0,-0.3489999999999993,-0.3489999999999993,-0.3509999999999993,-0.3499999999999993,38.0,0.0,293.0,198.0,0.0,0.0,0.0,0.0,-1.9619999453425407,11.772000044584274,2.0816681711721685e-15,2.0816681711721685e-15,2.0816681711721685e-15,2.0816681711721685e-15,4.35,25.0,38.0,0.0,0.0,2.0816681711721685e-15,0.0,0.0,0.0,0.0,-1111.702,-1111.702,0.0,38.0,0.0,0.0,0.0,0.0,0.0,25.0,90.0,0.0,5.782411586589394e-21,1.8503717077085946e-19,0.0,0.0,0.0,0.0,0.0,0.0,0.0,0.0,0.32,1.8503717077085946e-19,0.0,0.0,0.0,0.0,0.0,0.0098962771728656,0.0,0.0,2.0816681711721685e-15,0.0,5.600000000000002,89.99958099961134,0.0,89.99958099961134,0.0
33,33,0.3298962771728657,2.0,2.0,2.0,2.0,90.0,90.0,90.0,90.0,32827.0,32768.0,32848.0,32768.0,32909.0,32768.0,32809.0,32768.0,0.0,0.0641821725545885,-0.0037267411681172,0.5283643451091771,0.0,0.0,0.0,0.0,-0.3489999999999993,-0.3489999999999993,-0.3509999999999993,-0.3499999999999993,38.0,0.0,293.0,198.0,0.0,0.0,0.0,0.0,-1.9619999453425407,11.772000044584274,2.0816681711721685e-15,2.0816681711721685e-15,2.0816681711721685e-15,2.0816681711721685e-15,6.9600001037120816,25.0,38.0,0.0,0.0,2.0816681711721685e-15,0.0,0.0,0.0,0.0,-1111.702,-1111.702,0.0,38.0,0.0,0.0,0.0,0.0,0.0,25.0,90.0,0.0,5.7824115865893626e-21,1.9081958235744883e-19,0.0,0.0,0.0,0.0,0.0,0.0,0.0,0.0,0.33,1.9081958235744883e-19,0.0,0.0,0.0,0.0,0.0,0.0098962771728656,0.0,0.0,2.0816681711721685e-15,0.0,5.600000000000002,89.99958099961134,0.0,89.99958099961134,0.0
34,34,0.3398962771728657,2.0,2.0,2.0,2.0,90.0,90.0,90.0,90.0,32848.0,32768.0,32848.0,32768.0,32950.0,32768.0,32768.0,32768.0,0.0,0.2579602292313674,0.1763681833850939,0.3788556790760855,0.0,0.0,0.0,0.0,-0.3489999999999993,-0.3489999999999993,-0.3509999999999993,-0.3499999999999993,38.0,0.0,293.0,198.0,0.0,0.0,0.0,0.0,-4.904999956488609,11.772000044584274,2.0816681711721685e-15,2.0816681711721685e-15,2.0816681711721685e-15,2.0816681711721685e-15,10.440000414848328,25.0,38.0,0.0,0.0,2.0816681711721685e-15,0.0,0.0,0.0,0.0,-1111.702,-1111.702,0.0,38.0,0.0,0.0,0.0,0.0,0.0,25.0,90.0,0.0,5.7824115865893626e-21,1.966019939440382e-19,0.0,0.0,0.0,0.0,0.0,0.0,0.0,0.0,0.34,1.966019939440382e-19,0.0,0.0,0.0,0.0,0.0,0.0098962771728656,0.0,0.0,2.0816681711721685e-15,0.0,5.600000000000002,89.99958099961134,0.0,89.99958099961134,0.0
35,35,0.3498962771728657,2.0,2.0,2.0,2.0,90.0,90.0,90.0,90.0,32848.0,32768.0,32827.0,32768.0,32990.0,32768.0,32827.0,32768.0,0.0,0.2548000256040329,0.2182666752013443,-0.0355999231879013,0.0,0.0,0.0,0.0,-0.3489999999999993,-0.3489999999999993,-0.3509999999999993,-0.3499999999999993,38.0,0.0,293.0,198.0,0.0,0.0,0.0,0.0,-7.847999781370163,11.772000044584274,2.0816681711721685e-15,2.0816681711721685e-15,2.0816681711721685e-15,2.0816681711721685e-15,4.35,25.0,38.0,0.0,0.0,2.0816681711721685e-15,0.0,0.0,0.0,0.0,-1111.702,-1111.702,0.0,38.0,0.0,0.0,0.0,0.0,0.0,25.0,90.0,0.0,5.7824115865893626e-21,2.0238440553062757e-19,0.0,0.0,0.0,0.0,0.0,0.0,0.0,0.0,0.35000000000000003,2.0238440553062757e-19,0.0,0.0,0.0,0.0,0.0,0.0098962771728656,0.0,0.0,2.0816681711721685e-15,0.0,5.600000000000002,89.99958099961134,0.0,89.99958099961134,0.0
36,36,0.3598962771728656,2.0,2.0,2.0,2.0,90.0,90.0,90.0,90.0,32868.0,32768.0,32827.0,32768.0,32948.0,32768.0,32768.0,32768.0,0.0,0.2316397644797184,0.2632795289594369,-0.1050807065608445,0.0,0.0,0.0,0.0,-0.3489999999999993,-0.3489999999999993,-0.3509999999999993,-0.3499999999999993,38.0,0.0,293.0,198.0,0.0,0.0,0.0,0.0,-1.9619999453425407,11.772000044584274,2.0816681711721685e-15,2.0816681711721685e-15,2.0816681711721685e-15,2.0816681711721685e-15,-3.4800000518560408,25.0,38.0,0.0,0.0,2.0816681711721685e-15,0.0,0.0,0.0,0.0,-1111.702,-1111.702,0.0,38.0,0.0,0.0,0.0,0.0,0.0,25.0,90.0,0.0,5.782411586589298e-21,2.0816681711721687e-19,0.0,0.0,0.0,0.0,0.0,0.0,0.0,0.0,0.35999999999999993,2.0816681711721687e-19,0.0,0.0,0.0,0.0,0.0,0.0098962771728656,0.0,0.0,2.0816681711721685e-15,0.0,5.600000000000002,89.99958099961134,0.0,89.99958099961134,0.0
37,37,0.3698962771728656,2.0,2.0,2.0,2.0,90.0,90.0,90.0,90.0,32869.0,32768.0,32786.0,32768.0,32948.0,32768.0,32788.0,32768.0,0.0,0.2817903918705314,0.0456768650357488,0.3314847024463767,0.0,0.0,0.0,0.0,-0.3489999999999993,-0.3489999999999993,-0.3509999999999993,-0.3499999999999993,38.0,0.0,293.0,198.0,0.0,0.0,0.0,0.0,4.904999956488609,11.772000044584274,2.0816681711721685e-15,2.0816681711721685e-15,2.0816681711721685e-15,2.0816681711721685e-15,-0.8700000129640102,25.0,38.0,0.0,0.0,2.0816681711721685e-15,0.0,0.0,0.0,0.0,-1111.702,-1111.702,0.0,38.0,0.0,0.0,0.0,0.0,0.0,25.0,90.0,0.0,5.7824115865893626e-21,2.1394922870380624e-19,0.0,0.0,0.0,0.0,0.0,0.0,0.0,0.0,0.36999999999999994,2.1394922870380624e-19,0.0,0.0,0.0,0.0,0.0,0.0098962771728656,0.0,0.0,2.0816681711721685e-15,0.0,5.600000000000002,89.99958099961134,0.0,89.99958099961134,0.0
38,38,0.3798962771728656,2.0,2.0,2.0,2.0,90.0,90.0,90.0,90.0,32869.0,32768.0,32848.0,32768.0,32990.0,32768.0,32768.0,32768.0,0.0,0.1400891872188233,0.1238751378936472,0.2301783744376467,0.0,0.0,0.0,0.0,-0.3489999999999993,-0.3489999999999993,-0.3509999999999993,-0.3499999999999993,38.0,0.0,293.0,198.0,0.0,0.0,0.0,0.0,1.9619999453425407,11.772000044584274,2.0816681711721685e-15,2.0816681711721685e-15,2.0816681711721685e-15,2.0816681711721685e-15,9.570000207424163,25.0,38.0,0.0,0.0,2.0816681711721685e-15,0.0,0.0,0.0,0.0,-1111.702,-1111.702,0.0,38.0,0.0,0.0,0.0,0.0,0.0,25.0,90.0,0.0,5.7824115865893626e-21,2.197316402903956e-19,0.0,0.0,0.0,0.0,0.0,0.0,0.0,0.0,0.37999999999999995,2.197316402903956e-19,0.0,0.0,0.0,0.0,0.0,0.0098962771728656,0.0,0.0,2.0816681711721685e-15,0.0,5.600000000000002,89.99958099961134,0.0,89.99958099961134,0.0
39,39,0.3898962771728657,2.0,2.0,2.0,2.0,90.0,90.0,90.0,90.0,32848.0,32768.0,32869.0,32768.0,32969.0,32768.0,32768.0,32768.0,0.0,-0.0752558433760586,0.25,0.1126279216880293,0.0,0.0,0.0,0.0,-0.3489999999999993,-0.3489999999999993,-0.3509999999999993,-0.3499999999999993,38.0,0.0,293.0,198.0,0.0,0.0,0.0,0.0,-4.904999956488609,14.714999496936798,2.0816681711721685e-15,2.0816681711721685e-15,2.0816681711721685e-15,2.0816681711721685e-15,0.8700000129640102,25.0,38.0,0.0,0.0,2.0816681711721685e-15,0.0,0.0,0.0,0.0,-1111.702,-1111.702,0.0,38.0,0.0,0.0,0.0,0.0,0.0,25.0,90.0,0.0,5.782411586589394e-21,2.25514051876985e-19,0.0,0.0,0.0,0.0,0.0,0.0,0.0,0.0,0.39,2.25514051876985e-19,0.0,0.0,0.0,0.0,0.0,0.0098962771728656,0.0,0.0,2.0816681711721685e-15,0.0,5.600000000000002,89.99958099961134,0.0,89.99958099961134,0.0
40,40,0.3998962771728657,2.0,2.0,2.0,2.0,90.0,90.0,90.0,90.0,32848.0,32768.0,32848.0,32768.0,32948.0,32768.0,32768.0,32768.0,0.0,-0.1814056642431115,0.0929716787844422,-0.0698396497017808,0.0,0.0,0.0,0.0,-0.3489999999999993,-0.3489999999999993,-0.3509999999999993,-0.3499999999999993,38.0,0.0,293.0,198.0,0.0,0.0,0.0,0.0,1.9619999453425407,11.772000044584274,2.0816681711721685e-15,2.0816681711721685e-15,2.0816681711721685e-15,2.0816681711721685e-15,2.610000103712082,25.0,38.0,0.0,0.0,2.0816681711721685e-15,0.0,0.0,0.0,0.0,-1111.702,-1111.702,0.0,38.0,0.0,0.0,0.0,0.0,0.0,25.0,90.0,0.0,5.7824115865893626e-21,2.3129646346357432e-19,0.0,0.0,0.0,0.0,0.0,0.0,0.0,0.0,0.4,2.3129646346357432e-19,0.0,0.0,0.0,0.0,0.0,0.0098962771728656,0.0,0.0,2.0816681711721685e-15,0.0,5.600000000000002,89.99958099961134,0.0,89.99958099961134,0.0
41,41,0.4098962771728657,2.0,2.0,2.0,2.0,90.0,90.0,90.0,90.0,32848.0,32768.0,32848.0,32768.0,32969.0,32768.0,32768.0,32768.0,0.0,-0.3268177897828326,0.2219311321199571,-0.0414777627714592,0.0,0.0,0.0,0.0,-0.3489999999999993,-0.3489999999999993,-0.3509999999999993,-0.3499999999999993,38.0,0.0,293.0,198.0,0.0,0.0,0.0,0.0,1.9619999453425407,11.772000044584274,2.0816681711721685e-15,2.0816681711721685e-15,2.0816681711721685e-15,2.0816681711721685e-15,-3.4800000518560408,25.0,38.0,0.0,0.0,2.0816681711721685e-15,0.0,0.0,0.0,0.0,-1111.702,-1111.702,0.0,38.0,0.0,0.0,0.0,0.0,0.0,25.0,90.0,0.0,5.7824115865893626e-21,2.3707887505016367e-19,0.0,0.0,0.0,0.0,0.0,0.0,0.0,0.0,0.41000000000000003,2.3707887505016367e-19,0.0,0.0,0.0,0.0,0.0,0.0098962771728656,0.0,0.0,2.0816681711721685e-15,0.0,5.600000000000002,89.99958099961134,0.0,89.99958099961134,0.0
42,42,0.4198962771728656,2.0,2.0,2.0,2.0,90.0,90.0,90.0,90.0,32868.0,32768.0,32848.0,32768.0,32948.0,32768.0,32768.0,32768.0,0.0,-0.1464134684360061,-0.1571730631279876,0.2401898986729954,0.0,0.0,0.0,0.0,-0.3489999999999993,-0.3489999999999993,-0.3509999999999993,-0.3499999999999993,38.0,0.0,293.0,198.0,0.0,0.0,0.0,0.0,-1.9619999453425407,11.772000044584274,2.0816681711721685e-15,2.0816681711721685e-15,2.0816681711721685e-15,2.0816681711721685e-15,0.8700000129640102,25.0,38.0,0.0,0.0,2.0816681711721685e-15,0.0,0.0,0.0,0.0,-1111.702,-1111.702,0.0,38.0,0.0,0.0,0.0,0.0,0.0,25.0,90.0,0.0,5.782411586589298e-21,2.4286128663675297e-19,0.0,0.0,0.0,0.0,0.0,0.0,0.0,0.0,0.41999999999999993,2.4286128663675297e-19,0.0,0.0,0.0,0.0,0.0,0.0098962771728656,0.0,0.0,2.0816681711721685e-15,0.0,5.600000000000002,89.99958099961134,0.0,89.99958099961134,0.0
43,43,0.4298962771728656,2.0,2.0,2.0,2.0,90.0,90.0,90.0,90.0,32827.0,32768.0,32827.0,32768.0,32969.0,32768.0,32788.0,32768.0,0.0,0.0,0.0569714922418386,0.2549428452046552,0.0,0.0,0.0,0.0,-0.3489999999999993,-0.3489999999999993,-0.3509999999999993,-0.3499999999999993,38.0,0.0,293.0,198.0,0.0,0.0,0.0,0.0,-1.9619999453425407,11.772000044584274,2.0816681711721685e-15,2.0816681711721685e-15,2.0816681711721685e-15,2.0816681711721685e-15,6.089999896287917,25.0,38.0,0.0,0.0,2.0816681711721685e-15,0.0,0.0,0.0,0.0,-1111.702,-1111.702,0.0,38.0,0.0,0.0,0.0,0.0,0.0,25.0,90.0,0.0,5.7824115865893626e-21,2.486436982233423e-19,0.0,0.0,0.0,0.0,0.0,0.0,0.0,0.0,0.42999999999999994,2.486436982233423e-19,0.0,0.0,0.0,0.0,0.0,0.0098962771728656,0.0,0.0,2.0816681711721685e-15,0.0,5.600000000000002,89.99958099961134,0.0,89.99958099961134,0.0
44,44,0.4398962771728656,2.0,2.0,2.0,2.0,90.0,90.0,90.0,90.0,32827.0,32768.0,32827.0,32768.0,32969.0,32768.0,32768.0,32768.0,0.0,0.0946423829497347,0.3815474609832449,0.2946423829497347,0.0,0.0,0.0,0.0,-0.3489999999999993,-0.3489999999999993,-0.3509999999999993,-0.3499999999999993,38.0,0.0,293.0,198.0,0.0,0.0,0.0,0.0,1.9619999453425407,11.772000044584274,2.0816681711721685e-15,2.0816681711721685e-15,2.0816681711721685e-15,2.0816681711721685e-15,3.4800000518560408,25.0,38.0,0.0,0.0,2.0816681711721685e-15,0.0,0.0,0.0,0.0,-1111.702,-1111.702,0.0,38.0,0.0,0.0,0.0,0.0,0.0,25.0,90.0,0.0,5.7824115865893626e-21,2.5442610980993166e-19,0.0,0.0,0.0,0.0,0.0,0.0,0.0,0.0,0.43999999999999995,2.5442610980993166e-19,0.0,0.0,0.0,0.0,0.0,0.0098962771728656,0.0,0.0,2.0816681711721685e-15,0.0,5.600000000000002,89.99958099961134,0.0,89.99958099961134,0.0
45,45,0.4498962771728657,2.0,2.0,2.0,2.0,90.0,90.0,90.0,90.0,32848.0,32768.0,32889.0,32768.0,32969.0,32768.0,32788.0,32768.0,0.0,0.022903171590825,0.3682257928977063,0.3182257928977062,0.0,0.0,0.0,0.0,-0.3489999999999993,-0.3489999999999993,-0.3509999999999993,-0.3499999999999993,38.0,0.0,293.0,198.0,0.0,0.0,0.0,0.0,-1.9619999453425407,11.772000044584274,2.0816681711721685e-15,2.0816681711721685e-15,2.0816681711721685e-15,2.0816681711721685e-15,6.089999896287917,25.0,38.0,0.0,0.0,2.0816681711721685e-15,0.0,0.0,0.0,0.0,-1111.702,-1111.702,0.0,38.0,0.0,0.0,0.0,0.0,0.0,25.0,90.0,0.0,5.782411586589394e-21,2.6020852139652105e-19,0.0,0.0,0.0,0.0,0.0,0.0,0.0,0.0,0.45,2.6020852139652105e-19,0.0,0.0,0.0,0.0,0.0,0.0098962771728656,0.0,0.0,2.0816681711721685e-15,0.0,5.600000000000002,89.99958099961134,0.0,89.99958099961134,0.0
46,46,0.4598962771728657,2.0,2.0,2.0,2.0,90.0,90.0,90.0,90.0,32909.0,32768.0,32827.0,32768.0,32969.0,32768.0,32768.0,32768.0,0.0,-0.0185312377262568,0.1297186640837981,0.3944062868212294,0.0,0.0,0.0,0.0,-0.3489999999999993,-0.3489999999999993,-0.3509999999999993,-0.3499999999999993,38.0,0.0,293.0,198.0,0.0,0.0,0.0,0.0,-1.9619999453425407,11.772000044584274,2.0816681711721685e-15,2.0816681711721685e-15,2.0816681711721685e-15,2.0816681711721685e-15,5.220000207424164,25.0,38.0,0.0,0.0,2.0816681711721685e-15,0.0,0.0,0.0,0.0,-1111.702,-1111.702,0.0,38.0,0.0,0.0,0.0,0.0,0.0,25.0,90.0,0.0,5.7824115865893626e-21,2.659909329831104e-19,0.0,0.0,0.0,0.0,0.0,0.0,0.0,0.0,0.46,2.659909329831104e-19,0.0,0.0,0.0,0.0,0.0,0.0098962771728656,0.0,0.0,2.0816681711721685e-15,0.0,5.600000000000002,89.99958099961134,0.0,89.99958099961134,0.0
47,47,0.4698962771728657,2.0,2.0,2.0,2.0,90.0,90.0,90.0,90.0,32868.0,32768.0,32827.0,32768.0,32990.0,32768.0,32747.0,32768.0,0.0,0.1575383611809364,0.0630153444723745,0.1979386221105016,0.0,0.0,0.0,0.0,-0.3489999999999993,-0.3489999999999993,-0.3509999999999993,-0.3499999999999993,38.0,0.0,293.0,198.0,0.0,0.0,0.0,0.0,-4.904999956488609,7.847999781370163,2.0816681711721685e-15,2.0816681711721685e-15,2.0816681711721685e-15,2.0816681711721685e-15,7.829999792575835,25.0,38.0,0.0,0.0,2.0816681711721685e-15,0.0,0.0,0.0,0.0,-1111.702,-1111.702,0.0,38.0,0.0,0.0,0.0,0.0,0.0,25.0,90.0,0.0,5.7824115865893626e-21,2.7177334456969975e-19,0.0,0.0,0.0,0.0,0.0,0.0,0.0,0.0,0.47000000000000003,2.7177334456969975e-19,0.0,0.0,0.0,0.0,0.0,0.0098962771728656,0.0,0.0,2.0816681711721685e-15,0.0,5.600000000000002,89.99958099961134,0.0,89.99958099961134,0.0
48,48,0.4798962771728656,2.0,2.0,2.0,2.0,90.0,90.0,90.0,90.0,32807.0,32768.0,32827.0,32768.0,32969.0,32768.0,32726.0,32768.0,0.0,0.4729740483007904,0.1,0.05,0.0,0.0,0.0,0.0,-0.3489999999999993,-0.3489999999999993,-0.3509999999999993,-0.3499999999999993,38.0,0.0,293.0,198.0,0.0,0.0,0.0,0.0,-1.9619999453425407,7.847999781370163,2.0816681711721685e-15,2.0816681711721685e-15,2.0816681711721685e-15,2.0816681711721685e-15,0.8700000129640102,25.0,38.0,0.0,0.0,2.0816681711721685e-15,0.0,0.0,0.0,0.0,-1111.702,-1111.702,0.0,38.0,0.0,0.0,0.0,0.0,0.0,25.0,90.0,0.0,5.782411586589298e-21,2.7755575615628904e-19,0.0,0.0,0.0,0.0,0.0,0.0,0.0,0.0,0.4799999999999999,2.7755575615628904e-19,0.0,0.0,0.0,0.0,0.0,0.0098962771728656,0.0,0.0,2.0816681711721685e-15,0.0,5.600000000000002,89.99958099961134,0.0,89.99958099961134,0.0
49,49,0.4898962771728656,2.0,2.0,2.0,2.0,90.0,90.0,90.0,90.0,32889.0,32768.0,32848.0,32768.0,32990.0,32768.0,32768.0,32768.0,0.0,0.188561999816886,0.0683509230628373,-0.2031926154973009,0.0,0.0,0.0,0.0,-0.3489999999999993,-0.3489999999999993,-0.3509999999999993,-0.3499999999999993,38.0,106.0,293.0,198.0,0.0,0.0,0.0,0.0,1.9619999453425407,11.772000044584274,2.0816681711721685e-15,2.0816681711721685e-15,2.0816681711721685e-15,2.0816681711721685e-15,0.8700000129640102,25.0,38.0,0.0,0.0,2.0816681711721685e-15,0.0,0.0,0.0,0.0,-1111.702,-1111.702,0.0,38.0,0.0,0.0,0.0,0.0,0.0,25.0,90.0,0.0,5.7824115865893626e-21,2.833381677428784e-19,0.0,0.0,0.0,0.0,0.0,0.0,0.0,0.0,0.48999999999999994,2.833381677428784e-19,0.0,0.0,0.0,0.0,0.0,0.0098962771728656,0.0,0.0,2.0816681711721685e-15,0.0,5.600000000000002,89.99958099961134,0.0,89.99958099961134,0.0
50,50,0.4998962771728656,2.0,2.0,2.0,2.0,90.0,90.0,90.0,90.0,32848.0,32768.0,32827.0,32768.0,33011.0,32768.0,32768.0,32768.0,0.0,0.0453730751595154,0.2725371753722026,0.126865375797577,0.0,0.0,0.0,0.0,-0.3489999999999993,-0.3489999999999993,-0.3509999999999993,-0.3499999999999993,38.0,0.0,293.0,198.0,0.0,0.0,0.0,0.0,-1.9619999453425407,7.847999781370163,2.0816681711721685e-15,2.0816681711721685e-15,2.0816681711721685e-15,2.0816681711721685e-15,-6.089999896287917,25.0,38.0,0.0,0.0,2.0816681711721685e-15,0.0,0.0,0.0,0.0,-1111.702,-1111.702,0.0,38.0,0.0,0.0,0.0,0.0,0.0,25.0,90.0,0.0,5.7824115865893626e-21,2.8912057932946774e-19,0.0,0.0,0.0,0.0,0.0,0.0,0.0,0.0,0.49999999999999994,2.8912057932946774e-19,0.0,0.0,0.0,0.0,0.0,0.0098962771728656,0.0,0.0,2.0816681711721685e-15,0.0,5.600000000000002,89.99958099961134,0.0,89.99958099961134,0.0
51,51,0.5098962771728657,2.0,2.0,2.0,2.0,90.0,90.0,90.0,90.0,32848.0,32768.0,32848.0,32768.0,32948.0,32768.0,32788.0,32768.0,0.0,0.2249703221374166,0.2750296778625833,0.2750296778625833,0.0,0.0,0.0,0.0,-0.3489999999999993,-0.3489999999999993,-0.3509999999999993,-0.3499999999999993,38.0,0.0,293.0,198.0,0.0,0.0,0.0,0.0,-4.904999956488609,11.772000044584274,2.0816681711721685e-15,2.0816681711721685e-15,2.0816681711721685e-15,2.0816681711721685e-15,6.9600001037120816,25.0,38.0,0.0,0.0,2.0816681711721685e-15,0.0,0.0,0.0,0.0,-1111.702,-1111.702,0.0,38.0,0.0,0.0,0.0,0.0,0.0,25.0,90.0,0.0,5.782411586589394e-21,2.9490299091605713e-19,0.0,0.0,0.0,0.0,0.0,0.0,0.0,0.0,0.51,2.9490299091605713e-19,0.0,0.0,0.0,0.0,0.0,0.0098962771728656,0.0,0.0,2.0816681711721685e-15,0.0,5.600000000000002,89.99958099961134,0.0,89.99958099961134,0.0
52,52,0.5198962771728657,2.0,2.0,2.0,2.0,90.0,90.0,90.0,90.0,32869.0,32768.0,32848.0,32768.0,32969.0,32768.0,32768.0,32768.0,0.0,0.3940563574924353,0.0745915233434195,0.0745915233434195,0.0,0.0,0.0,0.0,-0.3489999999999993,-0.3489999999999993,-0.3509999999999993,-0.3499999999999993,38.0,0.0,293.0,198.0,0.0,0.0,0.0,0.0,1.9619999453425407,11.772000044584274,2.0816681711721685e-15,2.0816681711721685e-15,2.0816681711721685e-15,2.0816681711721685e-15,3.4800000518560408,25.0,38.0,0.0,0.0,2.0816681711721685e-15,0.0,0.0,0.0,0.0,-1111.702,-1111.702,0.0,38.0,0.0,0.0,0.0,0.0,0.0,25.0,90.0,0.0,5.7824115865893626e-21,3.006854025026465e-19,0.0,0.0,0.0,0.0,0.0,0.0,0.0,0.0,0.52,3.006854025026465e-19,0.0,0.0,0.0,0.0,0.0,0.0098962771728656,0.0,0.0,2.0816681711721685e-15,0.0,5.600000000000002,89.99958099961134,0.0,89.99958099961134,0.0
53,53,0.5298962771728657,2.0,2.0,2.0,2.0,90.0,90.0,90.0,90.0,32848.0,32768.0,32827.0,32768.0,32948.0,32768.0,32809.0,32768.0,0.0,0.4183191799659485,0.0950424601021545,0.316808200340515,0.0,0.0,0.0,0.0,-0.3489999999999993,-0.3489999999999993,-0.3509999999999993,-0.3499999999999993,38.0,0.0,293.0,198.0,0.0,0.0,0.0,0.0,-1.9619999453425407,11.772000044584274,2.0816681711721685e-15,2.0816681711721685e-15,2.0816681711721685e-15,2.0816681711721685e-15,0.0,25.0,38.0,0.0,0.0,2.0816681711721685e-15,0.0,0.0,0.0,0.0,-1111.702,-1111.702,0.0,38.0,0.0,0.0,0.0,0.0,0.0,25.0,90.0,0.0,5.7824115865893626e-21,3.064678140892358e-19,0.0,0.0,0.0,0.0,0.0,0.0,0.0,0.0,0.53,3.064678140892358e-19,0.0,0.0,0.0,0.0,0.0,0.0098962771728656,0.0,0.0,2.0816681711721685e-15,0.0,5.600000000000002,89.99958099961134,0.0,89.99958099961134,0.0
54,54,0.5398962771728657,2.0,2.0,2.0,2.0,90.0,90.0,90.0,90.0,32848.0,32768.0,32848.0,32768.0,32969.0,32768.0,32768.0,32768.0,0.0,0.4,0.3382946407996697,0.2803229190670521,0.0,0.0,0.0,0.0,-0.3489999999999993,-0.3489999999999993,-0.3509999999999993,-0.3499999999999993,38.0,0.0,293.0,198.0,0.0,0.0,0.0,0.0,1.9619999453425407,7.847999781370163,2.0816681711721685e-15,2.0816681711721685e-15,2.0816681711721685e-15,2.0816681711721685e-15,8.7,25.0,38.0,0.0,0.0,2.0816681711721685e-15,0.0,0.0,0.0,0.0,-1111.702,-1111.702,0.0,38.0,0.0,0.0,0.0,0.0,0.0,25.0,90.0,0.0,5.7824115865893626e-21,3.1225022567582517e-19,0.0,0.0,0.0,0.0,0.0,0.0,0.0,0.0,0.54,3.1225022567582517e-19,0.0,0.0,0.0,0.0,0.0,0.0098962771728656,0.0,0.0,2.0816681711721685e-15,0.0,5.600000000000002,89.99958099961134,0.0,89.99958099961134,0.0
55,55,0.5498962771728657,2.0,2.0,2.0,2.0,90.0,90.0,90.0,90.0,32848.0,32768.0,32827.0,32768.0,32948.0,32768.0,32768.0,32768.0,0.0,0.3366078797803449,0.4816960601098276,0.3401763606589653,0.0,0.0,0.0,0.0,-0.3489999999999993,-0.3489999999999993,-0.3509999999999993,-0.3499999999999993,38.0,0.0,293.0,198.0,0.0,0.0,0.0,0.0,-4.904999956488609,11.772000044584274,2.0816681711721685e-15,2.0816681711721685e-15,2.0816681711721685e-15,2.0816681711721685e-15,2.610000103712082,25.0,38.0,0.0,0.0,2.0816681711721685e-15,0.0,0.0,0.0,0.0,-1111.702,-1111.702,0.0,38.0,0.0,0.0,0.0,0.0,0.0,25.0,90.0,0.0,5.7824115865893626e-21,3.180326372624145e-19,0.0,0.0,0.0,0.0,0.0,0.0,0.0,0.0,0.55,3.180326372624145e-19,0.0,0.0,0.0,0.0,0.0,0.0098962771728656,0.0,0.0,2.0816681711721685e-15,0.0,5.600000000000002,89.99958099961134,0.0,89.99958099961134,0.0
56,56,0.5598962771728657,2.0,2.0,2.0,2.0,90.0,90.0,90.0,90.0,32889.0,32768.0,32848.0,32768.0,32948.0,32768.0,32788.0,32768.0,0.0,0.0795511414941918,0.3425365296387084,0.3240292237109667,0.0,0.0,0.0,0.0,-0.3489999999999993,-0.3489999999999993,-0.3509999999999993,-0.3499999999999993,38.0,0.0,293.0,198.0,0.0,0.0,0.0,0.0,-1.9619999453425407,11.772000044584274,2.0816681711721685e-15,2.0816681711721685e-15,2.0816681711721685e-15,2.0816681711721685e-15,7.829999792575835,25.0,38.0,0.0,0.0,2.0816681711721685e-15,0.0,0.0,0.0,0.0,-1111.702,-1111.702,0.0,38.0,0.0,0.0,0.0,0.0,0.0,25.0,90.0,0.0,5.7824115865893626e-21,3.2381504884900386e-19,0.0,0.0,0.0,0.0,0.0,0.0,0.0,0.0,0.56,3.2381504884900386e-19,0.0,0.0,0.0,0.0,0.0,0.0098962771728656,0.0,0.0,2.0816681711721685e-15,0.0,5.600000000000002,89.99958099961134,0.0,89.99958099961134,0.0
57,57,0.5698962771728657,2.0,2.0,2.0,2.0,90.0,90.0,90.0,90.0,32868.0,32768.0,32869.0,32768.0,32948.0,32768.0,32788.0,32768.0,0.0,0.1718649537593977,0.345084980182599,0.1866100132116006,0.0,0.0,0.0,0.0,-0.3489999999999993,-0.3489999999999993,-0.3509999999999993,-0.3499999999999993,38.0,0.0,293.0,198.0,0.0,0.0,0.0,0.0,1.9619999453425407,7.847999781370163,2.0816681711721685e-15,2.0816681711721685e-15,2.0816681711721685e-15,2.0816681711721685e-15,4.35,25.0,38.0,0.0,0.0,2.0816681711721685e-15,0.0,0.0,0.0,0.0,-1111.702,-1111.702,0.0,38.0,0.0,0.0,0.0,0.0,0.0,25.0,90.0,0.0,5.7824115865893626e-21,3.295974604355932e-19,0.0,0.0,0.0,0.0,0.0,0.0,0.0,0.0,0.5700000000000001,3.295974604355932e-19,0.0,0.0,0.0,0.0,0.0,0.0098962771728656,0.0,0.0,2.0816681711721685e-15,0.0,5.600000000000002,89.99958099961134,0.0,89.99958099961134,0.0
58,58,0.5798962771728656,2.0,2.0,2.0,2.0,90.0,90.0,90.0,90.0,32848.0,32768.0,32827.0,32768.0,32948.0,32768.0,32768.0,32768.0,0.0,0.0441763984257135,0.2081322988192852,0.2459338505903573,0.0,0.0,0.0,0.0,-0.3489999999999993,-0.3489999999999993,-0.3509999999999993,-0.3499999999999993,38.0,0.0,293.0,198.0,0.0,0.0,0.0,0.0,-4.904999956488609,11.772000044584274,2.0816681711721685e-15,2.0816681711721685e-15,2.0816681711721685e-15,2.0816681711721685e-15,2.610000103712082,25.0,38.0,0.0,0.0,2.0816681711721685e-15,0.0,0.0,0.0,0.0,-1111.702,-1111.702,0.0,38.0,0.0,0.0,0.0,0.0,0.0,25.0,90.0,0.0,5.782411586589298e-21,3.353798720221825e-19,0.0,0.0,0.0,0.0,0.0,0.0,0.0,0.0,0.58,3.353798720221825e-19,0.0,0.0,0.0,0.0,0.0,0.0098962771728656,0.0,0.0,2.0816681711721685e-15,0.0,5.600000000000002,89.99958099961134,0.0,89.99958099961134,0.0
59,59,0.5898962771728656,2.0,2.0,2.0,2.0,90.0,90.0,90.0,90.0,32848.0,32768.0,32869.0,32768.0,32969.0,32768.0,32768.0,32768.0,0.0,0.0881671658365849,0.1,0.4568059715304875,0.0,0.0,0.0,0.0,-0.3489999999999993,-0.3489999999999993,-0.3509999999999993,-0.3499999999999993,38.0,0.0,293.0,198.0,0.0,0.0,0.0,0.0,-1.9619999453425407,11.772000044584274,2.0816681711721685e-15,2.0816681711721685e-15,2.0816681711721685e-15,2.0816681711721685e-15,5.220000207424164,25.0,38.0,0.0,0.0,2.0816681711721685e-15,0.0,0.0,0.0,0.0,-1111.702,-1111.702,0.0,38.0,0.0,0.0,0.0,0.0,0.0,25.0,90.0,0.0,5.7824115865893626e-21,3.4116228360877185e-19,0.0,0.0,0.0,0.0,0.0,0.0,0.0,0.0,0.59,3.4116228360877185e-19,0.0,0.0,0.0,0.0,0.0,0.0098962771728656,0.0,0.0,2.0816681711721685e-15,0.0,5.600000000000002,89.99958099961134,0.0,89.99958099961134,0.0
60,60,0.5998962771728656,2.0,2.0,2.0,2.0,90.0,90.0,90.0,90.0,32848.0,32768.0,32848.0,32768.0,32969.0,32768.0,32768.0,32768.0,0.0,0.2,0.0051461710583209,0.1073487982721647,0.0,0.0,0.0,0.0,-0.3489999999999993,-0.3489999999999993,-0.3509999999999993,-0.3499999999999993,38.0,0.0,293.0,198.0,0.0,0.0,0.0,0.0,-1.9619999453425407,11.772000044584274,2.0816681711721685e-15,2.0816681711721685e-15,2.0816681711721685e-15,2.0816681711721685e-15,9.570000207424163,25.0,38.0,0.0,0.0,2.0816681711721685e-15,0.0,0.0,0.0,0.0,-1111.702,-1111.702,0.0,38.0,0.0,0.0,0.0,0.0,0.0,25.0,90.0,0.0,5.7824115865893626e-21,3.469446951953612e-19,0.0,0.0,0.0,0.0,0.0,0.0,0.0,0.0,0.6,3.469446951953612e-19,0.0,0.0,0.0,0.0,0.0,0.0098962771728656,0.0,0.0,2.0816681711721685e-15,0.0,5.600000000000002,89.99958099961134,0.0,89.99958099961134,0.0
61,61,0.6098962771728657,2.0,2.0,2.0,2.0,90.0,90.0,90.0,90.0,32848.0,32768.0,32848.0,32768.0,32969.0,32768.0,32809.0,32768.0,0.0,0.1683323802886898,0.2033409576904815,-0.0549971408660694,0.0,0.0,0.0,0.0,-0.3489999999999993,-0.3489999999999993,-0.3509999999999993,-0.3499999999999993,38.0,0.0,293.0,198.0,0.0,0.0,0.0,0.0,1.9619999453425407,7.847999781370163,2.0816681711721685e-15,2.0816681711721685e-15,2.0816681711721685e-15,2.0816681711721685e-15,-2.610000103712082,25.0,38.0,0.0,0.0,2.0816681711721685e-15,0.0,0.0,0.0,0.0,-1111.702,-1111.702,0.0,38.0,0.0,0.0,0.0,0.0,0.0,25.0,90.0,0.0,5.7824115865893626e-21,3.5272710678195054e-19,0.0,0.0,0.0,0.0,0.0,0.0,0.0,0.0,0.61,3.5272710678195054e-19,0.0,0.0,0.0,0.0,0.0,0.0098962771728656,0.0,0.0,2.0816681711721685e-15,0.0,5.600000000000002,89.99958099961134,0.0,89.99958099961134,0.0
62,62,0.6198962771728657,2.0,2.0,2.0,2.0,90.0,90.0,90.0,90.0,32827.0,32768.0,32827.0,32768.0,32948.0,32768.0,32768.0,32768.0,0.0,0.15,0.25456499661363,-0.19087000677274,0.0,0.0,0.0,0.0,-0.3489999999999993,-0.3489999999999993,-0.3509999999999993,-0.3499999999999993,38.0,0.0,293.0,198.0,0.0,0.0,0.0,0.0,-1.9619999453425407,11.772000044584274,2.0816681711721685e-15,2.0816681711721685e-15,2.0816681711721685e-15,2.0816681711721685e-15,0.0,25.0,38.0,0.0,0.0,2.0816681711721685e-15,0.0,0.0,0.0,0.0,-1111.702,-1111.702,0.0,38.0,0.0,0.0,0.0,0.0,0.0,25.0,90.0,0.0,5.7824115865893626e-21,3.585095183685399e-19,0.0,0.0,0.0,0.0,0.0,0.0,0.0,0.0,0.62,3.585095183685399e-19,0.0,0.0,0.0,0.0,0.0,0.0098962771728656,0.0,0.0,2.0816681711721685e-15,0.0,5.600000000000002,89.99958099961134,0.0,89.99958099961134,0.0
63,63,0.6298962771728657,2.0,2.0,2.0,2.0,90.0,90.0,90.0,90.0,32827.0,32768.0,32827.0,32768.0,32929.0,32768.0,32747.0,32768.0,0.0,0.0220837558968926,0.2,0.0197906102577685,0.0,0.0,0.0,0.0,-0.3489999999999993,-0.3489999999999993,-0.3509999999999993,-0.3499999999999993,38.0,0.0,293.0,198.0,0.0,0.0,0.0,0.0,-4.904999956488609,11.772000044584274,2.0816681711721685e-15,2.0816681711721685e-15,2.0816681711721685e-15,2.0816681711721685e-15,-5.220000207424164,25.0,38.0,0.0,0.0,2.0816681711721685e-15,0.0,0.0,0.0,0.0,-1111.702,-1111.702,0.0,38.0,0.0,0.0,0.0,0.0,0.0,25.0,90.0,0.0,5.7824115865893626e-21,3.6429192995512924e-19,0.0,0.0,0.0,0.0,0.0,0.0,0.0,0.0,0.63,3.6429192995512924e-19,0.0,0.0,0.0,0.0,0.0,0.0098962771728656,0.0,0.0,2.0816681711721685e-15,0.0,5.600000000000002,89.99958099961134,0.0,89.99958099961134,0.0
64,64,0.6398962771728657,2.0,2.0,2.0,2.0,90.0,90.0,90.0,90.0,32848.0,32768.0,32869.0,32768.0,32990.0,32768.0,32768.0,32768.0,0.0,0.0754436258972839,0.137278187051358,0.3881654388459259,0.0,0.0,0.0,0.0,-0.3489999999999993,-0.3489999999999993,-0.3509999999999993,-0.3499999999999993,38.0,0.0,293.0,198.0,0.0,0.0,0.0,0.0,-4.904999956488609,11.772000044584274,2.0816681711721685e-15,2.0816681711721685e-15,2.0816681711721685e-15,2.0816681711721685e-15,3.4800000518560408,25.0,38.0,0.0,0.0,2.0816681711721685e-15,0.0,0.0,0.0,0.0,-1111.702,-1111.702,0.0,38.0,0.0,0.0,0.0,0.0,0.0,25.0,90.0,0.0,5.7824115865893626e-21,3.700743415417186e-19,0.0,0.0,0.0,0.0,0.0,0.0,0.0,0.0,0.64,3.700743415417186e-19,0.0,0.0,0.0,0.0,0.0,0.0098962771728656,0.0,0.0,2.0816681711721685e-15,0.0,5.600000000000002,89.99958099961134,0.0,89.99958099961134,0.0
65,65,0.6498962771728657,2.0,2.0,2.0,2.0,90.0,90.0,90.0,90.0,32827.0,32768.0,32827.0,32768.0,32929.0,32768.0,32768.0,32768.0,0.0,0.1816362564251223,0.1316362564251223,-0.0694526156522021,0.0,0.0,0.0,0.0,-0.3489999999999993,-0.3489999999999993,-0.3509999999999993,-0.3499999999999993,38.0,0.0,293.0,198.0,0.0,0.0,0.0,0.0,-4.904999956488609,11.772000044584274,2.0816681711721685e-15,2.0816681711721685e-15,2.0816681711721685e-15,2.0816681711721685e-15,8.7,25.0,38.0,0.0,0.0,2.0816681711721685e-15,0.0,0.0,0.0,0.0,-1111.702,-1111.702,0.0,38.0,0.0,0.0,0.0,0.0,0.0,25.0,90.0,0.0,5.7824115865893626e-21,3.7585675312830793e-19,0.0,0.0,0.0,0.0,0.0,0.0,0.0,0.0,0.65,3.7585675312830793e-19,0.0,0.0,0.0,0.0,0.0,0.0098962771728656,0.0,0.0,2.0816681711721685e-15,0.0,5.600000000000002,89.99958099961134,0.0,89.99958099961134,0.0
66,66,0.6598962771728657,2.0,2.0,2.0,2.0,90.0,90.0,90.0,90.0,32848.0,32768.0,32827.0,32768.0,32948.0,32768.0,32788.0,32768.0,0.0,0.2623785369892603,0.0252429260214793,0.0054604904301919,0.0,0.0,0.0,0.0,-0.3489999999999993,-0.3489999999999993,-0.3509999999999993,-0.3499999999999993,38.0,0.0,293.0,198.0,0.0,0.0,0.0,0.0,-1.9619999453425407,11.772000044584274,2.0816681711721685e-15,2.0816681711721685e-15,2.0816681711721685e-15,2.0816681711721685e-15,-6.9600001037120816,25.0,38.0,0.0,0.0,2.0816681711721685e-15,0.0,0.0,0.0,0.0,-1111.702,-1111.702,0.0,38.0,0.0,0.0,0.0,0.0,0.0,25.0,90.0,0.0,5.7824115865893626e-21,3.8163916471489727e-19,0.0,0.0,0.0,0.0,0.0,0.0,0.0,0.0,0.66,3.8163916471489727e-19,0.0,0.0,0.0,0.0,0.0,0.0098962771728656,0.0,0.0,2.0816681711721685e-15,0.0,5.600000000000002,89.99958099961134,0.0,89.99958099961134,0.0
67,67,0.6698962771728657,2.0,2.0,2.0,2.0,90.0,90.0,90.0,90.0,32848.0,32768.0,32869.0,32768.0,32990.0,32768.0,32788.0,32768.0,0.0,0.456683784354682,-0.0186632431290636,0.3126735137418728,0.0,0.0,0.0,0.0,-0.3489999999999993,-0.3489999999999993,-0.3509999999999993,-0.3499999999999993,38.0,0.0,293.0,198.0,0.0,0.0,0.0,0.0,-1.9619999453425407,11.772000044584274,2.0816681711721685e-15,2.0816681711721685e-15,2.0816681711721685e-15,2.0816681711721685e-15,4.35,25.0,38.0,0.0,0.0,2.0816681711721685e-15,0.0,0.0,0.0,0.0,-1111.702,-1111.702,0.0,38.0,0.0,0.0,0.0,0.0,0.0,25.0,90.0,0.0,5.7824115865893626e-21,3.874215763014866e-19,0.0,0.0,0.0,0.0,0.0,0.0,0.0,0.0,0.67,3.874215763014866e-19,0.0,0.0,0.0,0.0,0.0,0.0098962771728656,0.0,0.0,2.0816681711721685e-15,0.0,5.600000000000002,89.99958099961134,0.0,89.99958099961134,0.0
68,68,0.6798962771728657,2.0,2.0,2.0,2.0,90.0,90.0,90.0,90.0,32889.0,32768.0,32848.0,32768.0,33011.0,32768.0,32788.0,32768.0,0.0,0.55,0.0637751013827123,0.1267871451605068,0.0,0.0,0.0,0.0,-0.3489999999999993,-0.3489999999999993,-0.3509999999999993,-0.3499999999999993,38.0,0.0,293.0,198.0,0.0,0.0,0.0,0.0,1.9619999453425407,7.847999781370163,2.0816681711721685e-15,2.0816681711721685e-15,2.0816681711721685e-15,2.0816681711721685e-15,6.089999896287917,25.0,38.0,0.0,0.0,2.0816681711721685e-15,0.0,0.0,0.0,0.0,-1111.702,-1111.702,0.0,38.0,0.0,0.0,0.0,0.0,0.0,25.0,90.0,0.0,5.7824115865893626e-21,3.9320398788807597e-19,0.0,0.0,0.0,0.0,0.0,0.0,0.0,0.0,0.68,3.9320398788807597e-19,0.0,0.0,0.0,0.0,0.0,0.0098962771728656,0.0,0.0,2.0816681711721685e-15,0.0,5.600000000000002,89.99958099961134,0.0,89.99958099961134,0.0
69,69,0.6898962771728657,2.0,2.0,2.0,2.0,90.0,90.0,90.0,90.0,32827.0,32768.0,32869.0,32768.0,32948.0,32768.0,32726.0,32768.0,0.0,0.2333834260395577,0.0050150278118672,0.0949849721881327,0.0,0.0,0.0,0.0,-0.3489999999999993,-0.3489999999999993,-0.3509999999999993,-0.3499999999999993,38.0,0.0,293.0,198.0,0.0,0.0,0.0,0.0,1.9619999453425407,11.772000044584274,2.0816681711721685e-15,2.0816681711721685e-15,2.0816681711721685e-15,2.0816681711721685e-15,0.0,25.0,38.0,0.0,0.0,2.0816681711721685e-15,0.0,0.0,0.0,0.0,-1111.702,-1111.702,0.0,38.0,0.0,0.0,0.0,0.0,0.0,25.0,90.0,0.0,5.7824115865893626e-21,3.989863994746653e-19,0.0,0.0,0.0,0.0,0.0,0.0,0.0,0.0,0.6900000000000001,3.989863994746653e-19,0.0,0.0,0.0,0.0,0.0,0.0098962771728656,0.0,0.0,2.0816681711721685e-15,0.0,5.600000000000002,89.99958099961134,0.0,89.99958099961134,0.0
