,Unnamed: 0,currentTime,Agp_Pos_Sp_FL,Agp_Pos_Sp_FR,Agp_Pos_Sp_RL,Agp_Pos_Sp_RR,Disc_T_Est_FL,Disc_T_Est_FR,Disc_T_Est_RL,Disc_T_Est_RR,Motor_current_FL,Wheel_Decl_FL,Motor_current_FR,Wheel_Decl_FR,Motor_current_RL,Wheel_Decl_RL,Motor_current_RR,Wheel_Decl_RR,Vehicle_speed,Gyro_Rate_Pitch,IMU_Gyro_Rate_Roll,IMU_Gyro_Rate_Yaw,RealizedClampingForce_FL,RealizedClampingForce_FR,RealizedClampingForce_RL,RealizedClampingForce_RR,Piston_position_FL,Piston_position_FR,Piston_position_RL,Piston_position_RR,CF_FL,CF_FR,CF_RL,CF_RR,ESTIMATED_PRESSURE_FL,ESTIMATED_PRESSURE_FR,ESTIMATED_PRESSURE_RL,ESTIMATED_PRESSURE_RR,LATERAL_ACCELERATION,LONGITUDINAL_ACCELERATION,Wheel_Speed_FL,Wheel_Speed_FR,Wheel_Speed_RL,Wheel_Speed_RR,Yaw_rate,Ambiant_Temperature,Init_Disc_CF_FL,POS_MEASUREREV,TMC_filtered,Vitesse_Vehicule_Roues,Pressure_Speed_FL,Position_previous_FL,POS_MEASUREREV_square,POS_MEASUREREV_cube,Estimated_CF_FL,Estimated_CF_previous_FL,Pressure_Speed_previous_FL,CF_previous_FL,Deceleration_g,PosDiff,PreDiff,DecDiff,Lookup_Table,Temp_amb_C,Initial_temp_FL,RPM,Distance_Roues_instant,Distance_Roues,Brake_apply,Brake_release,Time_since_brake_apply,Miles_since_brake_apply,Time_since_brake_release,Miles_since_brake_release,BrakingTime_2,BrakingMiles_2,TimeSinceLastBrake_2,MilesSinceLastBrake_2,Change_Position,Change_pressure,BrakingForce_2,BrakingForce_ma_2,Start_braking_time,End_braking_time,BrakeStartSpeed,LastBrakStartSpeed,LastBrakEndtSpeed,LastDeceleration,conv_heat_trans_coef,temp_change_conv_FL,disc_heating_BTM_FL,temp_change_instant_BTM_1_FL,Pressure_Speed_time_FL
0,0,-0.0003145550292629,2.0,2.0,2.0,2.0,-0.2459999999999993,-0.2459999999999993,-0.2469999999999993,-0.2469999999999993,38.0,0.0,293.0,198.0,0.0,0.0,0.0,0.0,-31.39199912548065,37.27799952030182,2.0816681711721685e-15,2.0816681711721685e-15,2.0816681711721685e-15,2.0816681711721685e-15,0.8700000129640102,25.0,2.0,2.0,2.0,2.0,110.0,111.0,111.0,111.0,32868.0,32768.0,32807.0,32768.0,32989.0,32768.0,32788.0,32768.0,0.02255,0.2,0.7320397712720239,0.1820397712720238,110.0,21.68,32868.0,32788.0,1077675984.0,21.68,470.0224,10190.085632,34873.11560947199,34873.11560947199,1077675984.0,110.0,2000.0000000000198,0.0,0.0,0.0,2.0816681711721685e-15,0.1820397712720238,-0.2459999999999993,0.0,0.0,0.0,0.0,0.0,0.0,0.0,0.0,0.0,0.0,0.0,0.0,0.0,0.0,0.0,0.0,0.0,0.0,0.0,0.0,0.0,0.0,0.0,0.0,0.0,0.0,0.0,0.0
1,1,0.009685444970737,2.0,2.0,2.0,2.0,-0.2459999999999993,-0.2459999999999993,-0.2469999999999993,-0.2469999999999993,38.0,0.0,293.0,198.0,0.0,0.0,0.0,0.0,-27.48480465215744,37.27799952030182,2.0816681711721685e-15,2.0816681711721685e-15,2.0816681711721685e-15,2.0816681711721685e-15,3.4688218894384537,25.0,2.0,2.0,2.0,2.0,110.0,111.0,111.0,111.0,32848.0,32768.0,32848.0,32768.0,33010.0,32768.0,32768.0,32768.0,0.02255,0.2,0.75,0.2,110.0,21.68,32848.0,32768.0,1076363264.0,21.68,470.0224,10190.085632,34873.11560947199,34873.11560947199,1077675984.0,110.0,-2000.0,0.0,-20.0,-4000.00000000002,2.0816681711721685e-15,0.2,-0.2459999999999993,0.0,0.0910499999999991,0.0910499999999991,0.0,1.0,0.0,0.0,0.009999999999999901,0.0910499999999991,0.009999999999999901,0.0910499999999991,0.0,0.0,0.0,-20.0,0.0,1095000.000000011,0.009685444970737,0.0,32768.0,0.0,0.0,0.0,8819.977862816706,-0.24149480048956784,335.56404728579383,335.32255248530424,10763632.639999894
2,2,0.019685444970737,2.0,2.0,2.0,2.0,-0.2459999999999993,-0.2459999999999993,-0.2469999999999993,-0.2469999999999993,358.6829326228392,591.5703788135605,293.0,198.0,0.0,0.0,0.0,0.0,-27.46799886226654,37.27799952030182,2.0816681711721685e-15,2.0816681711721685e-15,2.0816681711721685e-15,2.0816681711721685e-15,3.4800000518560408,25.0,2.0,2.0,2.0,2.0,110.0,111.0,111.0,111.0,32827.0,32768.0,32869.0,32768.0,32990.0,32768.0,32788.0,32768.0,0.02255,0.2,0.75,0.2,110.0,21.68,32827.0,32788.0,1076331676.0,21.68,470.0224,10190.085632,34873.11560947199,34873.11560947199,1076363264.0,110.0,8200.000000000002,0.0,-21.0,10200.000000000002,2.0816681711721685e-15,0.2,-0.2459999999999993,0.0,0.09105,0.1820999999999991,0.0,1.0,0.0,0.0,0.0199999999999999,0.1820999999999991,0.0199999999999999,0.1820999999999991,0.0,0.0,0.0,-21.0,-358919100.0,-1095000.0,0.009685444970737,0.0,32768.0,0.0,0.0,0.0,8824.176545044216,-0.24149266669801045,671.1083989957937,670.8669063290956,21526633.51999989
3,3,0.029685444970737,2.0,2.0,2.0,2.0,-0.2459999999999993,-0.2459999999999993,-0.2469999999999993,-0.2469999999999993,41974.06813366633,41939.9349763344,39776.84419368241,40430.83607597123,0.0,0.0,0.0,0.0,-27.46799886226654,37.27799952030182,2.0816681711721685e-15,2.0816681711721685e-15,2.0816681711721685e-15,2.0816681711721685e-15,3.4800000518560408,25.0,2.0,2.0,2.0,2.0,110.0,111.0,111.0,111.0,32868.0,32768.0,32827.0,32768.0,32950.0,32768.0,32706.0,32768.0,0.02255,0.2,0.75,0.2,110.0,21.68,32868.0,32706.0,1074980808.0,21.68,470.0224,10190.085632,34873.11560947199,34873.11560947199,1076331676.0,110.0,-10300.000000000002,0.0,41.0,-18500.000000000004,2.0816681711721685e-15,0.2,-0.2459999999999993,0.0,0.09096388888888889,0.273063888888888,1.0,0.0,0.009999999999999998,0.0909638888888889,0.0,0.0,0.0299999999999999,0.273063888888888,0.0,0.0,0.0,41.0,1111257465.0,4489500.000000001,0.009685444970737,0.0,32768.0,0.0,0.0,0.0,8806.958362928903,-0.24150141713087236,1005.3991698299966,1005.1576684128657,32249424.23999989
4,4,0.039685444970737,2.0,2.0,2.0,2.0,-0.2459999999999993,-0.2459999999999993,-0.2469999999999993,-0.2469999999999993,43224.32483182178,43519.046722845145,41129.22012211673,41976.06515175324,0.0,0.0,0.0,0.0,-27.46799886226654,37.27799952030182,2.0816681711721685e-15,2.0816681711721685e-15,2.0816681711721685e-15,2.0816681711721685e-15,3.4800000518560408,25.0,2.0,2.0,2.0,2.0,110.0,110.0,111.0,111.0,32868.0,32768.0,32848.0,32768.0,32990.0,32768.0,32809.0,32768.0,0.02255,0.2,0.75,0.2,110.0,21.68,32868.0,32809.0,1078366212.0,21.68,470.0224,10190.085632,34873.11560947199,34873.11560947199,1074980808.0,110.0,2099.9999999999995,0.0,0.0,12400.000000000002,2.0816681711721685e-15,0.2,-0.2459999999999993,0.0,0.09099305555555555,0.36405694444444353,1.0,0.0,0.019999999999999997,0.18195694444444444,0.0,0.0,0.0399999999999999,0.36405694444444353,0.0,0.0,0.0,0.0,-736019853.75,-5639250.000000001,0.009685444970737,0.0,32768.0,0.0,0.0,0.0,8828.584555024665,-0.24149042653612646,1344.7539233556486,1344.5124329291125,43134648.479999885
5,5,0.049685444970737,2.0,2.0,2.0,2.0,-0.2459999999999993,-0.2459999999999993,-0.2469999999999993,-0.2469999999999993,43861.51651775671,43841.22339793623,41896.98263630312,42607.586239640965,0.0,0.0,0.0,0.0,-27.46799886226654,37.27799952030182,2.0816681711721685e-15,2.0816681711721685e-15,2.0816681711721685e-15,2.0816681711721685e-15,3.4800000518560408,25.0,2.0,2.0,2.0,2.0,110.0,110.0,111.0,111.0,32889.0,32768.0,32827.0,32768.0,32969.0,32768.0,32788.0,32768.0,0.02255,0.2,0.75,0.2,110.0,21.68,32889.0,32788.0,1078364532.0,21.68,470.0224,10190.085632,34873.11560947199,34873.11560947199,1078366212.0,110.0,-2099.9999999999995,0.0,21.0,-4199.999999999999,2.0816681711721685e-15,0.2,-0.2459999999999993,0.0,0.09110694444444446,0.455163888888888,1.0,0.0,0.03,0.2730638888888889,0.0,0.0,0.0499999999999999,0.455163888888888,0.0,0.0,0.0,21.0,-358919100.0,1149749.9999999998,0.009685444970737,0.0,32768.0,0.0,0.0,0.0,8824.176545044216,-0.24149266669801045,1680.939785433692,1680.698292766994,53918226.59999989
6,6,0.059685444970737,2.0,2.0,2.0,2.0,-0.2459999999999993,-0.2459999999999993,-0.2469999999999993,-0.2469999999999993,44352.13844337312,44493.842950811,42371.17048473528,43092.14912382717,0.0,0.0,0.0,0.0,-27.46799886226654,37.27799952030182,2.0816681711721685e-15,2.0816681711721685e-15,2.0816681711721685e-15,2.0816681711721685e-15,3.4800000518560408,25.0,2.0,2.0,2.0,2.0,110.0,110.0,111.0,111.0,32868.0,32768.0,32848.0,32768.0,32990.0,32768.0,32809.0,32768.0,0.02255,0.2,0.75,0.2,110.0,21.68,32868.0,32809.0,1078366212.0,21.68,470.0224,10190.085632,34873.11560947199,34873.11560947199,1078364532.0,110.0,2099.9999999999995,0.0,-21.0,4199.999999999999,2.0816681711721685e-15,0.2,-0.2459999999999993,0.0,0.09110694444444446,0.5462708333333325,0.0,1.0,0.0,0.0,0.010000000000000002,0.0911069444444445,0.0599999999999999,0.5462708333333325,0.0,0.0,0.0,-21.0,-736019853.75,-1149749.9999999998,0.009685444970737,0.0,32768.0,0.0,0.0,0.0,8828.584555024665,-0.24149042653612646,2017.1308850334747,2016.8893946069386,64701972.719999894
7,7,0.069685444970737,2.0,2.0,2.0,2.0,-0.2459999999999993,-0.2459999999999993,-0.2469999999999993,-0.2469999999999993,44991.06501510828,45300.50754236496,42987.27697885442,43883.6457795907,0.0,0.0,0.0,0.0,-27.46799886226654,37.27799952030182,2.0816681711721685e-15,2.0816681711721685e-15,2.0816681711721685e-15,2.0816681711721685e-15,3.4800000518560408,25.0,2.0,2.0,2.0,2.0,110.0,110.0,111.0,111.0,32827.0,32768.0,32827.0,32768.0,32948.0,32768.0,32788.0,32768.0,0.02255,0.2,0.75,0.2,110.0,21.68,32827.0,32788.0,1076331676.0,21.68,470.0224,10190.085632,34873.11560947199,34873.11560947199,1078366212.0,110.0,2000.000000000001,0.0,-41.0,-99.99999999999864,2.0816681711721685e-15,0.2,-0.2459999999999993,0.0,0.09110694444444446,0.6373777777777769,0.0,1.0,0.0,0.0,0.020000000000000004,0.18221388888888895,0.0699999999999999,0.6373777777777769,0.0,0.0,0.0,-41.0,-358919100.0,1149749.9999999998,0.009685444970737,0.0,32768.0,0.0,0.0,0.0,8824.176545044216,-0.24149266669801045,2348.879396485286,2348.6379038185883,75343217.31999989
8,8,0.079685444970737,2.0,2.0,2.0,2.0,-0.2459999999999993,-0.2459999999999993,-0.2469999999999993,-0.2469999999999993,45797.66950374851,46115.62320911606,43918.83620036428,44682.72902541881,0.0,0.0,0.0,0.0,-27.46799886226654,37.27799952030182,2.0816681711721685e-15,2.0816681711721685e-15,2.0816681711721685e-15,2.0816681711721685e-15,3.4800000518560408,25.0,2.0,2.0,2.0,2.0,110.0,110.0,111.0,111.0,32827.0,32768.0,32788.0,32768.0,32969.0,32768.0,32768.0,32768.0,0.02255,0.2,0.75,0.2,110.0,21.68,32827.0,32768.0,1075675136.0,21.68,470.0224,10190.085632,34873.11560947199,34873.11560947199,1076331676.0,110.0,10100.000000000005,0.0,0.0,8100.000000000005,2.0816681711721685e-15,0.2,-0.2459999999999993,0.0,0.09104999999999995,0.7284277777777769,1.0,0.0,0.009999999999999995,0.09104999999999996,0.0,0.0,0.07999999999999989,0.7284277777777769,0.0,0.0,0.0,0.0,0.0,1095000.0000000005,0.009685444970737,0.0,32768.0,0.0,0.0,0.0,8819.977862816706,-0.24149480048956784,2682.796147162895,2682.5546523624057,86054010.87999988
9,9,0.089685444970737,2.0,2.0,2.0,2.0,-0.2459999999999993,-0.2459999999999993,-0.2469999999999993,-0.2469999999999993,39415.34008556187,39675.8650196237,37924.80130593812,38525.28560225089,0.0,0.0,0.0,0.0,-27.46799886226654,37.27799952030182,2.0816681711721685e-15,2.0816681711721685e-15,2.0816681711721685e-15,2.0816681711721685e-15,3.4800000518560408,25.0,2.0,2.0,2.0,2.0,110.0,110.0,111.0,111.0,32827.0,32768.0,32807.0,32768.0,32908.0,32768.0,32667.0,32768.0,0.02255,0.2,0.75,0.2,110.0,21.68,32827.0,32667.0,1072359609.0,21.68,470.0224,10190.085632,34873.11560947199,34873.11560947199,1075675136.0,110.0,-5899.9999999999945,0.0,0.0,-16000.0,2.0816681711721685e-15,0.2,-0.2459999999999993,0.0,0.09088194444444439,0.8193097222222213,1.0,0.0,0.01999999999999999,0.18193194444444438,0.0,0.0,0.08999999999999989,0.8193097222222213,0.0,0.0,0.0,0.0,1809195956.25,5529750.000000003,0.009685444970737,0.0,32768.0,0.0,0.0,0.0,8798.765895750863,-0.24150558067624456,3008.8429094479857,3008.6014038673093,96512364.80999988
10,10,0.099685444970737,2.0,2.0,2.0,2.0,-0.2459999999999993,-0.2459999999999993,-0.2469999999999993,-0.2469999999999993,28790.78263501047,29278.30156087625,27687.28615197201,28329.00804634855,0.0,0.0,0.0,0.0,-27.46799886226654,37.27799952030182,2.0816681711721685e-15,2.0816681711721685e-15,2.0816681711721685e-15,2.0816681711721685e-15,3.4800000518560408,25.0,2.0,2.0,2.0,2.0,110.0,110.0,111.0,111.0,32848.0,32768.0,32827.0,32768.0,32950.0,32768.0,32726.0,32768.0,0.02255,0.2,0.75,0.2,110.0,21.68,32848.0,32726.0,1074983648.0,21.68,470.0224,10190.085632,34873.11560947199,34873.11560947199,1072359609.0,110.0,-4200.000000000002,0.0,21.0,1699.9999999999927,2.0816681711721685e-15,0.2,-0.2459999999999993,0.0,0.0908236111111112,0.9101333333333326,1.0,0.0,0.03,0.27275555555555564,0.0,0.0,0.0999999999999999,0.9101333333333326,0.0,0.0,0.0,21.0,753017265.0,-3230249.999999997,0.009685444970737,0.0,32768.0,0.0,0.0,0.0,8811.15879438455,-0.24149928241835827,3351.3394200057937,3351.0979207233754,107498364.7999999
11,11,0.109685444970737,2.0,2.0,2.0,2.0,-0.2459999999999993,-0.2459999999999993,-0.2469999999999993,-0.2469999999999993,18789.85854219196,19029.36219452284,18205.74340588893,18752.318507975648,0.0,0.0,0.0,0.0,-27.46799886226654,37.27799952030182,2.0816681711721685e-15,2.0816681711721685e-15,2.0816681711721685e-15,2.0816681711721685e-15,3.4800000518560408,25.0,2.0,2.0,2.0,2.0,110.0,110.0,111.0,111.0,32827.0,32768.0,32827.0,32768.0,32990.0,32768.0,32768.0,32768.0,0.02255,0.2,0.75,0.2,110.0,21.68,32827.0,32768.0,1075675136.0,21.68,470.0224,10190.085632,34873.11560947199,34873.11560947199,1074983648.0,110.0,0.0,0.0,-21.0,4200.000000000002,2.0816681711721685e-15,0.2,-0.2459999999999993,0.0,0.09096388888888884,1.0010972222222214,0.0,1.0,0.0,0.0,0.009999999999999995,0.09096388888888884,0.10999999999999989,1.0010972222222214,0.0,0.0,0.0,-21.0,0.0,-2299500.000000001,0.009685444970737,0.0,32768.0,0.0,0.0,0.0,8819.977862816706,-0.24149480048956784,3688.844702348982,3688.6032075484927,118324264.95999987
12,12,0.119685444970737,2.0,2.0,2.0,2.0,-0.2459999999999993,-0.2459999999999993,-0.2469999999999993,-0.2469999999999993,1343.7699237185552,773.5494943838603,1551.0096255047974,852.2102992365326,0.0,0.0,0.0,0.0,-27.46799886226654,37.27799952030182,2.0816681711721685e-15,2.0816681711721685e-15,2.0816681711721685e-15,2.0816681711721685e-15,3.4800000518560408,25.0,2.0,2.0,2.0,2.0,110.0,110.0,111.0,111.0,32827.0,32768.0,32827.0,32768.0,32929.0,32768.0,32768.0,32768.0,0.02255,0.2,0.75,0.2,110.0,21.68,32827.0,32768.0,1075675136.0,21.68,470.0224,10190.085632,34873.11560947199,34873.11560947199,1075675136.0,110.0,2100.000000000001,0.0,0.0,2100.000000000001,2.0816681711721685e-15,0.2,-0.2459999999999993,0.0,0.09102222222222231,1.0921194444444438,1.0,0.0,0.010000000000000009,0.09102222222222234,0.0,0.0,0.1199999999999999,1.0921194444444438,0.0,0.0,0.0,0.0,0.0,0.0,0.009685444970737,0.0,32768.0,0.0,0.0,0.0,8819.977862816706,-0.24149480048956784,4024.194220744345,4023.9527259438555,129081016.31999989
13,13,0.129685444970737,2.0,2.0,2.0,2.0,-0.2459999999999993,-0.2459999999999993,-0.2469999999999993,-0.2469999999999993,38.0,0.0,293.0,198.0,0.0,0.0,0.0,0.0,-27.46799886226654,37.27799952030182,2.0816681711721685e-15,2.0816681711721685e-15,2.0816681711721685e-15,2.0816681711721685e-15,3.4800000518560408,25.0,2.0,2.0,2.0,2.0,110.0,110.0,111.0,111.0,32827.0,32768.0,32827.0,32768.0,32969.0,32768.0,32747.0,32768.0,0.02255,0.2,0.75,0.2,110.0,21.68,32827.0,32747.0,1074985769.0,21.68,470.0224,10190.085632,34873.11560947199,34873.11560947199,1075675136.0,110.0,-2099.9999999999804,0.0,0.0,-4199.999999999982,2.0816681711721685e-15,0.2,-0.2459999999999993,0.0,0.09099305555555551,1.1831124999999993,1.0,0.0,0.020000000000000004,0.18201527777777793,0.0,0.0,0.1299999999999999,1.1831124999999993,0.0,0.0,0.0,0.0,376629356.25,1149750.0000000005,0.009685444970737,0.0,32768.0,0.0,0.0,0.0,8815.568639652778,-0.24149704129019622,4356.7498420900865,4356.508345048796,139748149.96999988
14,14,0.1396854449707371,2.0,2.0,2.0,2.0,-0.2459999999999993,-0.2459999999999993,-0.2469999999999993,-0.2469999999999993,38.0,0.0,293.0,198.0,0.0,0.0,0.0,0.0,-27.46799886226654,37.27799952030182,2.0816681711721685e-15,2.0816681711721685e-15,2.0816681711721685e-15,2.0816681711721685e-15,3.4800000518560408,25.0,2.0,2.0,2.0,2.0,110.0,110.0,111.0,111.0,32827.0,32768.0,32807.0,32768.0,32950.0,32768.0,32768.0,32768.0,0.02255,0.2,0.75,0.2,110.0,21.68,32827.0,32768.0,1075675136.0,21.68,470.0224,10190.085632,34873.11560947199,34873.11560947199,1074985769.0,110.0,-4100.000000000042,0.0,0.0,-2000.0000000000614,2.0816681711721685e-15,0.2,-0.2459999999999993,0.0,0.0909930555555564,1.2741055555555558,1.0,0.0,0.030000000000000096,0.2730083333333344,0.0,0.0,0.13999999999999999,1.2741055555555558,0.0,0.0,0.0,0.0,0.0,-1149749.9999999893,0.009685444970737,0.0,32768.0,0.0,0.0,0.0,8819.977862816706,-0.24149480048956784,4694.893257535072,4694.651762734582,150594519.04
15,15,0.149685444970737,2.0,2.0,2.0,2.0,-0.2459999999999993,-0.2459999999999993,-0.2469999999999993,-0.2469999999999993,38.0,0.0,293.0,198.0,0.0,0.0,0.0,0.0,-27.46799886226654,37.27799952030182,2.0816681711721685e-15,2.0816681711721685e-15,2.0816681711721685e-15,2.0816681711721685e-15,3.4800000518560408,25.0,2.0,2.0,2.0,2.0,110.0,110.0,111.0,111.0,32827.0,32768.0,32827.0,32768.0,32950.0,32768.0,32809.0,32768.0,0.02255,0.2,0.75,0.2,110.0,21.68,32827.0,32809.0,1077021043.0,21.68,470.0224,10190.085632,34873.11560947199,34873.11560947199,1075675136.0,110.0,4099.999999999996,0.0,0.0,8200.000000000038,2.0816681711721685e-15,0.2,-0.2459999999999993,0.0,0.09107916666666574,1.3651847222222215,1.0,0.0,0.039999999999999994,0.3640875000000001,0.0,0.0,0.14999999999999988,1.3651847222222215,0.0,0.0,0.0,0.0,-736019853.75,-2244750.000000023,0.009685444970737,0.0,32768.0,0.0,0.0,0.0,8828.584555024665,-0.24149042653612646,5036.536719833421,5036.295229406885,161553156.44999987
16,16,0.159685444970737,2.0,2.0,2.0,2.0,-0.2459999999999993,-0.2459999999999993,-0.2469999999999993,-0.2469999999999993,38.0,0.0,293.0,198.0,0.0,0.0,0.0,0.0,-27.46799886226654,37.27799952030182,2.0816681711721685e-15,2.0816681711721685e-15,2.0816681711721685e-15,2.0816681711721685e-15,3.4800000518560408,25.0,2.0,2.0,2.0,2.0,110.0,110.0,111.0,111.0,32848.0,32768.0,32848.0,32768.0,32950.0,32768.0,32768.0,32768.0,0.02255,0.2,0.75,0.2,110.0,21.68,32848.0,32768.0,1076363264.0,21.68,470.0224,10190.085632,34873.11560947199,34873.11560947199,1077021043.0,110.0,0.0,0.0,21.0,-4099.999999999996,2.0816681711721685e-15,0.2,-0.2459999999999993,0.0,0.09107916666666675,1.4562638888888884,1.0,0.0,0.05,0.45516666666666694,0.0,0.0,0.1599999999999999,1.4562638888888884,0.0,0.0,0.0,21.0,0.0,2244749.999999998,0.009685444970737,0.0,32768.0,0.0,0.0,0.0,8819.977862816706,-0.24149480048956784,5369.0247565727495,5368.78326177226,172218122.2399999
17,17,0.1696854449707371,2.0,2.0,2.0,2.0,-0.2459999999999993,-0.2459999999999993,-0.2469999999999993,-0.2469999999999993,38.0,0.0,293.0,198.0,0.0,0.0,0.0,0.0,-27.46799886226654,37.27799952030182,2.0816681711721685e-15,2.0816681711721685e-15,2.0816681711721685e-15,2.0816681711721685e-15,3.4800000518560408,25.0,2.0,2.0,2.0,2.0,110.0,110.0,111.0,111.0,32848.0,32768.0,32827.0,32768.0,32969.0,32768.0,32768.0,32768.0,0.02255,0.2,0.75,0.2,110.0,21.68,32848.0,32768.0,1076363264.0,21.68,470.0224,10190.085632,34873.11560947199,34873.11560947199,1076363264.0,110.0,0.0,0.0,0.0,0.0,2.0816681711721685e-15,0.2,-0.2459999999999993,0.0,0.09102222222222306,1.5472861111111114,1.0,0.0,0.060000000000000095,0.54618888888889,0.0,0.0,0.16999999999999998,1.5472861111111114,0.0,0.0,0.0,0.0,0.0,0.0,0.009685444970737,0.0,32768.0,0.0,0.0,0.0,8819.977862816706,-0.24149480048956784,5704.588803858551,5704.347309058061,182981754.88
18,18,0.179685444970737,2.0,2.0,2.0,2.0,-0.2459999999999993,-0.2459999999999993,-0.2469999999999993,-0.2469999999999993,38.0,0.0,293.0,198.0,0.0,0.0,0.0,0.0,-27.46799886226654,37.27799952030182,2.0816681711721685e-15,2.0816681711721685e-15,2.0816681711721685e-15,2.0816681711721685e-15,3.4800000518560408,25.0,2.0,2.0,2.0,2.0,110.0,110.0,111.0,111.0,32827.0,32768.0,32827.0,32768.0,32929.0,32768.0,32768.0,32768.0,0.02255,0.2,0.75,0.2,110.0,21.68,32827.0,32768.0,1075675136.0,21.68,470.0224,10190.085632,34873.11560947199,34873.11560947199,1076363264.0,110.0,2099.999999999998,0.0,-21.0,2099.999999999998,2.0816681711721685e-15,0.2,-0.2459999999999993,0.0,0.0910222222222213,1.6383083333333326,0.0,1.0,0.0,0.0,0.009999999999999898,0.09102222222222123,0.17999999999999988,1.6383083333333326,0.0,0.0,0.0,-21.0,0.0,0.0,0.009685444970737,0.0,32768.0,0.0,0.0,0.0,8819.977862816706,-0.24149480048956784,6036.291331116518,6036.049836316029,193621524.47999987
19,19,0.189685444970737,2.0,2.0,2.0,2.0,-0.2459999999999993,-0.2459999999999993,-0.2469999999999993,-0.2469999999999993,38.0,0.0,293.0,198.0,0.0,0.0,0.0,0.0,-27.46799886226654,37.27799952030182,2.0816681711721685e-15,2.0816681711721685e-15,2.0816681711721685e-15,2.0816681711721685e-15,3.4800000518560408,25.0,2.0,2.0,2.0,2.0,110.0,110.0,111.0,111.0,32847.0,32768.0,32827.0,32768.0,32989.0,32768.0,32747.0,32768.0,0.02255,0.2,0.75,0.2,110.0,21.68,32847.0,32747.0,1075640709.0,21.68,470.0224,10190.085632,34873.11560947199,34873.11560947199,1075675136.0,110.0,-6199.999999999943,0.0,20.0,-8299.999999999942,2.0816681711721685e-15,0.2,-0.2459999999999993,0.0,0.09099305555555565,1.7293013888888882,1.0,0.0,0.010000000000000009,0.09099305555555559,0.0,0.0,0.1899999999999999,1.7293013888888882,0.0,0.0,0.0,20.0,376629356.25,1149749.999999999,0.009685444970737,0.0,32768.0,0.0,0.0,0.0,8815.568639652778,-0.24149704129019622,6371.436925044181,6371.195428002891,204371734.7099999
20,20,0.1996854449707371,2.0,2.0,2.0,2.0,-0.2459999999999993,-0.2459999999999993,-0.2469999999999993,-0.2469999999999993,38.0,0.0,293.0,198.0,0.0,0.0,0.0,0.0,-27.46799886226654,37.27799952030182,2.0816681711721685e-15,2.0816681711721685e-15,2.0816681711721685e-15,2.0816681711721685e-15,3.4800000518560408,25.0,2.0,2.0,2.0,2.0,110.0,110.0,111.0,111.0,32848.0,32768.0,32827.0,32768.0,32929.0,32768.0,32809.0,32768.0,0.02255,0.2,0.75,0.2,110.0,21.68,32848.0,32809.0,1077710032.0,21.68,470.0224,10190.085632,34873.11560947199,34873.11560947199,1075640709.0,110.0,4100.000000000042,0.0,1.0,10299.999999999985,2.0816681711721685e-15,0.2,-0.2459999999999993,0.0,0.09105000000000084,1.820351388888889,1.0,0.0,0.0200000000000001,0.18204305555555633,0.0,0.0,0.19999999999999998,1.820351388888889,0.0,0.0,0.0,1.0,-736019853.75,-3394499.999999969,0.009685444970737,0.0,32768.0,0.0,0.0,0.0,8828.584555024665,-0.24149042653612646,6719.67823937971,6719.436748953174,215542006.39999998
21,21,0.209685444970737,2.0,2.0,2.0,2.0,-0.2459999999999993,-0.2459999999999993,-0.2469999999999993,-0.2469999999999993,38.0,0.0,293.0,198.0,0.0,0.0,0.0,0.0,-27.46799886226654,37.27799952030182,2.0816681711721685e-15,2.0816681711721685e-15,2.0816681711721685e-15,2.0816681711721685e-15,3.4800000518560408,25.0,2.0,2.0,2.0,2.0,110.0,110.0,111.0,111.0,32848.0,32768.0,32827.0,32768.0,32950.0,32768.0,32768.0,32768.0,0.02255,0.2,0.75,0.2,110.0,21.68,32848.0,32768.0,1076363264.0,21.68,470.0224,10190.085632,34873.11560947199,34873.11560947199,1077710032.0,110.0,0.0,0.0,0.0,-4100.000000000042,2.0816681711721685e-15,0.2,-0.2459999999999993,0.0,0.09107916666666574,1.9114305555555546,1.0,0.0,0.03,0.27312222222222204,0.0,0.0,0.20999999999999988,1.9114305555555546,0.0,0.0,0.0,0.0,0.0,2244750.000000023,0.009685444970737,0.0,32768.0,0.0,0.0,0.0,8819.977862816706,-0.24149480048956784,7046.844993001736,7046.603498201246,226036285.43999988
22,22,0.219685444970737,2.0,2.0,2.0,2.0,-0.2459999999999993,-0.2459999999999993,-0.2469999999999993,-0.2469999999999993,38.0,0.0,293.0,198.0,0.0,0.0,0.0,0.0,-27.46799886226654,37.27799952030182,2.0816681711721685e-15,2.0816681711721685e-15,2.0816681711721685e-15,2.0816681711721685e-15,3.4800000518560408,25.0,2.0,2.0,2.0,2.0,110.0,110.0,111.0,111.0,32827.0,32768.0,32827.0,32768.0,32950.0,32768.0,32768.0,32768.0,0.02255,0.2,0.75,0.2,110.0,21.68,32827.0,32768.0,1075675136.0,21.68,470.0224,10190.085632,34873.11560947199,34873.11560947199,1076363264.0,110.0,2099.9999999999804,0.0,-21.0,2099.9999999999804,2.0816681711721685e-15,0.2,-0.2459999999999993,0.0,0.09102222222222231,2.0024527777777767,0.0,1.0,0.0,0.0,0.010000000000000009,0.09102222222222212,0.2199999999999999,2.0024527777777767,0.0,0.0,0.0,-21.0,0.0,0.0,0.009685444970737,0.0,32768.0,0.0,0.0,0.0,8819.977862816706,-0.24149480048956784,7377.689404697969,7377.447909897479,236648529.91999987
23,23,0.2296854449707371,2.0,2.0,2.0,2.0,-0.2459999999999993,-0.2459999999999993,-0.2469999999999993,-0.2469999999999993,38.0,0.0,293.0,198.0,0.0,0.0,0.0,0.0,-27.46799886226654,37.27799952030182,2.0816681711721685e-15,2.0816681711721685e-15,2.0816681711721685e-15,2.0816681711721685e-15,3.4800000518560408,25.0,2.0,2.0,2.0,2.0,110.0,110.0,111.0,111.0,32889.0,32768.0,32827.0,32768.0,32950.0,32768.0,32747.0,32768.0,0.02255,0.2,0.75,0.2,110.0,21.68,32889.0,32747.0,1077016083.0,21.68,470.0224,10190.085632,34873.11560947199,34873.11560947199,1075675136.0,110.0,2100.0000000000214,0.0,62.0,4.092726157978177e-11,2.0816681711721685e-15,0.2,-0.2459999999999993,0.0,0.0909930555555564,2.093445833333333,1.0,0.0,0.010000000000000092,0.09099305555555626,0.0,0.0,0.22999999999999998,2.093445833333333,0.0,0.0,0.0,62.0,376629356.25,1149749.9999999893,0.009685444970737,0.0,32768.0,0.0,0.0,0.0,8815.568639652778,-0.24149704129019622,7722.654071811249,7722.412574769959,247713699.08999997
24,24,0.239685444970737,2.0,2.0,2.0,2.0,-0.2459999999999993,-0.2459999999999993,-0.2469999999999993,-0.2469999999999993,38.0,0.0,293.0,198.0,0.0,0.0,0.0,0.0,-27.46799886226654,37.27799952030182,2.0816681711721685e-15,2.0816681711721685e-15,2.0816681711721685e-15,2.0816681711721685e-15,3.4800000518560408,25.0,2.0,2.0,2.0,2.0,110.0,110.0,111.0,111.0,32788.0,32768.0,32827.0,32768.0,32929.0,32768.0,32726.0,32768.0,0.02255,0.2,0.75,0.2,110.0,21.68,32788.0,32726.0,1073020088.0,21.68,470.0224,10190.085632,34873.11560947199,34873.11560947199,1077016083.0,110.0,-4199.999999999996,0.0,-101.0,-6300.000000000018,2.0816681711721685e-15,0.2,-0.2459999999999993,0.0,0.09093472222222129,2.1843805555555544,0.0,1.0,0.0,0.0,0.009999999999999898,0.09093472222222143,0.23999999999999988,2.1843805555555544,0.0,0.0,0.0,-101.0,753017265.0,1149750.0000000116,0.009685444970737,0.0,32768.0,0.0,0.0,0.0,8811.15879438455,-0.24149928241835827,8028.522910605214,8028.281411322795,257524821.1199999
25,25,0.249685444970737,2.0,2.0,2.0,2.0,-0.2459999999999993,-0.2459999999999993,-0.2469999999999993,-0.2469999999999993,38.0,0.0,293.0,198.0,0.0,0.0,0.0,0.0,-27.46799886226654,37.27799952030182,2.0816681711721685e-15,2.0816681711721685e-15,2.0816681711721685e-15,2.0816681711721685e-15,3.4800000518560408,25.0,2.0,2.0,2.0,2.0,110.0,110.0,111.0,111.0,32827.0,32768.0,32827.0,32768.0,32950.0,32768.0,32768.0,32768.0,0.02255,0.2,0.75,0.2,110.0,21.68,32827.0,32768.0,1075675136.0,21.68,470.0224,10190.085632,34873.11560947199,34873.11560947199,1073020088.0,110.0,2099.9999999999804,0.0,39.0,6299.999999999976,2.0816681711721685e-15,0.2,-0.2459999999999993,0.0,0.09096388888888898,2.2753444444444435,1.0,0.0,0.010000000000000009,0.09096388888888907,0.0,0.0,0.2499999999999999,2.2753444444444435,0.0,0.0,0.0,39.0,0.0,-2299499.999999998,0.009685444970737,0.0,32768.0,0.0,0.0,0.0,8819.977862816706,-0.24149480048956784,8383.737959884054,8383.496465083565,268918783.9999999
26,26,0.2596854449707371,2.0,2.0,2.0,2.0,-0.2459999999999993,-0.2459999999999993,-0.2469999999999993,-0.2469999999999993,38.0,0.0,293.0,198.0,0.0,0.0,0.0,0.0,-27.46799886226654,37.27799952030182,2.0816681711721685e-15,2.0816681711721685e-15,2.0816681711721685e-15,2.0816681711721685e-15,3.4800000518560408,25.0,2.0,2.0,2.0,2.0,110.0,110.0,111.0,111.0,32827.0,32768.0,32827.0,32768.0,32969.0,32768.0,32747.0,32768.0,0.02255,0.2,0.75,0.2,110.0,21.68,32827.0,32747.0,1074985769.0,21.68,470.0224,10190.085632,34873.11560947199,34873.11560947199,1075675136.0,110.0,-4099.999999999996,0.0,0.0,-6199.999999999976,2.0816681711721685e-15,0.2,-0.2459999999999993,0.0,0.0909930555555564,2.3663374999999998,1.0,0.0,0.0200000000000001,0.18195694444444532,0.0,0.0,0.26,2.3663374999999998,0.0,0.0,0.0,0.0,376629356.25,1149749.9999999893,0.009685444970737,0.0,32768.0,0.0,0.0,0.0,8815.568639652778,-0.24149704129019622,8713.49968418018,8713.25818713889,279496299.94
27,27,0.2696854449707371,2.0,2.0,2.0,2.0,-0.2459999999999993,-0.2459999999999993,-0.2469999999999993,-0.2469999999999993,38.0,0.0,293.0,198.0,0.0,0.0,0.0,0.0,-27.46799886226654,37.27799952030182,2.0816681711721685e-15,2.0816681711721685e-15,2.0816681711721685e-15,2.0816681711721685e-15,3.4800000518560408,25.0,2.0,2.0,2.0,2.0,110.0,110.0,111.0,111.0,32868.0,32768.0,32827.0,32768.0,32969.0,32768.0,32788.0,32768.0,0.02255,0.2,0.75,0.2,110.0,21.68,32868.0,32788.0,1077675984.0,21.68,470.0224,10190.085632,34873.11560947199,34873.11560947199,1074985769.0,110.0,1999.9999999999982,0.0,41.0,6099.9999999999945,2.0816681711721685e-15,0.2,-0.2459999999999993,0.0,0.09102083333333343,2.457358333333333,1.0,0.0,0.03000000000000011,0.27297777777777865,0.0,0.0,0.27,2.457358333333333,0.0,0.0,0.0,41.0,-358919100.0,-2244749.999999998,0.009685444970737,0.0,32768.0,0.0,0.0,0.0,8824.176545044216,-0.24149266669801045,9071.279025973043,9071.037533306344,290972515.68
28,28,0.2796854449707371,2.0,2.0,2.0,2.0,-0.2459999999999993,-0.2459999999999993,-0.2469999999999993,-0.2469999999999993,38.0,0.0,293.0,198.0,0.0,0.0,0.0,0.0,-27.46799886226654,37.27799952030182,2.0816681711721685e-15,2.0816681711721685e-15,2.0816681711721685e-15,2.0816681711721685e-15,3.4800000518560408,25.0,2.0,2.0,2.0,2.0,110.0,110.0,111.0,111.0,32809.0,32768.0,32827.0,32768.0,32969.0,32768.0,32768.0,32768.0,0.02255,0.2,0.75,0.2,110.0,21.68,32809.0,32768.0,1075085312.0,21.68,470.0224,10190.085632,34873.11560947199,34873.11560947199,1077675984.0,110.0,2100.0000000000214,0.0,-59.0,100.00000000002319,2.0816681711721685e-15,0.2,-0.2459999999999993,0.0,0.09105000000000009,2.548408333333333,0.0,1.0,0.0,0.0,0.010000000000000009,0.09105000000000008,0.28,2.548408333333333,0.0,0.0,0.0,-59.0,0.0,1094999.999999999,0.009685444970737,0.0,32768.0,0.0,0.0,0.0,8819.977862816706,-0.24149480048956784,9384.637821699711,9384.396326899221,301023887.36
29,29,0.289685444970737,2.0,2.0,2.0,2.0,-0.2459999999999993,-0.2459999999999993,-0.2469999999999993,-0.2469999999999993,38.0,0.0,293.0,198.0,0.0,0.0,0.0,0.0,-27.46799886226654,37.27799952030182,2.0816681711721685e-15,2.0816681711721685e-15,2.0816681711721685e-15,2.0816681711721685e-15,3.4800000518560408,25.0,2.0,2.0,2.0,2.0,110.0,110.0,111.0,111.0,32827.0,32768.0,32827.0,32768.0,32969.0,32768.0,32747.0,32768.0,0.02255,0.2,0.75,0.2,110.0,21.68,32827.0,32747.0,1074985769.0,21.68,470.0224,10190.085632,34873.11560947199,34873.11560947199,1075085312.0,110.0,0.0,0.0,18.0,-2100.0000000000214,2.0816681711721685e-15,0.2,-0.2459999999999993,0.0,0.09099305555555463,2.6394013888888876,1.0,0.0,0.009999999999999898,0.09099305555555448,0.0,0.0,0.2899999999999999,2.6394013888888876,0.0,0.0,0.0,18.0,376629356.25,1149750.0000000116,0.009685444970737,0.0,32768.0,0.0,0.0,0.0,8815.568639652778,-0.24149704129019622,9718.903493893276,9718.661996851986,311745873.00999993
30,30,0.299685444970737,2.0,2.0,2.0,2.0,-0.2459999999999993,-0.2459999999999993,-0.2469999999999993,-0.2469999999999993,38.0,0.0,293.0,198.0,0.0,0.0,0.0,0.0,-27.46799886226654,37.27799952030182,2.0816681711721685e-15,2.0816681711721685e-15,2.0816681711721685e-15,2.0816681711721685e-15,3.4800000518560408,25.0,2.0,2.0,2.0,2.0,110.0,110.0,111.0,111.0,32807.0,32768.0,32827.0,32768.0,32908.0,32768.0,32747.0,32768.0,0.02255,0.2,0.75,0.2,110.0,21.68,32807.0,32747.0,1074330829.0,21.68,470.0224,10190.085632,34873.11560947199,34873.11560947199,1074985769.0,110.0,0.0,0.0,-20.0,0.0,2.0816681711721685e-15,0.2,-0.2459999999999993,0.0,0.09096388888888898,2.7303652777777767,0.0,1.0,0.0,0.0,0.010000000000000009,0.09096388888888907,0.29999999999999993,2.7303652777777767,0.0,0.0,0.0,-20.0,376629356.25,0.0,0.009685444970737,0.0,32768.0,0.0,0.0,0.0,8815.568639652778,-0.24149704129019622,10047.912628402715,10047.671131361425,322299248.6999999
31,31,0.3096854449707371,2.0,2.0,2.0,2.0,-0.2459999999999993,-0.2459999999999993,-0.2469999999999993,-0.2469999999999993,38.0,0.0,293.0,198.0,0.0,0.0,0.0,0.0,-27.46799886226654,37.27799952030182,2.0816681711721685e-15,2.0816681711721685e-15,2.0816681711721685e-15,2.0816681711721685e-15,3.4800000518560408,25.0,2.0,2.0,2.0,2.0,110.0,110.0,111.0,111.0,32868.0,32768.0,32827.0,32768.0,32929.0,32768.0,32747.0,32768.0,0.02255,0.2,0.75,0.2,110.0,21.68,32868.0,32747.0,1076328396.0,21.68,470.0224,10190.085632,34873.11560947199,34873.11560947199,1074330829.0,110.0,0.0,0.0,61.0,0.0,2.0816681711721685e-15,0.2,-0.2459999999999993,0.0,0.09096388888888948,2.821329166666666,1.0,0.0,0.010000000000000064,0.09096388888888951,0.0,0.0,0.31,2.821329166666666,0.0,0.0,0.0,61.0,376629356.25,0.0,0.009685444970737,0.0,32768.0,0.0,0.0,0.0,8815.568639652778,-0.24149704129019622,10402.148484958045,10401.906987916755,333661802.76
32,32,0.3196854449707371,2.0,2.0,2.0,2.0,-0.2459999999999993,-0.2459999999999993,-0.2469999999999993,-0.2469999999999993,38.0,0.0,293.0,198.0,0.0,0.0,0.0,0.0,-27.46799886226654,37.27799952030182,2.0816681711721685e-15,2.0816681711721685e-15,2.0816681711721685e-15,2.0816681711721685e-15,3.4800000518560408,25.0,2.0,2.0,2.0,2.0,110.0,110.0,111.0,111.0,32827.0,32768.0,32848.0,32768.0,32909.0,32768.0,32747.0,32768.0,0.02255,0.2,0.75,0.2,110.0,21.68,32827.0,32747.0,1074985769.0,21.68,470.0224,10190.085632,34873.11560947199,34873.11560947199,1076328396.0,110.0,-4099.999999999996,0.0,-41.0,-4099.999999999996,2.0816681711721685e-15,0.2,-0.2459999999999993,0.0,0.09096388888888898,2.9122930555555553,0.0,1.0,0.0,0.0,0.010000000000000009,0.09096388888888907,0.32,2.9122930555555553,0.0,0.0,0.0,-41.0,376629356.25,0.0,0.009685444970737,0.0,32768.0,0.0,0.0,0.0,8815.568639652778,-0.24149704129019622,10724.307303606376,10724.065806565086,343995446.08
33,33,0.3296854449707371,2.0,2.0,2.0,2.0,-0.2459999999999993,-0.2459999999999993,-0.2469999999999993,-0.2469999999999993,38.0,0.0,293.0,198.0,0.0,0.0,0.0,0.0,-27.46799886226654,37.27799952030182,2.0816681711721685e-15,2.0816681711721685e-15,2.0816681711721685e-15,2.0816681711721685e-15,3.4800000518560408,25.0,2.0,2.0,2.0,2.0,110.0,110.0,111.0,111.0,32827.0,32768.0,32827.0,32768.0,32950.0,32768.0,32788.0,32768.0,0.02255,0.2,0.75,0.2,110.0,21.68,32827.0,32788.0,1076331676.0,21.68,470.0224,10190.085632,34873.11560947199,34873.11560947199,1074985769.0,110.0,1999.9999999999982,0.0,0.0,6099.9999999999945,2.0816681711721685e-15,0.2,-0.2459999999999993,0.0,0.09102083333333343,3.0033138888888886,1.0,0.0,0.010000000000000009,0.09102083333333333,0.0,0.0,0.33,3.0033138888888886,0.0,0.0,0.0,0.0,-358919100.0,-2244749.999999998,0.009685444970737,0.0,32768.0,0.0,0.0,0.0,8824.176545044216,-0.24149266669801045,11073.288583430653,11073.047090763954,355189453.08000004
34,34,0.3396854449707371,2.0,2.0,2.0,2.0,-0.2459999999999993,-0.2459999999999993,-0.2469999999999993,-0.2469999999999993,38.0,0.0,293.0,198.0,0.0,0.0,0.0,0.0,-27.46799886226654,37.27799952030182,2.0816681711721685e-15,2.0816681711721685e-15,2.0816681711721685e-15,2.0816681711721685e-15,3.4800000518560408,25.0,2.0,2.0,2.0,2.0,110.0,110.0,111.0,111.0,32807.0,32768.0,32827.0,32768.0,32969.0,32768.0,32768.0,32768.0,0.02255,0.2,0.75,0.2,110.0,21.68,32807.0,32768.0,1075019776.0,21.68,470.0224,10190.085632,34873.11560947199,34873.11560947199,1076331676.0,110.0,0.0,0.0,-20.0,-1999.9999999999982,2.0816681711721685e-15,0.2,-0.2459999999999993,0.0,0.09105000000000009,3.0943638888888887,0.0,1.0,0.0,0.0,0.010000000000000009,0.09105000000000008,0.34,3.0943638888888887,0.0,0.0,0.0,-20.0,0.0,1094999.999999999,0.009685444970737,0.0,32768.0,0.0,0.0,0.0,8819.977862816706,-0.24149480048956784,11394.936975656814,11394.695480856324,365506723.84000003
35,35,0.3496854449707371,2.0,2.0,2.0,2.0,-0.2459999999999993,-0.2459999999999993,-0.2469999999999993,-0.2469999999999993,38.0,0.0,293.0,198.0,0.0,0.0,0.0,0.0,-27.46799886226654,37.27799952030182,2.0816681711721685e-15,2.0816681711721685e-15,2.0816681711721685e-15,2.0816681711721685e-15,3.4800000518560408,25.0,2.0,2.0,2.0,2.0,110.0,110.0,111.0,111.0,32807.0,32768.0,32807.0,32768.0,32929.0,32768.0,32768.0,32768.0,0.02255,0.2,0.75,0.2,110.0,21.68,32807.0,32768.0,1075019776.0,21.68,470.0224,10190.085632,34873.11560947199,34873.11560947199,1075019776.0,110.0,0.0,0.0,0.0,0.0,2.0816681711721685e-15,0.2,-0.2459999999999993,0.0,0.09102222222222231,3.185386111111111,1.0,0.0,0.010000000000000009,0.09102222222222212,0.0,0.0,0.35000000000000003,3.185386111111111,0.0,0.0,0.0,0.0,0.0,0.0,0.009685444970737,0.0,32768.0,0.0,0.0,0.0,8819.977862816706,-0.24149480048956784,11730.082180823192,11729.840686022702,376256921.6
36,36,0.359685444970737,2.0,2.0,2.0,2.0,-0.2459999999999993,-0.2459999999999993,-0.2469999999999993,-0.2469999999999993,38.0,0.0,293.0,198.0,0.0,0.0,0.0,0.0,-27.46799886226654,37.27799952030182,2.0816681711721685e-15,2.0816681711721685e-15,2.0816681711721685e-15,2.0816681711721685e-15,3.4800000518560408,25.0,2.0,2.0,2.0,2.0,110.0,110.0,111.0,111.0,32827.0,32768.0,32827.0,32768.0,32929.0,32768.0,32768.0,32768.0,0.02255,0.2,0.75,0.2,110.0,21.68,32827.0,32768.0,1075675136.0,21.68,470.0224,10190.085632,34873.11560947199,34873.11560947199,1075019776.0,110.0,-1999.999999999987,0.0,20.0,-1999.999999999987,2.0816681711721685e-15,0.2,-0.2459999999999993,0.0,0.0910222222222213,3.276408333333332,1.0,0.0,0.019999999999999907,0.18204444444444334,0.0,0.0,0.35999999999999993,3.276408333333332,0.0,0.0,0.0,20.0,0.0,0.0,0.009685444970737,0.0,32768.0,0.0,0.0,0.0,8819.977862816706,-0.24149480048956784,12072.582662233042,12072.341167432553,387243048.9599999
37,37,0.3696854449707371,2.0,2.0,2.0,2.0,-0.2459999999999993,-0.2459999999999993,-0.2469999999999993,-0.2469999999999993,38.0,0.0,293.0,198.0,0.0,0.0,0.0,0.0,-27.46799886226654,37.27799952030182,2.0816681711721685e-15,2.0816681711721685e-15,2.0816681711721685e-15,2.0816681711721685e-15,3.4800000518560408,25.0,2.0,2.0,2.0,2.0,110.0,110.0,111.0,111.0,32827.0,32768.0,32827.0,32768.0,32950.0,32768.0,32788.0,32768.0,0.02255,0.2,0.75,0.2,110.0,21.68,32827.0,32788.0,1076331676.0,21.68,470.0224,10190.085632,34873.11560947199,34873.11560947199,1075675136.0,110.0,-5999.9999999999945,0.0,0.0,-4000.0000000000073,2.0816681711721685e-15,0.2,-0.2459999999999993,0.0,0.09105000000000059,3.3674583333333326,1.0,0.0,0.02999999999999997,0.27309444444444386,0.0,0.0,0.37,3.3674583333333326,0.0,0.0,0.0,0.0,-358919100.0,-1094999.999999993,0.009685444970737,0.0,32768.0,0.0,0.0,0.0,8824.176545044216,-0.24149266669801045,12415.505381422247,12415.263888755548,398242720.12
38,38,0.3796854449707371,2.0,2.0,2.0,2.0,-0.2459999999999993,-0.2459999999999993,-0.2469999999999993,-0.2469999999999993,38.0,0.0,293.0,198.0,0.0,0.0,0.0,0.0,-27.46799886226654,37.27799952030182,2.0816681711721685e-15,2.0816681711721685e-15,2.0816681711721685e-15,2.0816681711721685e-15,3.4800000518560408,25.0,2.0,2.0,2.0,2.0,110.0,110.0,111.0,111.0,32848.0,32768.0,32848.0,32768.0,32969.0,32768.0,32848.0,32768.0,0.02255,0.2,0.75,0.2,110.0,21.68,32848.0,32848.0,1078991104.0,21.68,470.0224,10190.085632,34873.11560947199,34873.11560947199,1076331676.0,110.0,10099.99999999999,0.0,21.0,16099.999999999985,2.0816681711721685e-15,0.2,-0.2459999999999993,0.0,0.09116111111111119,3.4586194444444436,1.0,0.0,0.03999999999999998,0.3642555555555549,0.0,0.0,0.38,3.4586194444444436,0.0,0.0,0.0,21.0,-1436990400.0,-3284999.999999997,0.009685444970737,0.0,32768.0,0.0,0.0,0.0,8836.769212964746,-0.24148626710229004,12782.565227028408,12782.323740761305,410016619.52
39,39,0.3896854449707371,2.0,2.0,2.0,2.0,-0.2459999999999993,-0.2459999999999993,-0.2469999999999993,-0.2469999999999993,38.0,0.0,293.0,198.0,0.0,0.0,0.0,0.0,-27.46799886226654,37.27799952030182,2.0816681711721685e-15,2.0816681711721685e-15,2.0816681711721685e-15,2.0816681711721685e-15,3.4800000518560408,25.0,2.0,2.0,2.0,2.0,110.0,110.0,111.0,111.0,32827.0,32768.0,32827.0,32768.0,32929.0,32768.0,32747.0,32768.0,0.02255,0.2,0.75,0.2,110.0,21.68,32827.0,32747.0,1074985769.0,21.68,470.0224,10190.085632,34873.11560947199,34873.11560947199,1078991104.0,110.0,-2099.999999999998,0.0,-21.0,-12199.999999999989,2.0816681711721685e-15,0.2,-0.2459999999999993,0.0,0.09110416666666675,3.5497236111111103,0.0,1.0,0.0,0.0,0.010000000000000009,0.09110416666666676,0.39,3.5497236111111103,0.0,0.0,0.0,-21.0,376629356.25,5529749.999999995,0.009685444970737,0.0,32768.0,0.0,0.0,0.0,8815.568639652778,-0.24149704129019622,13070.24952627027,13070.00802922898,419244449.91
40,40,0.3996854449707371,2.0,2.0,2.0,2.0,-0.2459999999999993,-0.2459999999999993,-0.2469999999999993,-0.2469999999999993,38.0,0.0,293.0,198.0,0.0,0.0,0.0,0.0,-27.46799886226654,37.27799952030182,2.0816681711721685e-15,2.0816681711721685e-15,2.0816681711721685e-15,2.0816681711721685e-15,3.4800000518560408,25.0,2.0,2.0,2.0,2.0,110.0,110.0,111.0,111.0,32848.0,32768.0,32827.0,32768.0,32969.0,32768.0,32768.0,32768.0,0.02255,0.2,0.75,0.2,110.0,21.68,32848.0,32768.0,1076363264.0,21.68,470.0224,10190.085632,34873.11560947199,34873.11560947199,1074985769.0,110.0,2099.999999999998,0.0,21.0,4199.999999999996,2.0816681711721685e-15,0.2,-0.2459999999999993,0.0,0.09099305555555565,3.640716666666666,1.0,0.0,0.010000000000000009,0.09099305555555581,0.0,0.0,0.4,3.640716666666666,0.0,0.0,0.0,21.0,0.0,-1149749.999999999,0.009685444970737,0.0,32768.0,0.0,0.0,0.0,8819.977862816706,-0.24149480048956784,13422.561891431886,13422.320396631396,430545305.6
41,41,0.4096854449707371,2.0,2.0,2.0,2.0,-0.2459999999999993,-0.2459999999999993,-0.2469999999999993,-0.2469999999999993,38.0,0.0,293.0,198.0,0.0,0.0,0.0,0.0,-27.46799886226654,37.27799952030182,2.0816681711721685e-15,2.0816681711721685e-15,2.0816681711721685e-15,2.0816681711721685e-15,3.4800000518560408,25.0,2.0,2.0,2.0,2.0,110.0,110.0,111.0,111.0,32848.0,32768.0,32827.0,32768.0,33010.0,32768.0,32747.0,32768.0,0.02255,0.2,0.75,0.2,110.0,21.68,32848.0,32747.0,1075673456.0,21.68,470.0224,10190.085632,34873.11560947199,34873.11560947199,1076363264.0,110.0,0.0,0.0,0.0,-2099.999999999998,2.0816681711721685e-15,0.2,-0.2459999999999993,0.0,0.09099305555555565,3.731709722222222,1.0,0.0,0.020000000000000018,0.18198611111111163,0.0,0.0,0.41000000000000003,3.731709722222222,0.0,0.0,0.0,0.0,376629356.25,1149749.999999999,0.009685444970737,0.0,32768.0,0.0,0.0,0.0,8815.568639652778,-0.24149704129019622,13749.308780370726,13749.067283329436,441026116.96000004
42,42,0.419685444970737,2.0,2.0,2.0,2.0,-0.2459999999999993,-0.2459999999999993,-0.2469999999999993,-0.2469999999999993,38.0,0.0,293.0,198.0,0.0,0.0,0.0,0.0,-27.46799886226654,37.27799952030182,2.0816681711721685e-15,2.0816681711721685e-15,2.0816681711721685e-15,2.0816681711721685e-15,3.4800000518560408,25.0,2.0,2.0,2.0,2.0,110.0,110.0,111.0,111.0,32848.0,32768.0,32848.0,32768.0,32969.0,32768.0,32747.0,32768.0,0.02255,0.2,0.75,0.2,110.0,21.68,32848.0,32747.0,1075673456.0,21.68,470.0224,10190.085632,34873.11560947199,34873.11560947199,1075673456.0,110.0,0.0,0.0,0.0,0.0,2.0816681711721685e-15,0.2,-0.2459999999999993,0.0,0.09096388888888797,3.82267361111111,1.0,0.0,0.029999999999999916,0.2729499999999998,0.0,0.0,0.41999999999999993,3.82267361111111,0.0,0.0,0.0,0.0,376629356.25,0.0,0.009685444970737,0.0,32768.0,0.0,0.0,0.0,8815.568639652778,-0.24149704129019622,14084.65777501391,14084.41627797262,451782851.5199999
43,43,0.4296854449707371,2.0,2.0,2.0,2.0,-0.2459999999999993,-0.2459999999999993,-0.2469999999999993,-0.2469999999999993,38.0,0.0,293.0,198.0,0.0,0.0,0.0,0.0,-27.46799886226654,37.27799952030182,2.0816681711721685e-15,2.0816681711721685e-15,2.0816681711721685e-15,2.0816681711721685e-15,3.4800000518560408,25.0,2.0,2.0,2.0,2.0,110.0,110.0,111.0,111.0,32827.0,32768.0,32827.0,32768.0,32948.0,32768.0,32747.0,32768.0,0.02255,0.2,0.75,0.2,110.0,21.68,32827.0,32747.0,1074985769.0,21.68,470.0224,10190.085632,34873.11560947199,34873.11560947199,1075673456.0,110.0,2099.999999999998,0.0,-21.0,2099.999999999998,2.0816681711721685e-15,0.2,-0.2459999999999993,0.0,0.09096388888888948,3.9136374999999997,0.0,1.0,0.0,0.0,0.010000000000000064,0.09096388888888951,0.43,3.9136374999999997,0.0,0.0,0.0,-21.0,376629356.25,0.0,0.009685444970737,0.0,32768.0,0.0,0.0,0.0,8815.568639652778,-0.24149704129019622,14410.787939221065,14410.546442179775,462243880.67
44,44,0.4396854449707371,2.0,2.0,2.0,2.0,-0.2459999999999993,-0.2459999999999993,-0.2469999999999993,-0.2469999999999993,38.0,0.0,293.0,198.0,0.0,0.0,0.0,0.0,-27.46799886226654,37.27799952030182,2.0816681711721685e-15,2.0816681711721685e-15,2.0816681711721685e-15,2.0816681711721685e-15,3.4800000518560408,25.0,2.0,2.0,2.0,2.0,110.0,110.0,111.0,111.0,32807.0,32768.0,32827.0,32768.0,32969.0,32768.0,32726.0,32768.0,0.02255,0.2,0.75,0.2,110.0,21.68,32807.0,32726.0,1073641882.0,21.68,470.0224,10190.085632,34873.11560947199,34873.11560947199,1074985769.0,110.0,-2099.999999999998,0.0,-20.0,-4199.999999999996,2.0816681711721685e-15,0.2,-0.2459999999999993,0.0,0.0909347222222223,4.0045722222222215,0.0,1.0,0.0,0.0,0.020000000000000073,0.18189861111111139,0.44,4.0045722222222215,0.0,0.0,0.0,-20.0,753017265.0,1149749.999999999,0.009685444970737,0.0,32768.0,0.0,0.0,0.0,8811.15879438455,-0.24149928241835827,14727.48801599406,14727.246516711642,472402428.08
45,45,0.4496854449707371,2.0,2.0,2.0,2.0,-0.2459999999999993,-0.2459999999999993,-0.2469999999999993,-0.2469999999999993,38.0,0.0,293.0,198.0,0.0,0.0,0.0,0.0,-27.46799886226654,37.27799952030182,2.0816681711721685e-15,2.0816681711721685e-15,2.0816681711721685e-15,2.0816681711721685e-15,3.4800000518560408,25.0,2.0,2.0,2.0,2.0,110.0,110.0,111.0,111.0,32807.0,32768.0,32827.0,32768.0,32948.0,32768.0,32747.0,32768.0,0.02255,0.2,0.75,0.2,110.0,21.68,32807.0,32747.0,1074330829.0,21.68,470.0224,10190.085632,34873.11560947199,34873.11560947199,1073641882.0,110.0,-4099.999999999996,0.0,0.0,-1999.9999999999982,2.0816681711721685e-15,0.2,-0.2459999999999993,0.0,0.0909347222222223,4.095506944444444,1.0,0.0,0.010000000000000009,0.09093472222222232,0.0,0.0,0.45,4.095506944444444,0.0,0.0,0.0,0.0,376629356.25,-1149749.999999999,0.009685444970737,0.0,32768.0,0.0,0.0,0.0,8815.568639652778,-0.24149704129019622,15071.868942604078,15071.627445562788,483448873.05
46,46,0.4596854449707371,2.0,2.0,2.0,2.0,-0.2459999999999993,-0.2459999999999993,-0.2469999999999993,-0.2469999999999993,38.0,0.0,293.0,198.0,0.0,0.0,0.0,0.0,-27.46799886226654,37.27799952030182,2.0816681711721685e-15,2.0816681711721685e-15,2.0816681711721685e-15,2.0816681711721685e-15,3.4800000518560408,25.0,2.0,2.0,2.0,2.0,110.0,110.0,111.0,111.0,32827.0,32768.0,32827.0,32768.0,32969.0,32768.0,32788.0,32768.0,0.02255,0.2,0.75,0.2,110.0,21.68,32827.0,32788.0,1076331676.0,21.68,470.0224,10190.085632,34873.11560947199,34873.11560947199,1074330829.0,110.0,-1999.9999999999982,0.0,20.0,2099.999999999998,2.0816681711721685e-15,0.2,-0.2459999999999993,0.0,0.09102083333333343,4.186527777777777,1.0,0.0,0.020000000000000018,0.18195555555555565,0.0,0.0,0.46,4.186527777777777,0.0,0.0,0.0,20.0,-358919100.0,-2244749.999999998,0.009685444970737,0.0,32768.0,0.0,0.0,0.0,8824.176545044216,-0.24149266669801045,15435.493176903336,15435.251684236637,495112570.96000004
47,47,0.4696854449707371,2.0,2.0,2.0,2.0,-0.2459999999999993,-0.2459999999999993,-0.2469999999999993,-0.2469999999999993,38.0,0.0,293.0,198.0,0.0,0.0,0.0,0.0,-27.46799886226654,37.27799952030182,2.0816681711721685e-15,2.0816681711721685e-15,2.0816681711721685e-15,2.0816681711721685e-15,3.4800000518560408,25.0,2.0,2.0,2.0,2.0,110.0,110.0,111.0,111.0,32827.0,32768.0,32827.0,32768.0,32948.0,32768.0,32808.0,32768.0,0.02255,0.2,0.75,0.2,110.0,21.68,32827.0,32808.0,1076988216.0,21.68,470.0224,10190.085632,34873.11560947199,34873.11560947199,1076331676.0,110.0,6100.000000000063,0.0,0.0,8100.000000000061,2.0816681711721685e-15,0.2,-0.2459999999999993,0.0,0.09110555555555565,4.277633333333333,1.0,0.0,0.030000000000000027,0.27306111111111164,0.0,0.0,0.47000000000000003,4.277633333333333,0.0,0.0,0.0,0.0,-718057200.0,-1094999.999999999,0.009685444970737,0.0,32768.0,0.0,0.0,0.0,8828.374663865496,-0.24149053320308972,15780.667388220438,15780.425897687235,506184461.52000004
48,48,0.479685444970737,2.0,2.0,2.0,2.0,-0.2459999999999993,-0.2459999999999993,-0.2469999999999993,-0.2469999999999993,38.0,0.0,293.0,198.0,0.0,0.0,0.0,0.0,-27.46799886226654,37.27799952030182,2.0816681711721685e-15,2.0816681711721685e-15,2.0816681711721685e-15,2.0816681711721685e-15,3.4800000518560408,25.0,2.0,2.0,2.0,2.0,110.0,110.0,111.0,111.0,32807.0,32768.0,32827.0,32768.0,32929.0,32768.0,32747.0,32768.0,0.02255,0.2,0.75,0.2,110.0,21.68,32807.0,32747.0,1074330829.0,21.68,470.0224,10190.085632,34873.11560947199,34873.11560947199,1076988216.0,110.0,0.0,0.0,-20.0,-6100.000000000063,2.0816681711721685e-15,0.2,-0.2459999999999993,0.0,0.09104861111111019,4.368681944444443,0.0,1.0,0.0,0.0,0.009999999999999898,0.09104861111110996,0.4799999999999999,4.368681944444443,0.0,0.0,0.0,-20.0,376629356.25,3339750.0000000345,0.009685444970737,0.0,32768.0,0.0,0.0,0.0,8815.568639652778,-0.24149704129019622,16076.660205444347,16076.418708403056,515678797.9199999
49,49,0.489685444970737,2.0,2.0,2.0,2.0,-0.2459999999999993,-0.2459999999999993,-0.2469999999999993,-0.2469999999999993,38.0,0.0,293.0,198.0,0.0,0.0,0.0,0.0,-27.46799886226654,37.27799952030182,2.0816681711721685e-15,2.0816681711721685e-15,2.0816681711721685e-15,2.0816681711721685e-15,3.4800000518560408,25.0,2.0,2.0,2.0,2.0,110.0,110.0,111.0,111.0,32848.0,32768.0,32848.0,32768.0,32950.0,32768.0,32747.0,32768.0,0.02255,0.2,0.75,0.2,110.0,21.68,32848.0,32747.0,1075673456.0,21.68,470.0224,10190.085632,34873.11560947199,34873.11560947199,1074330829.0,110.0,-2099.9999999999864,0.0,41.0,-2099.9999999999864,2.0816681711721685e-15,0.2,-0.2459999999999993,0.0,0.09096388888888898,4.459645833333332,1.0,0.0,0.010000000000000009,0.09096388888888907,0.0,0.0,0.48999999999999994,4.459645833333332,0.0,0.0,0.0,41.0,376629356.25,0.0,0.009685444970737,0.0,32768.0,0.0,0.0,0.0,8815.568639652778,-0.24149704129019622,16432.10073751623,16431.85924047494,527079993.43999994
50,50,0.4996854449707371,2.0,2.0,2.0,2.0,-0.2459999999999993,-0.2459999999999993,-0.2469999999999993,-0.2469999999999993,38.0,0.0,293.0,198.0,0.0,0.0,0.0,0.0,-27.46799886226654,37.27799952030182,2.0816681711721685e-15,2.0816681711721685e-15,2.0816681711721685e-15,2.0816681711721685e-15,3.4800000518560408,25.0,2.0,2.0,2.0,2.0,110.0,110.0,111.0,111.0,32848.0,32768.0,32827.0,32768.0,32929.0,32768.0,32768.0,32768.0,0.02255,0.2,0.75,0.2,110.0,21.68,32848.0,32768.0,1076363264.0,21.68,470.0224,10190.085632,34873.11560947199,34873.11560947199,1075673456.0,110.0,2099.999999999998,0.0,0.0,4199.9999999999845,2.0816681711721685e-15,0.2,-0.2459999999999993,0.0,0.09099305555555615,4.550638888888888,1.0,0.0,0.020000000000000073,0.18195694444444488,0.0,0.0,0.5,4.550638888888888,0.0,0.0,0.0,0.0,0.0,-1149749.9999999925,0.009685444970737,0.0,32768.0,0.0,0.0,0.0,8819.977862816706,-0.24149480048956784,16778.202364289857,16777.96086948937,538181632.0
51,51,0.5096854449707371,2.0,2.0,2.0,2.0,-0.2459999999999993,-0.2459999999999993,-0.2469999999999993,-0.2469999999999993,38.0,0.0,293.0,198.0,0.0,0.0,0.0,0.0,-27.46799886226654,37.27799952030182,2.0816681711721685e-15,2.0816681711721685e-15,2.0816681711721685e-15,2.0816681711721685e-15,3.4800000518560408,25.0,2.0,2.0,2.0,2.0,110.0,110.0,111.0,111.0,32868.0,32768.0,32827.0,32768.0,32929.0,32768.0,32747.0,32768.0,0.02255,0.2,0.75,0.2,110.0,21.68,32868.0,32747.0,1076328396.0,21.68,470.0224,10190.085632,34873.11560947199,34873.11560947199,1076363264.0,110.0,0.0,0.0,20.0,-2099.999999999998,2.0816681711721685e-15,0.2,-0.2459999999999993,0.0,0.09099305555555565,4.641631944444444,1.0,0.0,0.030000000000000082,0.2729500000000007,0.0,0.0,0.51,4.641631944444444,0.0,0.0,0.0,20.0,376629356.25,1149749.999999999,0.009685444970737,0.0,32768.0,0.0,0.0,0.0,8815.568639652778,-0.24149704129019622,17113.21202364065,17112.97052659936,548927481.96
52,52,0.5196854449707371,2.0,2.0,2.0,2.0,-0.2459999999999993,-0.2459999999999993,-0.2469999999999993,-0.2469999999999993,38.0,0.0,293.0,198.0,0.0,0.0,0.0,0.0,-27.46799886226654,37.27799952030182,2.0816681711721685e-15,2.0816681711721685e-15,2.0816681711721685e-15,2.0816681711721685e-15,3.4800000518560408,25.0,2.0,2.0,2.0,2.0,110.0,110.0,111.0,111.0,32827.0,32768.0,32869.0,32768.0,32969.0,32768.0,32747.0,32768.0,0.02255,0.2,0.75,0.2,110.0,21.68,32827.0,32747.0,1074985769.0,21.68,470.0224,10190.085632,34873.11560947199,34873.11560947199,1076328396.0,110.0,-2099.999999999998,0.0,-41.0,-2099.999999999998,2.0816681711721685e-15,0.2,-0.2459999999999993,0.0,0.09096388888888898,4.732595833333333,0.0,1.0,0.0,0.0,0.010000000000000009,0.09096388888888907,0.52,4.732595833333333,0.0,0.0,0.0,-41.0,376629356.25,0.0,0.009685444970737,0.0,32768.0,0.0,0.0,0.0,8815.568639652778,-0.24149704129019622,17426.99936836036,17426.75787131907,558992599.88
53,53,0.5296854449707371,2.0,2.0,2.0,2.0,-0.2459999999999993,-0.2459999999999993,-0.2469999999999993,-0.2469999999999993,38.0,0.0,293.0,198.0,0.0,0.0,0.0,0.0,-27.46799886226654,37.27799952030182,2.0816681711721685e-15,2.0816681711721685e-15,2.0816681711721685e-15,2.0816681711721685e-15,3.4800000518560408,25.0,2.0,2.0,2.0,2.0,110.0,110.0,111.0,111.0,32827.0,32768.0,32848.0,32768.0,33050.0,32768.0,32768.0,32768.0,0.02255,0.2,0.75,0.2,110.0,21.68,32827.0,32768.0,1075675136.0,21.68,470.0224,10190.085632,34873.11560947199,34873.11560947199,1074985769.0,110.0,0.0,0.0,0.0,2099.999999999998,2.0816681711721685e-15,0.2,-0.2459999999999993,0.0,0.09099305555555565,4.823588888888889,1.0,0.0,0.010000000000000009,0.09099305555555581,0.0,0.0,0.53,4.823588888888889,0.0,0.0,0.0,0.0,0.0,-1149749.999999999,0.009685444970737,0.0,32768.0,0.0,0.0,0.0,8819.977862816706,-0.24149480048956784,17773.524474954203,17773.282980153715,570107822.08
54,54,0.5396854449707371,2.0,2.0,2.0,2.0,-0.2459999999999993,-0.2459999999999993,-0.2469999999999993,-0.2469999999999993,38.0,0.0,293.0,198.0,0.0,0.0,0.0,0.0,-27.46799886226654,37.27799952030182,2.0816681711721685e-15,2.0816681711721685e-15,2.0816681711721685e-15,2.0816681711721685e-15,3.4800000518560408,25.0,2.0,2.0,2.0,2.0,110.0,110.0,111.0,111.0,32869.0,32768.0,32807.0,32768.0,32990.0,32768.0,32768.0,32768.0,0.02255,0.2,0.75,0.2,110.0,21.68,32869.0,32768.0,1077051392.0,21.68,470.0224,10190.085632,34873.11560947199,34873.11560947199,1075675136.0,110.0,2099.999999999998,0.0,42.0,2099.999999999998,2.0816681711721685e-15,0.2,-0.2459999999999993,0.0,0.09102222222222231,4.914611111111111,1.0,0.0,0.020000000000000018,0.18201527777777837,0.0,0.0,0.54,4.914611111111111,0.0,0.0,0.0,42.0,0.0,0.0,0.009685444970737,0.0,32768.0,0.0,0.0,0.0,8819.977862816706,-0.24149480048956784,18132.04311351652,18131.801618716032,581607751.6800001
55,55,0.5496854449707371,2.0,2.0,2.0,2.0,-0.2459999999999993,-0.2459999999999993,-0.2469999999999993,-0.2469999999999993,38.0,0.0,293.0,198.0,0.0,0.0,0.0,0.0,-27.46799886226654,37.27799952030182,2.0816681711721685e-15,2.0816681711721685e-15,2.0816681711721685e-15,2.0816681711721685e-15,3.4800000518560408,25.0,2.0,2.0,2.0,2.0,110.0,110.0,111.0,111.0,32807.0,32768.0,32848.0,32768.0,32990.0,32768.0,32747.0,32768.0,0.02255,0.2,0.75,0.2,110.0,21.68,32807.0,32747.0,1074330829.0,21.68,470.0224,10190.085632,34873.11560947199,34873.11560947199,1077051392.0,110.0,0.0,0.0,-62.0,-2099.999999999998,2.0816681711721685e-15,0.2,-0.2459999999999993,0.0,0.09099305555555565,5.005604166666667,0.0,1.0,0.0,0.0,0.010000000000000009,0.09099305555555581,0.55,5.005604166666667,0.0,0.0,0.0,-62.0,376629356.25,1149749.999999999,0.009685444970737,0.0,32768.0,0.0,0.0,0.0,8815.568639652778,-0.24149704129019622,18421.17315207165,18420.93165503036,590881955.95
56,56,0.5596854449707371,2.0,2.0,2.0,2.0,-0.2459999999999993,-0.2459999999999993,-0.2469999999999993,-0.2469999999999993,38.0,0.0,293.0,198.0,0.0,0.0,0.0,0.0,-27.46799886226654,37.27799952030182,2.0816681711721685e-15,2.0816681711721685e-15,2.0816681711721685e-15,2.0816681711721685e-15,3.4800000518560408,25.0,2.0,2.0,2.0,2.0,110.0,110.0,111.0,111.0,32807.0,32768.0,32827.0,32768.0,32929.0,32768.0,32747.0,32768.0,0.02255,0.2,0.75,0.2,110.0,21.68,32807.0,32747.0,1074330829.0,21.68,470.0224,10190.085632,34873.11560947199,34873.11560947199,1074330829.0,110.0,-6099.9999999999945,0.0,0.0,-6099.9999999999945,2.0816681711721685e-15,0.2,-0.2459999999999993,0.0,0.09096388888888898,5.096568055555556,1.0,0.0,0.010000000000000009,0.09096388888888907,0.0,0.0,0.56,5.096568055555556,0.0,0.0,0.0,0.0,376629356.25,0.0,0.009685444970737,0.0,32768.0,0.0,0.0,0.0,8815.568639652778,-0.24149704129019622,18756.10357301841,18755.86207597712,601625264.24
57,57,0.5696854449707371,2.0,2.0,2.0,2.0,-0.2459999999999993,-0.2459999999999993,-0.2469999999999993,-0.2469999999999993,38.0,0.0,293.0,198.0,0.0,0.0,0.0,0.0,-27.46799886226654,37.27799952030182,2.0816681711721685e-15,2.0816681711721685e-15,2.0816681711721685e-15,2.0816681711721685e-15,3.4800000518560408,25.0,2.0,2.0,2.0,2.0,110.0,110.0,111.0,111.0,32807.0,32768.0,32807.0,32768.0,32929.0,32768.0,32808.0,32768.0,0.02255,0.2,0.75,0.2,110.0,21.68,32807.0,32808.0,1076332056.0,21.68,470.0224,10190.085632,34873.11560947199,34873.11560947199,1074330829.0,110.0,-100.00000000000102,0.0,0.0,5999.999999999994,2.0816681711721685e-15,0.2,-0.2459999999999993,0.0,0.0910486111111112,5.187616666666667,1.0,0.0,0.020000000000000018,0.1820124999999999,0.0,0.0,0.5700000000000001,5.187616666666667,0.0,0.0,0.0,0.0,-718057200.0,-3339749.999999997,0.009685444970737,0.0,32768.0,0.0,0.0,0.0,8828.374663865496,-0.24149053320308972,19126.59612404218,19126.354633508974,613509271.9200001
58,58,0.579685444970737,2.0,2.0,2.0,2.0,-0.2459999999999993,-0.2459999999999993,-0.2469999999999993,-0.2469999999999993,38.0,0.0,293.0,198.0,0.0,0.0,0.0,0.0,-27.46799886226654,37.27799952030182,2.0816681711721685e-15,2.0816681711721685e-15,2.0816681711721685e-15,2.0816681711721685e-15,3.4800000518560408,25.0,2.0,2.0,2.0,2.0,110.0,110.0,111.0,111.0,32827.0,32768.0,32827.0,32768.0,32969.0,32768.0,32809.0,32768.0,0.02255,0.2,0.75,0.2,110.0,21.68,32827.0,32809.0,1077021043.0,21.68,470.0224,10190.085632,34873.11560947199,34873.11560947199,1076332056.0,110.0,4099.999999999996,0.0,20.0,4199.999999999997,2.0816681711721685e-15,0.2,-0.2459999999999993,0.0,0.0911347222222213,5.278751388888888,1.0,0.0,0.029999999999999916,0.2731472222222209,0.0,0.0,0.58,5.278751388888888,0.0,0.0,0.0,20.0,-736019853.75,-54750.00000000056,0.009685444970737,0.0,32768.0,0.0,0.0,0.0,8828.584555024665,-0.24149042653612646,19474.608650022572,19474.367159596037,624672204.9399999
59,59,0.589685444970737,2.0,2.0,2.0,2.0,-0.2459999999999993,-0.2459999999999993,-0.2469999999999993,-0.2469999999999993,38.0,0.0,293.0,198.0,0.0,0.0,0.0,0.0,-27.46799886226654,37.27799952030182,2.0816681711721685e-15,2.0816681711721685e-15,2.0816681711721685e-15,2.0816681711721685e-15,3.4800000518560408,25.0,2.0,2.0,2.0,2.0,110.0,110.0,111.0,111.0,32868.0,32768.0,32827.0,32768.0,32969.0,32768.0,32768.0,32768.0,0.02255,0.2,0.75,0.2,110.0,21.68,32868.0,32768.0,1077018624.0,21.68,470.0224,10190.085632,34873.11560947199,34873.11560947199,1077021043.0,110.0,0.0,0.0,41.0,-4099.999999999996,2.0816681711721685e-15,0.2,-0.2459999999999993,0.0,0.09107916666666675,5.369830555555555,1.0,0.0,0.039999999999999925,0.3642263888888877,0.0,0.0,0.59,5.369830555555555,0.0,0.0,0.0,41.0,0.0,2244749.999999998,0.009685444970737,0.0,32768.0,0.0,0.0,0.0,8819.977862816706,-0.24149480048956784,19810.333270372175,19810.091775571687,635440988.16
