,Unnamed: 0,currentTime,Agp_Pos_Sp_FL,Agp_Pos_Sp_FR,Agp_Pos_Sp_RL,Agp_Pos_Sp_RR,Disc_T_Est_FL,Disc_T_Est_FR,Disc_T_Est_RL,Disc_T_Est_RR,Motor_current_FL,Wheel_Decl_FL,Motor_current_FR,Wheel_Decl_FR,Motor_current_RL,Wheel_Decl_RL,Motor_current_RR,Wheel_Decl_RR,Vehicle_speed,Gyro_Rate_Pitch,IMU_Gyro_Rate_Roll,IMU_Gyro_Rate_Yaw,RealizedClampingForce_FL,RealizedClampingForce_FR,RealizedClampingForce_RL,RealizedClampingForce_RR,Piston_position_FL,Piston_position_FR,Piston_position_RL,Piston_position_RR,CF_FL,CF_FR,CF_RL,CF_RR,ESTIMATED_PRESSURE_FL,ESTIMATED_PRESSURE_FR,ESTIMATED_PRESSURE_RL,ESTIMATED_PRESSURE_RR,LATERAL_ACCELERATION,LONGITUDINAL_ACCELERATION,Wheel_Speed_FL,Wheel_Speed_FR,Wheel_Speed_RL,Wheel_Speed_RR,Yaw_rate,Ambiant_Temperature,Init_Disc_CF_FL,POS_MEASUREREV,TMC_filtered,Vitesse_Vehicule_Roues,Pressure_Speed_FL,Position_previous_FL,POS_MEASUREREV_square,POS_MEASUREREV_cube,Estimated_CF_FL,Estimated_CF_previous_FL,Pressure_Speed_previous_FL,CF_previous_FL,Deceleration_g,PosDiff,PreDiff,DecDiff,Lookup_Table,Temp_amb_C,Initial_temp_FL,RPM,Distance_Roues_instant,Distance_Roues,Brake_apply,Brake_release,Time_since_brake_apply,Miles_since_brake_apply,Time_since_brake_release,Miles_since_brake_release,BrakingTime_2,BrakingMiles_2,TimeSinceLastBrake_2,MilesSinceLastBrake_2,Change_Position,Change_pressure,BrakingForce_2,BrakingForce_ma_2,Start_braking_time,End_braking_time,BrakeStartSpeed,LastBrakStartSpeed,LastBrakEndtSpeed,LastDeceleration,conv_heat_trans_coef,temp_change_conv_FL,disc_heating_BTM_FL,temp_change_instant_BTM_1_FL,Pressure_Speed_time_FL
0,0,-5.928347161443526e-05,2.0,2.0,2.0,2.0,78.0,78.0,77.0,77.0,32827.0,28454.0,32869.0,28554.0,32990.0,28730.0,32768.0,28801.0,14.772185574480828,2.20962558851842,0.0338234561418844,-0.5241978676234651,2.0,2.0,2.0,2.0,-0.2489999999999993,-0.2459999999999993,-0.2489999999999993,-0.2469999999999993,38.0,0.0,293.0,198.0,0.0,0.0,0.0,0.0,17.65799969434738,176.57999992370603,53.67499923706055,53.57500076293945,55.77999877929688,55.40499877929688,-8.7,25.0,38.0,0.0,0.0,53.67499923706055,0.0,0.0,0.0,0.0,-1111.702,-1111.702,0.0,38.0,-15.99998474121104,0.0,0.0,0.0,2.0,25.0,78.0,0.0,0.0,0.0,0.0,0.0,0.0,0.0,0.0,0.0,0.0,0.0,0.0,0.0,0.0,0.0,0.0,0.0,0.0,0.0,0.0,0.0,0.0,0.0,0.0,0.0,0.0,0.0,0.0
1,1,0.0099407165283855,2.0,2.0,2.0,2.0,78.0,78.0,77.0,77.0,32868.0,28472.0,32889.0,28566.0,32948.0,28794.0,32788.0,28846.0,14.78412964261742,2.117641434247758,-0.2258176184169157,-0.2356290394199051,2.0,2.0,2.0,2.0,-0.2489999999999993,-0.2459999999999993,-0.2489999999999993,-0.2469999999999993,38.0,0.0,293.0,198.0,0.0,0.0,0.0,0.0,14.714999496936798,176.57999992370603,53.834999084472656,53.67499923706055,55.72499847412109,55.57500076293945,-9.570000207424163,25.0,38.0,0.0,0.0,53.834999084472656,0.0,0.0,0.0,0.0,-1111.702,-1111.702,0.0,38.0,4.000091552734376,0.0,0.0,20.000076293945416,2.0,25.0,78.0,0.0,0.0001493194421132396,0.0001493194421132396,0.0,0.0,0.0,0.0,0.0,0.0,0.0,0.0,0.009999999999999936,0.0001493194421132396,0.0,0.0,0.0,0.0,0.0,0.0099407165283855,0.0,0.0,53.67499923706055,5399.5100940453085,59.3809333605809,77.99637738243588,0.0,77.99637738243588,0.0
2,2,0.0199407165283855,2.0,2.0,2.0,2.0,78.0,78.0,77.0,77.0,32827.0,28464.0,32848.0,28577.0,32990.0,28803.0,32768.0,28871.0,14.795002476771224,2.2763467763013923,-0.0035914034703786,0.1491021491324053,2.0,2.0,2.0,2.0,-0.2489999999999993,-0.2459999999999993,-0.2489999999999993,-0.2469999999999993,38.0,0.0,293.0,198.0,0.0,0.0,0.0,0.0,24.52500015497208,163.82700204849243,53.79499816894531,53.7599983215332,55.93999862670898,55.82500076293945,1.7400000259280204,25.0,38.0,0.0,0.0,53.79499816894531,0.0,0.0,0.0,0.0,-1111.702,-1111.702,0.0,38.0,3.4999847412109366,0.0,0.0,-0.5001068115234393,2.0,25.0,78.0,0.0,0.00014948610729641383,0.00029880554940965343,0.0,0.0,0.0,0.0,0.0,0.0,0.0,0.0,0.019999999999999934,0.00029880554940965343,0.0,0.0,0.0,0.0,0.0,0.0099407165283855,0.0,0.0,53.67499923706055,0.0,59.34651562059995,77.99637948206691,0.0,77.99637948206691,0.0
3,3,0.0299407165283855,2.0,2.0,2.0,2.0,78.0,78.0,77.0,77.0,32827.0,28484.0,32827.0,28594.0,32990.0,28801.0,32768.0,28859.0,14.805744980904407,1.954583983608944,0.4454160163910566,0.1018335934435773,2.0,2.0,2.0,2.0,-0.2489999999999993,-0.2459999999999993,-0.2489999999999993,-0.2469999999999993,38.0,0.0,293.0,198.0,0.0,0.0,0.0,0.0,-7.847999781370163,160.8839988708496,53.7599983215332,53.790000915527344,56.15999984741211,56.095001220703125,3.4800000518560408,25.0,38.0,0.0,0.0,53.7599983215332,0.0,0.0,0.0,0.0,-1111.702,-1111.702,0.0,38.0,-9.500122070312498,0.0,0.0,-13.000106811523434,2.0,25.0,78.0,0.0,0.00014938193957010908,0.0004481874889797625,0.0,0.0,0.0,0.0,0.0,0.0,0.0,0.0,0.029999999999999936,0.0004481874889797625,0.0,0.0,0.0,0.0,0.0,0.0099407165283855,0.0,0.0,53.67499923706055,0.0,59.31639630003997,77.99638131947583,0.0,77.99638131947583,0.0
4,4,0.0399407165283855,2.0,2.0,2.0,2.0,78.0,78.0,77.0,77.0,32848.0,28500.0,32869.0,28609.0,32889.0,28798.0,32788.0,28822.0,14.81852085319433,1.724552854570549,0.7000000000000001,-0.1473171274232945,2.0,2.0,2.0,2.0,-0.2489999999999993,-0.2459999999999993,-0.2489999999999993,-0.2469999999999993,38.0,0.0,293.0,198.0,0.0,0.0,0.0,0.0,10.790999978780746,176.57999992370603,53.85499954223633,53.83000183105469,56.290000915527344,56.380001068115234,0.0,25.0,38.0,0.0,0.0,53.85499954223633,0.0,0.0,0.0,0.0,-1111.702,-1111.702,0.0,38.0,3.4999847412109393,0.0,0.0,13.000106811523438,2.0,25.0,78.0,0.0,0.00014946527481079103,0.0005976527637905535,0.0,0.0,0.0,0.0,0.0,0.0,0.0,0.0,0.03999999999999994,0.0005976527637905535,0.0,0.0,0.0,0.0,0.0,0.0099407165283855,0.0,0.0,53.67499923706055,0.0,59.39814012062381,77.9963763327491,0.0,77.9963763327491,0.0
5,5,0.0499407165283855,2.0,2.0,2.0,2.0,78.0,78.0,77.0,77.0,32909.0,28554.0,32868.0,28620.0,32990.0,28804.0,32768.0,28775.0,14.832871847535898,1.653178532479427,0.9420536688014324,-0.2757946331198567,2.0,2.0,2.0,2.0,-0.2489999999999993,-0.2459999999999993,-0.2489999999999993,-0.2469999999999993,38.0,0.0,293.0,198.0,0.0,0.0,0.0,0.0,10.790999978780746,203.0669927597046,53.81999969482422,53.900001525878906,56.29499816894531,56.619998931884766,-5.220000207424164,25.0,38.0,0.0,0.0,53.81999969482422,0.0,0.0,0.0,0.0,-1111.702,-1111.702,0.0,38.0,3.4999847412109366,0.0,0.0,-2.6645352591003757e-15,2.0,25.0,78.0,0.0,0.0001495486100514729,0.0007472013738420264,0.0,0.0,0.0,0.0,0.0,0.0,0.0,0.0,0.04999999999999993,0.0007472013738420264,0.0,0.0,0.0,0.0,0.0,0.0099407165283855,0.0,0.0,53.67499923706055,0.0,59.368028188168324,77.99637816970721,0.0,77.99637816970721,0.0
6,6,0.0599407165283855,2.0,2.0,2.0,2.0,78.0,78.0,77.0,77.0,32848.0,28555.0,32827.0,28640.0,32990.0,28769.0,32809.0,28749.0,14.846430711781016,1.2843348554397238,1.2,0.0156651445602762,2.0,2.0,2.0,2.0,-0.2489999999999993,-0.2459999999999993,-0.2489999999999993,-0.2469999999999993,38.0,0.0,293.0,198.0,0.0,0.0,0.0,0.0,14.714999496936798,200.12400150299072,53.78499984741211,53.90499877929688,56.56999969482422,56.70000076293945,-4.35,25.0,38.0,0.0,0.0,53.78499984741211,0.0,0.0,0.0,0.0,-1111.702,-1111.702,0.0,38.0,-9.00001525878906,0.0,0.0,-12.499999999999996,2.0,25.0,78.0,0.0,0.00014945138825310603,0.0008966527620951324,0.0,0.0,0.0,0.0,0.0,0.0,0.0,0.0,0.059999999999999935,0.0008966527620951324,0.0,0.0,0.0,0.0,0.0,0.0099407165283855,0.0,0.0,53.67499923706055,0.0,59.337911947324244,77.9963800069282,0.0,77.9963800069282,0.0
7,7,0.0699407165283855,2.0,2.0,2.0,2.0,78.0,78.0,77.0,77.0,32809.0,28589.0,32848.0,28651.0,32948.0,28732.0,32768.0,28756.0,14.858375712437372,0.8283222076562579,1.0773730054687556,0.3490507978124977,2.0,2.0,2.0,2.0,-0.2489999999999993,-0.2459999999999993,-0.2489999999999993,-0.2469999999999993,38.0,0.0,293.0,198.0,0.0,0.0,0.0,0.0,-17.65799969434738,190.31399488449097,53.875,53.9900016784668,56.720001220703125,56.64500045776367,5.220000207424164,25.0,38.0,0.0,0.0,53.875,0.0,0.0,0.0,0.0,-1111.702,-1111.702,0.0,38.0,-11.999893188476568,0.0,0.0,-2.999877929687507,2.0,25.0,78.0,0.0,0.0001495277775658502,0.0010461805396609826,0.0,0.0,0.0,0.0,0.0,0.0,0.0,0.0,0.06999999999999994,0.0010461805396609826,0.0,0.0,0.0,0.0,0.0,0.0099407165283855,0.0,0.0,53.67499923706055,0.0,59.415345474884774,77.99637528314811,0.0,77.99637528314811,0.0
8,8,0.0799407165283855,2.0,2.0,2.0,2.0,78.0,78.0,77.0,77.0,32848.0,28580.0,32889.0,28656.0,32969.0,28728.0,32768.0,28762.0,14.869235685884702,0.5272138926092484,1.0482288859126014,0.473671664434451,2.0,2.0,2.0,2.0,-0.2489999999999993,-0.2459999999999993,-0.2489999999999993,-0.2469999999999993,38.0,0.0,293.0,198.0,0.0,0.0,0.0,0.0,14.714999496936798,170.69400548934937,53.994998931884766,54.08000183105469,56.720001220703125,56.53499984741211,6.9600001037120816,25.0,38.0,0.0,0.0,53.994998931884766,0.0,0.0,0.0,0.0,-1111.702,-1111.702,0.0,38.0,-1.0002136230468741,0.0,0.0,10.999679565429695,2.0,25.0,78.0,0.0,0.00014981944296095097,0.0011959999826219336,0.0,0.0,0.0,0.0,0.0,0.0,0.0,0.0,0.07999999999999993,0.0011959999826219336,0.0,0.0,0.0,0.0,0.0,0.0099407165283855,0.0,0.0,53.67499923706055,0.0,59.51854483480038,77.99636898754144,0.0,77.99636898754144,0.0
9,9,0.0899407165283855,2.0,2.0,2.0,2.0,78.0,78.0,77.0,77.0,32788.0,28608.0,32889.0,28650.0,32969.0,28696.0,32768.0,28730.0,14.881591645012891,0.0314070884813836,1.0025628353925535,0.5254271392320923,2.0,2.0,2.0,2.0,-0.2489999999999993,-0.2459999999999993,-0.2489999999999993,-0.2469999999999993,38.0,0.0,293.0,198.0,0.0,0.0,0.0,0.0,7.847999781370163,183.447003364563,54.005001068115234,54.20500183105469,56.834999084472656,56.64500045776367,9.570000207424163,25.0,38.0,0.0,0.0,54.005001068115234,0.0,0.0,0.0,0.0,-1111.702,-1111.702,0.0,38.0,-12.500000000000007,0.0,0.0,-11.499786376953132,2.0,25.0,78.0,0.0,0.00015000000000000015,0.0013459999826219338,0.0,0.0,0.0,0.0,0.0,0.0,0.0,0.0,0.08999999999999994,0.0013459999826219338,0.0,0.0,0.0,0.0,0.0,0.0099407165283855,0.0,0.0,53.67499923706055,0.0,59.52714441570998,77.9963684629299,0.0,77.9963684629299,0.0
10,10,0.0999407165283855,2.0,2.0,2.0,2.0,78.0,78.0,77.0,77.0,32827.0,28609.0,32848.0,28650.0,32969.0,28657.0,32809.0,28663.0,14.892677485766445,-0.374329085025802,0.7040254898451879,0.6703035951806142,2.0,2.0,2.0,2.0,-0.2489999999999993,-0.2459999999999993,-0.2489999999999993,-0.2469999999999993,38.0,0.0,293.0,198.0,0.0,0.0,0.0,0.0,-1.9619999453425407,183.447003364563,54.130001068115234,54.25,56.959999084472656,56.95000076293945,8.7,25.0,38.0,0.0,0.0,54.130001068115234,0.0,0.0,0.0,0.0,-1111.702,-1111.702,0.0,38.0,-18.999862670898448,0.0,0.0,-6.499862670898441,2.0,25.0,78.0,0.0,0.00015018750296698667,0.0014961874855889204,0.0,0.0,0.0,0.0,0.0,0.0,0.0,0.0,0.09999999999999994,0.0014961874855889204,0.0,0.0,0.0,0.0,0.0,0.0099407165283855,0.0,0.0,53.67499923706055,0.0,59.634586692308936,77.99636190848786,0.0,77.99636190848786,0.0
11,11,0.1099407165283855,2.0,2.0,2.0,2.0,78.0,78.0,77.0,77.0,32827.0,28584.0,32848.0,28649.0,32909.0,28686.0,32747.0,28562.0,14.903803041318724,-0.6330233660402274,0.5266976633959772,0.5703719607517271,2.0,2.0,2.0,2.0,-0.2489999999999993,-0.2459999999999993,-0.2489999999999993,-0.2469999999999993,38.0,0.0,293.0,198.0,0.0,0.0,0.0,0.0,-14.714999496936798,173.63699674606323,54.31999969482422,54.30500030517578,56.73500061035156,57.310001373291016,14.790000414848327,25.0,38.0,0.0,0.0,54.31999969482422,0.0,0.0,0.0,0.0,-1111.702,-1111.702,0.0,38.0,-20.999908447266318,0.0,0.0,-2.0000457763678696,2.0,25.0,78.0,0.0,0.00015062500105963804,0.0016468124866485584,0.0,0.0,0.0,0.0,0.0,0.0,0.0,0.0,0.10999999999999993,0.0016468124866485584,0.0,0.0,0.0,0.0,0.0,0.0099407165283855,0.0,0.0,53.67499923706055,0.0,59.79779331057791,77.99635195218212,0.0,77.99635195218212,0.0
12,12,0.1199407165283855,2.0,2.0,2.0,2.0,78.0,78.0,77.0,77.0,32847.0,28551.0,32848.0,28662.0,32990.0,28686.0,32768.0,28519.0,14.91518935988219,-1.0403193032403486,0.7572520559406393,0.25,2.0,2.0,2.0,2.0,-0.2489999999999993,-0.2459999999999993,-0.2489999999999993,-0.2469999999999993,38.0,0.0,293.0,198.0,0.0,0.0,0.0,0.0,4.904999956488609,167.75100231170654,54.52999877929688,54.29999923706055,56.76499938964844,57.415000915527344,4.35,25.0,38.0,0.0,0.0,54.52999877929688,0.0,0.0,0.0,0.0,-1111.702,-1111.702,0.0,38.0,4.499816894531957,0.0,0.0,25.499725341798275,2.0,25.0,78.0,0.0,0.00015118055343627944,0.0017979930400848377,0.0,0.0,0.0,0.0,0.0,0.0,0.0,0.0,0.11999999999999994,0.0017979930400848377,0.0,0.0,0.0,0.0,0.0,0.0099407165283855,0.0,0.0,53.67499923706055,0.0,59.97803405284539,77.99634095672371,0.0,77.99634095672371,0.0
13,13,0.1299407165283855,2.0,2.0,2.0,2.0,78.0,78.0,77.0,77.0,32827.0,28560.0,32848.0,28654.0,33031.0,28675.0,32809.0,28559.0,14.926656090221252,-1.028848979784215,1.074450145745112,0.4456011659608971,2.0,2.0,2.0,2.0,-0.2489999999999993,-0.2459999999999993,-0.2489999999999993,-0.2469999999999993,38.0,0.0,293.0,198.0,0.0,0.0,0.0,0.0,7.847999781370163,167.75100231170654,54.48500061035156,54.40999984741211,56.8849983215332,57.06999969482422,4.35,25.0,38.0,0.0,0.0,54.48500061035156,0.0,0.0,0.0,0.0,-1111.702,-1111.702,0.0,38.0,6.000137329101574,0.0,0.0,1.500320434569617,2.0,25.0,78.0,0.0,0.00015140972137451186,0.0019494027614593496,0.0,0.0,0.0,0.0,0.0,0.0,0.0,0.0,0.12999999999999995,0.0019494027614593496,0.0,0.0,0.0,0.0,0.0,0.0099407165283855,0.0,0.0,53.67499923706055,0.0,59.93942531393686,77.99634331202222,0.0,77.99634331202222,0.0
14,14,0.1399407165283855,2.0,2.0,2.0,2.0,78.0,78.0,77.0,77.0,32827.0,28559.0,32848.0,28652.0,32929.0,28661.0,32768.0,28664.0,14.938020046041144,-1.0695966792725942,1.0756003689697118,0.4304033207274058,2.0,2.0,2.0,2.0,-0.2489999999999993,-0.2459999999999993,-0.2489999999999993,-0.2469999999999993,38.0,0.0,293.0,198.0,0.0,0.0,0.0,0.0,-4.904999956488609,163.82700204849243,54.42499923706055,54.46500015258789,56.98500061035156,56.584999084472656,11.30999958515167,25.0,38.0,0.0,0.0,54.42499923706055,0.0,0.0,0.0,0.0,-1111.702,-1111.702,0.0,38.0,-6.000137329101557,0.0,0.0,-12.000274658203132,2.0,25.0,78.0,0.0,0.00015126388867696096,0.0021006666501363104,0.0,0.0,0.0,0.0,0.0,0.0,0.0,0.0,0.13999999999999993,0.0021006666501363104,0.0,0.0,0.0,0.0,0.0,0.0099407165283855,0.0,0.0,53.67499923706055,0.0,59.887932806864875,77.99634645328592,0.0,77.99634645328592,0.0
15,15,0.1499407165283855,2.0,2.0,2.0,2.0,78.0,78.0,77.0,77.0,32827.0,28562.0,32848.0,28651.0,32990.0,28618.0,32768.0,28774.0,14.948676865429446,-1.3240586979531326,1.0259413020468675,0.2240586979531324,2.0,2.0,2.0,2.0,-0.2489999999999993,-0.2459999999999993,-0.2489999999999993,-0.2469999999999993,38.0,0.0,293.0,198.0,0.0,0.0,0.0,0.0,24.52500015497208,167.75100231170654,54.48500061035156,54.5099983215332,57.1349983215332,56.255001068115234,3.4800000518560408,25.0,38.0,0.0,0.0,54.48500061035156,0.0,0.0,0.0,0.0,-1111.702,-1111.702,0.0,38.0,-14.99977111816405,0.0,0.0,-8.999633789062493,2.0,25.0,78.0,0.0,0.0001512638886769614,0.002251930538813272,0.0,0.0,0.0,0.0,0.0,0.0,0.0,0.0,0.14999999999999994,0.002251930538813272,0.0,0.0,0.0,0.0,0.0,0.0099407165283855,0.0,0.0,53.67499923706055,0.0,59.93942531393686,77.99634331202222,0.0,77.99634331202222,0.0
16,16,0.1599407165283855,2.0,2.0,2.0,2.0,78.0,78.0,77.0,77.0,32827.0,28552.0,32869.0,28647.0,32969.0,28580.0,32768.0,28813.0,14.960138948744971,-1.4703766832975569,1.048150673319023,0.3703766832975566,2.0,2.0,2.0,2.0,-0.2489999999999993,-0.2459999999999993,-0.2489999999999993,-0.2469999999999993,38.0,0.0,293.0,198.0,0.0,0.0,0.0,0.0,-4.904999956488609,148.131000995636,54.6349983215332,54.58000183105469,57.209999084472656,56.32500076293945,4.35,25.0,38.0,0.0,0.0,54.6349983215332,0.0,0.0,0.0,0.0,-1111.702,-1111.702,0.0,38.0,7.999801635742203,0.0,0.0,22.999572753906254,2.0,25.0,78.0,0.0,0.00015155555407206231,0.0024034860928853342,0.0,0.0,0.0,0.0,0.0,0.0,0.0,0.0,0.15999999999999995,0.0024034860928853342,0.0,0.0,0.0,0.0,0.0,0.0099407165283855,0.0,0.0,53.67499923706055,0.0,60.06809713835645,77.99633546249004,0.0,77.99633546249004,0.0
17,17,0.1699407165283855,2.0,2.0,2.0,2.0,78.0,78.0,77.0,77.0,32827.0,28577.0,32869.0,28646.0,32969.0,28558.0,32788.0,28779.0,14.973271149137693,-1.526689722790795,0.5623913004658291,0.8176778679065556,2.0,2.0,2.0,2.0,-0.2489999999999993,-0.2459999999999993,-0.2489999999999993,-0.2469999999999993,38.0,0.0,293.0,198.0,0.0,0.0,0.0,0.0,-21.581999957561493,148.131000995636,54.55500030517578,54.619998931884766,57.244998931884766,56.80500030517578,8.7,25.0,38.0,0.0,0.0,54.55500030517578,0.0,0.0,0.0,0.0,-1111.702,-1111.702,0.0,38.0,5.50003051757812,0.0,0.0,-2.499771118164083,2.0,25.0,78.0,0.0,0.00015165277587042886,0.0025551388687557633,0.0,0.0,0.0,0.0,0.0,0.0,0.0,0.0,0.16999999999999993,0.0025551388687557633,0.0,0.0,0.0,0.0,0.0,0.0099407165283855,0.0,0.0,53.67499923706055,0.0,59.99948250500712,77.99633964827629,0.0,77.99633964827629,0.0
18,18,0.1799407165283855,2.0,2.0,2.0,2.0,78.0,78.0,77.0,77.0,32868.0,28590.0,32848.0,28667.0,32948.0,28504.0,32768.0,28712.0,14.985298407728804,-1.5722380387295665,-0.2200284697132195,0.8566287070490407,2.0,2.0,2.0,2.0,-0.2489999999999993,-0.2459999999999993,-0.2489999999999993,-0.2469999999999993,38.0,0.0,293.0,198.0,0.0,0.0,0.0,0.0,-4.904999956488609,134.39699411392212,54.5,54.56999969482422,57.470001220703125,57.2599983215332,20.00999958515167,25.0,38.0,0.0,0.0,54.5,0.0,0.0,0.0,0.0,-1111.702,-1111.702,0.0,38.0,-2.0000457763671857,0.0,0.0,-7.500076293945305,2.0,25.0,78.0,0.0,0.00015146527820163319,0.0027066041469573964,0.0,0.0,0.0,0.0,0.0,0.0,0.0,0.0,0.17999999999999994,0.0027066041469573964,0.0,0.0,0.0,0.0,0.0,0.0099407165283855,0.0,0.0,53.67499923706055,0.0,59.952295672736675,77.99634252687517,0.0,77.99634252687517,0.0
19,19,0.1899407165283855,2.0,2.0,2.0,2.0,78.0,78.0,77.0,77.0,32868.0,28618.0,32848.0,28693.0,32948.0,28452.0,32788.0,28658.0,15.000557859690804,-1.6510968743384724,-0.45,0.3543874973538892,2.0,2.0,2.0,2.0,-0.2489999999999993,-0.2459999999999993,-0.2489999999999993,-0.2469999999999993,38.0,0.0,293.0,198.0,0.0,0.0,0.0,0.0,7.847999781370163,154.01699542999268,54.52000045776367,54.53499984741211,57.595001220703125,57.525001525878906,9.570000207424163,25.0,38.0,0.0,0.0,54.52000045776367,0.0,0.0,0.0,0.0,-1111.702,-1111.702,0.0,38.0,-8.499908447265641,0.0,0.0,-6.499862670898455,2.0,25.0,78.0,0.0,0.00015141666730244968,0.002858020814259846,0.0,0.0,0.0,0.0,0.0,0.0,0.0,0.0,0.18999999999999995,0.002858020814259846,0.0,0.0,0.0,0.0,0.0,0.0099407165283855,0.0,0.0,53.67499923706055,0.0,59.96945602997082,77.99634148001985,0.0,77.99634148001985,0.0
20,20,0.1999407165283855,2.0,2.0,2.0,2.0,78.0,78.0,77.0,77.0,32868.0,28636.0,32827.0,28716.0,32948.0,28423.0,32747.0,28625.0,15.017648578866572,-1.648200666165644,-0.6187023315797531,0.1258996669171781,2.0,2.0,2.0,2.0,-0.2489999999999993,-0.2459999999999993,-0.2489999999999993,-0.2469999999999993,38.0,0.0,293.0,198.0,0.0,0.0,0.0,0.0,14.714999496936798,190.31399488449097,54.60499954223633,54.56499862670898,57.56499862670898,57.525001525878906,2.610000103712082,25.0,38.0,0.0,0.0,54.60499954223633,0.0,0.0,0.0,0.0,-1111.702,-1111.702,0.0,38.0,-6.999969482421869,0.0,0.0,1.4999389648437722,2.0,25.0,78.0,0.0,0.0001515624999999997,0.0030095833142598457,0.0,0.0,0.0,0.0,0.0,0.0,0.0,0.0,0.19999999999999993,0.0030095833142598457,0.0,0.0,0.0,0.0,0.0,0.0099407165283855,0.0,0.0,53.67499923706055,0.0,60.04236965169845,77.9963370319768,0.0,77.9963370319768,0.0
21,21,0.2099407165283855,2.0,2.0,2.0,2.0,78.0,78.0,77.0,77.0,32827.0,28653.0,32869.0,28744.0,32969.0,28440.0,32747.0,28579.0,15.03541634856015,-1.8685101056846976,-0.5592712775932891,0.1,2.0,2.0,2.0,2.0,-0.2489999999999993,-0.2459999999999993,-0.2489999999999993,-0.2469999999999993,38.0,0.0,293.0,198.0,0.0,0.0,0.0,0.0,20.600999891757965,186.38999462127688,54.67499923706055,54.57500076293945,57.369998931884766,57.560001373291016,1.7400000259280204,25.0,38.0,0.0,0.0,54.67499923706055,0.0,0.0,0.0,0.0,-1111.702,-1111.702,0.0,38.0,-11.500167846679677,0.0,0.0,-4.500198364257808,2.0,25.0,78.0,0.0,0.00015177777608235693,0.0031613610903422026,0.0,0.0,0.0,0.0,0.0,0.0,0.0,0.0,0.20999999999999994,0.0031613610903422026,0.0,0.0,0.0,0.0,0.0,0.0099407165283855,0.0,0.0,53.67499923706055,0.0,60.102397800752314,77.99633337000299,0.0,77.99633337000299,0.0
22,22,0.2199407165283855,2.0,2.0,2.0,2.0,78.0,78.0,77.0,77.0,32847.0,28660.0,32868.0,28747.0,32948.0,28488.0,32809.0,28498.0,15.053471246615974,-1.757396963010656,-0.2512328271684427,0.4901373826524583,2.0,2.0,2.0,2.0,-0.2489999999999993,-0.2459999999999993,-0.2489999999999993,-0.2469999999999993,38.0,0.0,293.0,198.0,0.0,0.0,0.0,0.0,14.714999496936798,170.69400548934937,54.790000915527344,54.720001220703125,57.1349983215332,57.7400016784668,1.7400000259280204,25.0,38.0,0.0,0.0,54.790000915527344,0.0,0.0,0.0,0.0,-1111.702,-1111.702,0.0,38.0,-9.00001525878908,0.0,0.0,2.5001525878905966,2.0,25.0,78.0,0.0,0.00015203472243415,0.0033133958127763525,0.0,0.0,0.0,0.0,0.0,0.0,0.0,0.0,0.21999999999999995,0.0033133958127763525,0.0,0.0,0.0,0.0,0.0,0.0099407165283855,0.0,0.0,53.67499923706055,0.0,60.200980654530305,77.99632735602788,0.0,77.99632735602788,0.0
23,23,0.2299407165283855,2.0,2.0,2.0,2.0,78.0,78.0,77.0,77.0,32827.0,28638.0,32848.0,28735.0,32908.0,28515.0,32788.0,28374.0,15.070453040098018,-1.6938169262597218,0.0438169262597217,0.9731450778779166,2.0,2.0,2.0,2.0,-0.2489999999999993,-0.2459999999999993,-0.2489999999999993,-0.2469999999999993,38.0,0.0,293.0,198.0,0.0,0.0,0.0,0.0,20.600999891757965,157.9409956932068,54.880001068115234,54.88999938964844,57.15999984741211,58.13999938964844,15.65999958515167,25.0,38.0,0.0,0.0,54.880001068115234,0.0,0.0,0.0,0.0,-1111.702,-1111.702,0.0,38.0,-13.4998321533203,0.0,0.0,-4.49981689453122,2.0,25.0,78.0,0.0,0.00015231944719950328,0.003465715259975856,0.0,0.0,0.0,0.0,0.0,0.0,0.0,0.0,0.22999999999999993,0.003465715259975856,0.0,0.0,0.0,0.0,0.0,0.0099407165283855,0.0,0.0,53.67499923706055,0.0,60.278099705967136,77.99632265143684,0.0,77.99632265143684,0.0
24,24,0.2399407165283855,2.0,2.0,2.0,2.0,78.0,78.0,77.0,77.0,32847.0,28618.0,32929.0,28729.0,32969.0,28529.0,32747.0,28275.0,15.088582025822497,-1.998688867987107,0.3243444339935536,0.9282778300322316,2.0,2.0,2.0,2.0,-0.2489999999999993,-0.2459999999999993,-0.2489999999999993,-0.2469999999999993,38.0,0.0,293.0,198.0,0.0,0.0,0.0,0.0,-11.772000044584274,163.82700204849243,55.01499938964844,54.970001220703125,57.31999969482422,58.33000183105469,18.269999170303343,25.0,38.0,0.0,0.0,55.01499938964844,0.0,0.0,0.0,0.0,-1111.702,-1111.702,0.0,38.0,2.4997711181640603,0.0,0.0,15.99960327148436,2.0,25.0,78.0,0.0,0.00015263194508022748,0.0036183472050560833,0.0,0.0,0.0,0.0,0.0,0.0,0.0,0.0,0.23999999999999994,0.0036183472050560833,0.0,0.0,0.0,0.0,0.0,0.0099407165283855,0.0,0.0,53.67499923706055,0.0,60.39372450741978,77.99631559783164,0.0,77.99631559783164,0.0
25,25,0.2499407165283855,2.0,2.0,2.0,2.0,78.0,78.0,77.0,77.0,32847.0,28636.0,32889.0,28725.0,32990.0,28466.0,32768.0,28212.0,15.107640123312713,-2.193944868012588,0.35,0.6080735093165501,2.0,2.0,2.0,2.0,-0.2489999999999993,-0.2459999999999993,-0.2489999999999993,-0.2469999999999993,38.0,0.0,293.0,198.0,0.0,0.0,0.0,0.0,24.52500015497208,186.38999462127688,54.9900016784668,55.01499938964844,57.76499938964844,58.34000015258789,13.920000207424165,25.0,38.0,0.0,0.0,54.9900016784668,0.0,0.0,0.0,0.0,-1111.702,-1111.702,0.0,38.0,2.0000457763671746,0.0,0.0,-0.49972534179688566,2.0,25.0,78.0,0.0,0.00015278472370571576,0.003771131928761799,0.0,0.0,0.0,0.0,0.0,0.0,0.0,0.0,0.24999999999999994,0.003771131928761799,0.0,0.0,0.0,0.0,0.0,0.0099407165283855,0.0,0.0,53.67499923706055,0.0,60.37231891459456,77.99631690366387,0.0,77.99631690366387,0.0
26,26,0.2599407165283856,2.0,2.0,2.0,2.0,78.0,78.0,77.0,77.0,32827.0,28648.0,32869.0,28736.0,32990.0,28416.0,32768.0,28206.0,15.12483019015778,-2.0850911282419435,0.3259173752947221,0.2795868764736107,2.0,2.0,2.0,2.0,-0.2489999999999993,-0.2459999999999993,-0.2489999999999993,-0.2469999999999993,38.0,0.0,293.0,198.0,0.0,0.0,0.0,0.0,-4.904999956488609,163.82700204849243,54.970001220703125,54.9900016784668,57.95000076293945,58.09999847412109,6.9600001037120816,25.0,38.0,0.0,0.0,54.970001220703125,0.0,0.0,0.0,0.0,-1111.702,-1111.702,0.0,38.0,-7.499694824218744,0.0,0.0,-9.499740600585918,2.0,25.0,78.0,0.0,0.0001527222262488481,0.003923854155010647,0.0,0.0,0.0,0.0,0.0,0.0,0.0,0.0,0.26,0.003923854155010647,0.0,0.0,0.0,0.0,0.0,0.0099407165283855,0.0,0.0,53.67499923706055,0.0,60.355190938797634,77.9963179485433,0.0,77.9963179485433,0.0
27,27,0.2699407165283856,2.0,2.0,2.0,2.0,78.0,78.0,77.0,77.0,32829.0,28656.0,32848.0,28759.0,32990.0,28331.0,32768.0,28232.0,15.139662063889748,-1.6776866506848362,0.5446266986303278,0.0766119904109016,2.0,2.0,2.0,2.0,-0.2489999999999993,-0.2459999999999993,-0.2489999999999993,-0.2469999999999993,38.0,0.0,293.0,198.0,0.0,0.0,0.0,0.0,-1.9619999453425407,134.39699411392212,55.04499816894531,54.95500183105469,58.23500061035156,57.84000015258789,2.610000103712082,25.0,38.0,0.0,0.0,55.04499816894531,0.0,0.0,0.0,0.0,-1111.702,-1111.702,0.0,38.0,-12.49999999999999,0.0,0.0,-5.000305175781246,2.0,25.0,78.0,0.0,0.00015279861026340076,0.004076652765274047,0.0,0.0,0.0,0.0,0.0,0.0,0.0,0.0,0.27,0.004076652765274047,0.0,0.0,0.0,0.0,0.0,0.0099407165283855,0.0,0.0,53.67499923706055,0.0,60.419409700937514,77.99631403092559,0.0,77.99631403092559,0.0
28,28,0.2799407165283856,2.0,2.0,2.0,2.0,78.0,78.0,77.0,77.0,32847.0,28631.0,32848.0,28762.0,32969.0,28267.0,32788.0,28253.0,15.153861442812298,-1.4277568260350029,0.6777568260350028,0.2444863479299945,2.0,2.0,2.0,2.0,-0.2489999999999993,-0.2459999999999993,-0.2489999999999993,-0.2469999999999993,38.0,0.0,293.0,198.0,0.0,0.0,0.0,0.0,-27.46799886226654,121.6439962387085,55.16999816894531,55.060001373291016,58.29499816894531,57.66999816894531,0.0,25.0,38.0,0.0,0.0,55.16999816894531,0.0,0.0,0.0,0.0,-1111.702,-1111.702,0.0,38.0,-6.000137329101624,0.0,0.0,6.499862670898366,2.0,25.0,78.0,0.0,0.000153076383802626,0.0042297291490766735,0.0,0.0,0.0,0.0,0.0,0.0,0.0,0.0,0.28,0.0042297291490766735,0.0,0.0,0.0,0.0,0.0,0.0099407165283855,0.0,0.0,53.67499923706055,0.0,60.5264025700406,77.99630750390604,0.0,77.99630750390604,0.0
29,29,0.2899407165283855,2.0,2.0,2.0,2.0,78.0,78.0,77.0,77.0,32868.0,28641.0,32848.0,28751.0,32969.0,28234.0,32788.0,28232.0,15.169917462427357,-1.4466675644560798,0.7455567526081064,0.6466675644560798,2.0,2.0,2.0,2.0,-0.2489999999999993,-0.2459999999999993,-0.2489999999999993,-0.2469999999999993,38.0,0.0,293.0,198.0,0.0,0.0,0.0,0.0,-1.9619999453425407,134.39699411392212,55.22999954223633,55.20000076293945,58.20500183105469,57.875,8.7,25.0,38.0,0.0,0.0,55.22999954223633,0.0,0.0,0.0,0.0,-1111.702,-1111.702,0.0,38.0,1.4999389648437487,0.0,0.0,7.500076293945373,2.0,25.0,78.0,0.0,0.00015333333015441739,0.004383062479231091,0.0,0.0,0.0,0.0,0.0,0.0,0.0,0.0,0.2899999999999999,0.004383062479231091,0.0,0.0,0.0,0.0,0.0,0.0099407165283855,0.0,0.0,53.67499923706055,0.0,60.57774137434676,77.99630437202117,0.0,77.99630437202117,0.0
30,30,0.2999407165283855,2.0,2.0,2.0,2.0,78.0,78.0,77.0,77.0,32827.0,28642.0,32869.0,28762.0,32990.0,28261.0,32768.0,28200.0,15.187170145010436,-1.358083486600759,1.4580246781384063,0.5822751379406831,2.0,2.0,2.0,2.0,-0.2489999999999993,-0.2459999999999993,-0.2489999999999993,-0.2469999999999993,38.0,0.0,293.0,198.0,0.0,0.0,0.0,0.0,20.600999891757965,154.01699542999268,55.21500015258789,55.18000030517578,57.92499923706055,58.08000183105469,13.920000207424165,25.0,38.0,0.0,0.0,55.21500015258789,0.0,0.0,0.0,0.0,-1111.702,-1111.702,0.0,38.0,2.9998779296874973,0.0,0.0,1.4999389648437487,2.0,25.0,78.0,0.0,0.00015339583290947822,0.004536458312140569,0.0,0.0,0.0,0.0,0.0,0.0,0.0,0.0,0.29999999999999993,0.004536458312140569,0.0,0.0,0.0,0.0,0.0,0.0099407165283855,0.0,0.0,53.67499923706055,0.0,60.5649086400482,77.99630515487237,0.0,77.99630515487237,0.0
31,31,0.3099407165283855,2.0,2.0,2.0,2.0,78.0,78.0,77.0,77.0,32809.0,28681.0,32889.0,28773.0,32969.0,28280.0,32768.0,28222.0,15.205507301328437,-0.8866247779088925,2.118541790050615,0.4211250740303692,2.0,2.0,2.0,2.0,-0.2489999999999993,-0.2459999999999993,-0.2489999999999993,-0.2469999999999993,38.0,0.0,293.0,198.0,0.0,0.0,0.0,0.0,4.904999956488609,167.75100231170654,55.185001373291016,55.18999862670898,57.869998931884766,58.084999084472656,6.089999896287917,25.0,38.0,0.0,0.0,55.185001373291016,0.0,0.0,0.0,0.0,-1111.702,-1111.702,0.0,38.0,10.000228881835929,0.0,0.0,7.000350952148431,2.0,25.0,78.0,0.0,0.00015333333545260974,0.004689791647593178,0.0,0.0,0.0,0.0,0.0,0.0,0.0,0.0,0.30999999999999994,0.004689791647593178,0.0,0.0,0.0,0.0,0.0,0.0099407165283855,0.0,0.0,53.67499923706055,0.0,60.5392408703239,77.99630672071524,0.0,77.99630672071524,0.0
32,32,0.3199407165283855,2.0,2.0,2.0,2.0,78.0,78.0,77.0,77.0,32827.0,28724.0,32869.0,28790.0,32969.0,28307.0,32768.0,28296.0,15.219580129614483,-0.602198752121523,2.154397504243046,0.3326956324253302,2.0,2.0,2.0,2.0,-0.2489999999999993,-0.2459999999999993,-0.2489999999999993,-0.2469999999999993,38.0,106.0,293.0,198.0,0.0,0.0,0.0,0.0,1.9619999453425407,144.20700073242188,55.084999084472656,55.20000076293945,57.90999984741211,57.834999084472656,8.7,25.0,38.0,0.0,0.0,55.084999084472656,0.0,0.0,0.0,0.0,-1111.702,-1111.702,0.0,38.0,0.4997253417968718,0.0,0.0,-9.500503540039057,2.0,25.0,78.0,0.0,0.0001531527784135608,0.0048429444260067395,0.0,0.0,0.0,0.0,0.0,0.0,0.0,0.0,0.31999999999999995,0.0048429444260067395,0.0,0.0,0.0,0.0,0.0,0.0099407165283855,0.0,0.0,53.67499923706055,0.0,60.45365401278435,77.996311941877,0.0,77.996311941877,0.0
33,33,0.3299407165283856,2.0,2.0,2.0,2.0,78.0,78.0,77.0,77.0,32868.0,28735.0,32848.0,28809.0,32969.0,28297.0,32768.0,28385.0,15.233883215429303,-0.672100773561674,1.7081178340273129,0.1988403094246695,2.0,2.0,2.0,2.0,-0.2489999999999993,-0.2459999999999993,-0.2489999999999993,-0.2469999999999993,38.0,0.0,293.0,198.0,0.0,0.0,0.0,0.0,-4.904999956488609,141.26399755477905,55.08000183105469,55.220001220703125,58.150001525878906,57.58000183105469,2.610000103712082,25.0,38.0,0.0,0.0,55.08000183105469,0.0,0.0,0.0,0.0,-1111.702,-1111.702,0.0,38.0,-21.499633789062482,0.0,0.0,-21.999359130859354,2.0,25.0,78.0,0.0,0.0001530069457160112,0.004995951371722751,0.0,0.0,0.0,0.0,0.0,0.0,0.0,0.0,0.33,0.004995951371722751,0.0,0.0,0.0,0.0,0.0,0.0099407165283855,0.0,0.0,53.67499923706055,0.0,60.44937622220244,77.99631220284041,0.0,77.99631220284041,0.0
34,34,0.3399407165283856,2.0,2.0,2.0,2.0,78.0,78.0,77.0,77.0,32847.0,28738.0,32827.0,28817.0,32990.0,28282.0,32788.0,28471.0,15.249355664048426,-0.7266485255646828,0.8609901704312191,0.1032970511293657,2.0,2.0,2.0,2.0,-0.2489999999999993,-0.2459999999999993,-0.2489999999999993,-0.2469999999999993,38.0,0.0,293.0,198.0,0.0,0.0,0.0,0.0,34.334999322891235,151.0740041732788,55.29499816894531,55.310001373291016,58.31499862670898,57.470001220703125,4.35,25.0,38.0,0.0,0.0,55.29499816894531,0.0,0.0,0.0,0.0,-1111.702,-1111.702,0.0,38.0,-13.000106811523425,0.0,0.0,8.499526977539057,2.0,25.0,78.0,0.0,0.00015329861111111127,0.005149249982833862,0.0,0.0,0.0,0.0,0.0,0.0,0.0,0.0,0.34,0.005149249982833862,0.0,0.0,0.0,0.0,0.0,0.0099407165283855,0.0,0.0,53.67499923706055,0.0,60.63334212078946,77.99630098013994,0.0,77.99630098013994,0.0
35,35,0.3499407165283856,2.0,2.0,2.0,2.0,78.0,78.0,77.0,77.0,32827.0,28743.0,32848.0,28826.0,32990.0,28266.0,32768.0,28534.0,15.266534367608042,-0.65,-0.1079575879602287,0.2151333403980272,2.0,2.0,2.0,2.0,-0.2489999999999993,-0.2459999999999993,-0.2489999999999993,-0.2469999999999993,38.0,0.0,293.0,198.0,0.0,0.0,0.0,0.0,7.847999781370163,167.75100231170654,55.42499923706055,55.3650016784668,58.41999816894531,57.53499984741211,-0.8700000129640102,25.0,38.0,0.0,0.0,55.42499923706055,0.0,0.0,0.0,0.0,-1111.702,-1111.702,0.0,38.0,-5.500030517578181,0.0,0.0,7.500076293945244,2.0,25.0,78.0,0.0,0.0001537777741750083,0.005303027757008871,0.0,0.0,0.0,0.0,0.0,0.0,0.0,0.0,0.35000000000000003,0.005303027757008871,0.0,0.0,0.0,0.0,0.0,0.0099407165283855,0.0,0.0,53.67499923706055,0.0,60.744503764570965,77.9962941988091,0.0,77.9962941988091,0.0
36,36,0.3599407165283855,2.0,2.0,2.0,2.0,78.0,78.0,77.0,77.0,32847.0,28753.0,32848.0,28826.0,32969.0,28263.0,32747.0,28534.0,15.282800422700635,-0.4091780926700692,-0.8167397165969377,0.5240821907329931,2.0,2.0,2.0,2.0,-0.2489999999999993,-0.2459999999999993,-0.2489999999999993,-0.2469999999999993,38.0,0.0,293.0,198.0,0.0,0.0,0.0,0.0,14.714999496936798,180.50400018692017,55.47999954223633,55.459999084472656,58.3650016784668,57.77000045776367,8.7,25.0,38.0,0.0,0.0,55.47999954223633,0.0,0.0,0.0,0.0,-1111.702,-1111.702,0.0,38.0,1.4999389648437487,0.0,0.0,6.99996948242193,2.0,25.0,78.0,0.0,0.00015403472052679965,0.00545706247753567,0.0,0.0,0.0,0.0,0.0,0.0,0.0,0.0,0.35999999999999993,0.00545706247753567,0.0,0.0,0.0,0.0,0.0,0.0099407165283855,0.0,0.0,53.67499923706055,0.0,60.79151629254812,77.99629133084615,0.0,77.99629133084615,0.0
37,37,0.3699407165283855,2.0,2.0,2.0,2.0,78.0,78.0,77.0,77.0,32827.0,28757.0,32848.0,28824.0,33010.0,28342.0,32788.0,28475.0,15.297981349913348,0.0700744159812284,-0.8788310097923779,0.5989054257736064,2.0,2.0,2.0,2.0,-0.2489999999999993,-0.2459999999999993,-0.2489999999999993,-0.2469999999999993,38.0,0.0,293.0,198.0,0.0,0.0,0.0,0.0,10.790999978780746,173.63699674606323,55.46500015258789,55.54499816894531,58.02999877929688,58.23500061035156,9.570000207424163,25.0,38.0,0.0,0.0,55.46500015258789,0.0,0.0,0.0,0.0,-1111.702,-1111.702,0.0,38.0,-10.499954223632804,0.0,0.0,-11.999893188476552,2.0,25.0,78.0,0.0,0.00015409027735392266,0.005611152754889593,0.0,0.0,0.0,0.0,0.0,0.0,0.0,0.0,0.36999999999999994,0.005611152754889593,0.0,0.0,0.0,0.0,0.0,0.0099407165283855,0.0,0.0,53.67499923706055,0.0,60.778696304101196,77.99629211291963,0.0,77.99629211291963,0.0
38,38,0.3799407165283855,2.0,2.0,2.0,2.0,78.0,78.0,77.0,77.0,32827.0,28757.0,32848.0,28803.0,32990.0,28449.0,32788.0,28388.0,15.313043129212362,0.1535792982615467,-0.4803689473923201,0.4791758479718045,2.0,2.0,2.0,2.0,-0.2489999999999993,-0.2459999999999993,-0.2489999999999993,-0.2469999999999993,38.0,0.0,293.0,198.0,0.0,0.0,0.0,0.0,34.334999322891235,173.63699674606323,55.56999969482422,55.685001373291016,57.77000045776367,58.70500183105469,11.30999958515167,25.0,38.0,0.0,0.0,55.56999969482422,0.0,0.0,0.0,0.0,-1111.702,-1111.702,0.0,38.0,-12.49999999999992,0.0,0.0,-2.0000457763671164,2.0,25.0,78.0,0.0,0.0001542152775658503,0.005765368032455444,0.0,0.0,0.0,0.0,0.0,0.0,0.0,0.0,0.37999999999999995,0.005765368032455444,0.0,0.0,0.0,0.0,0.0,0.0099407165283855,0.0,0.0,53.67499923706055,0.0,60.86842347888459,77.99628663918298,0.0,77.99628663918298,0.0
39,39,0.3899407165283856,2.0,2.0,2.0,2.0,78.0,78.0,77.0,77.0,32868.0,28752.0,32827.0,28795.0,32950.0,28533.0,32768.0,28328.0,15.328703346254889,-0.0243986059417385,0.1159790891260789,0.3975944237669543,2.0,2.0,2.0,2.0,-0.2489999999999993,-0.2459999999999993,-0.2489999999999993,-0.2469999999999993,38.0,0.0,293.0,198.0,0.0,0.0,0.0,0.0,27.46799886226654,176.57999992370603,55.69499969482422,55.73500061035156,57.790000915527344,58.90499877929688,5.220000207424164,25.0,38.0,0.0,0.0,55.69499969482422,0.0,0.0,0.0,0.0,-1111.702,-1111.702,0.0,38.0,6.999969482421869,0.0,0.0,19.49996948242179,2.0,25.0,78.0,0.0,0.0001545347213745127,0.005919902753829956,0.0,0.0,0.0,0.0,0.0,0.0,0.0,0.0,0.39,0.005919902753829956,0.0,0.0,0.0,0.0,0.0,0.0099407165283855,0.0,0.0,53.67499923706055,0.0,60.97519339455899,77.99628012576791,0.0,77.99628012576791,0.0
40,40,0.3999407165283856,2.0,2.0,2.0,2.0,78.0,78.0,77.0,77.0,32809.0,28754.0,32869.0,28782.0,32990.0,28570.0,32809.0,28330.0,15.3427537608393,0.0705842092774906,0.4758831581445019,0.7170515766994832,2.0,2.0,2.0,2.0,-0.2489999999999993,-0.2459999999999993,-0.2489999999999993,-0.2469999999999993,38.0,0.0,293.0,198.0,0.0,0.0,0.0,0.0,-14.714999496936798,176.57999992370603,55.625,55.79999923706055,58.04499816894531,58.72499847412109,8.7,25.0,38.0,0.0,0.0,55.625,0.0,0.0,0.0,0.0,-1111.702,-1111.702,0.0,38.0,-13.999938964843738,0.0,0.0,-20.999908447265607,2.0,25.0,78.0,0.0,0.00015461111068725602,0.006074513864517212,0.0,0.0,0.0,0.0,0.0,0.0,0.0,0.0,0.4,0.006074513864517212,0.0,0.0,0.0,0.0,0.0,0.0099407165283855,0.0,0.0,53.67499923706055,0.0,60.91540900506672,77.99628377286766,0.0,77.99628377286766,0.0
41,41,0.4099407165283856,2.0,2.0,2.0,2.0,78.0,78.0,77.0,77.0,32868.0,28758.0,32827.0,28755.0,32969.0,28581.0,32768.0,28394.0,15.354031110872222,0.2,0.7149804337945291,0.7331978268953853,2.0,2.0,2.0,2.0,-0.2489999999999993,-0.2459999999999993,-0.2489999999999993,-0.2469999999999993,38.0,0.0,293.0,198.0,0.0,0.0,0.0,0.0,14.714999496936798,148.131000995636,55.76499938964844,55.92499923706055,58.30500030517578,58.400001525878906,16.529999792575836,25.0,38.0,0.0,0.0,55.76499938964844,0.0,0.0,0.0,0.0,-1111.702,-1111.702,0.0,38.0,-9.500122070312598,0.0,0.0,4.49981689453114,2.0,25.0,78.0,0.0,0.00015470833248562297,0.0062292221970028355,0.0,0.0,0.0,0.0,0.0,0.0,0.0,0.0,0.41000000000000003,0.0062292221970028355,0.0,0.0,0.0,0.0,0.0,0.0099407165283855,0.0,0.0,53.67499923706055,0.0,61.03496125566299,77.99627647967671,0.0,77.99627647967671,0.0
42,42,0.4199407165283855,2.0,2.0,2.0,2.0,78.0,78.0,77.0,77.0,32827.0,28738.0,32869.0,28717.0,32948.0,28567.0,32768.0,28448.0,15.364154707625524,0.0533503230325475,0.6822590332371864,0.3533503230325475,2.0,2.0,2.0,2.0,-0.2489999999999993,-0.2459999999999993,-0.2489999999999993,-0.2469999999999993,38.0,0.0,293.0,198.0,0.0,0.0,0.0,0.0,10.790999978780746,134.39699411392212,55.86000061035156,56.07500076293945,58.560001373291016,58.22499847412109,8.7,25.0,38.0,0.0,0.0,55.86000061035156,0.0,0.0,0.0,0.0,-1111.702,-1111.702,0.0,38.0,-6.999969482421869,0.0,0.0,2.500152587890729,2.0,25.0,78.0,0.0,0.00015503472222222063,0.006384256919225056,0.0,0.0,0.0,0.0,0.0,0.0,0.0,0.0,0.41999999999999993,0.006384256919225056,0.0,0.0,0.0,0.0,0.0,0.0099407165283855,0.0,0.0,53.67499923706055,0.0,61.11604978493344,77.99627153293537,0.0,77.99627153293537,0.0
43,43,0.4299407165283855,2.0,2.0,2.0,2.0,78.0,78.0,77.0,77.0,32847.0,28734.0,32869.0,28731.0,32990.0,28550.0,32809.0,28482.0,15.374356348628288,0.0466780906491265,0.35,0.3222317422076054,2.0,2.0,2.0,2.0,-0.2489999999999993,-0.2459999999999993,-0.2489999999999993,-0.2469999999999993,38.0,0.0,293.0,198.0,0.0,0.0,0.0,0.0,44.144999980926514,131.45400285720825,55.93000030517578,55.92499923706055,58.71500015258789,58.255001068115234,3.4800000518560408,25.0,38.0,0.0,0.0,55.93000030517578,0.0,0.0,0.0,0.0,-1111.702,-1111.702,0.0,38.0,-6.999969482421869,0.0,0.0,0.0,2.0,25.0,78.0,0.0,0.00015526389016045478,0.006539520809385511,0.0,0.0,0.0,0.0,0.0,0.0,0.0,0.0,0.42999999999999994,0.006539520809385511,0.0,0.0,0.0,0.0,0.0,0.0099407165283855,0.0,0.0,53.67499923706055,0.0,61.17577878589086,77.99626788921537,0.0,77.99626788921537,0.0
44,44,0.4399407165283855,2.0,2.0,2.0,2.0,78.0,78.0,77.0,77.0,32847.0,28744.0,32889.0,28725.0,32990.0,28497.0,32768.0,28485.0,15.385387610618126,0.2244732957896681,0.2521068168413277,0.5234198873690042,2.0,2.0,2.0,2.0,-0.2489999999999993,-0.2459999999999993,-0.2489999999999993,-0.2469999999999993,38.0,0.0,293.0,198.0,0.0,0.0,0.0,0.0,-11.772000044584274,144.20700073242188,56.0,55.97999954223633,58.90999984741211,58.40999984741211,7.829999792575835,25.0,38.0,0.0,0.0,56.0,0.0,0.0,0.0,0.0,-1111.702,-1111.702,0.0,38.0,18.000030517578008,0.0,0.0,24.999999999999876,2.0,25.0,78.0,0.0,0.00015545833375718874,0.006694979143142699,0.0,0.0,0.0,0.0,0.0,0.0,0.0,0.0,0.43999999999999995,0.006694979143142699,0.0,0.0,0.0,0.0,0.0,0.0099407165283855,0.0,0.0,53.67499923706055,0.0,61.235491343146435,77.99626424649878,0.0,77.99626424649878,0.0
45,45,0.4499407165283856,2.0,2.0,2.0,2.0,78.0,78.0,77.0,77.0,32827.0,28761.0,32848.0,28731.0,32969.0,28511.0,32809.0,28512.0,15.395681683374312,0.2741098811206922,0.2705494056034609,0.4794505943965391,2.0,2.0,2.0,2.0,-0.2489999999999993,-0.2459999999999993,-0.2489999999999993,-0.2469999999999993,38.0,0.0,293.0,198.0,0.0,0.0,0.0,0.0,17.65799969434738,141.26399755477905,55.81999969482422,55.96500015258789,58.70500183105469,58.51499938964844,10.440000414848328,25.0,38.0,0.0,0.0,55.81999969482422,0.0,0.0,0.0,0.0,-1111.702,-1111.702,0.0,38.0,2.500152587890623,0.0,0.0,-15.499877929687385,2.0,25.0,78.0,0.0,0.0001553055551317013,0.006850284698274401,0.0,0.0,0.0,0.0,0.0,0.0,0.0,0.0,0.45,0.006850284698274401,0.0,0.0,0.0,0.0,0.0,0.0099407165283855,0.0,0.0,53.67499923706055,0.0,61.08191060441298,77.9962736155689,0.0,77.9962736155689,0.0
46,46,0.4599407165283856,2.0,2.0,2.0,2.0,78.0,78.0,77.0,77.0,32809.0,28782.0,32848.0,28725.0,32990.0,28535.0,32768.0,28553.0,15.405570847666246,0.3963075674420834,0.6648458104657295,0.4463075674420835,2.0,2.0,2.0,2.0,-0.2489999999999993,-0.2459999999999993,-0.2489999999999993,-0.2469999999999993,38.0,0.0,293.0,198.0,0.0,0.0,0.0,0.0,-24.52500015497208,138.32099437713623,55.79499816894531,56.040000915527344,58.58000183105469,58.5,6.089999896287917,25.0,38.0,0.0,0.0,55.79499816894531,0.0,0.0,0.0,0.0,-1111.702,-1111.702,0.0,38.0,-26.00021362304685,0.0,0.0,-28.50036621093747,2.0,25.0,78.0,0.0,0.00015502083036634672,0.007005305528640747,0.0,0.0,0.0,0.0,0.0,0.0,0.0,0.0,0.46,0.007005305528640747,0.0,0.0,0.0,0.0,0.0,0.0099407165283855,0.0,0.0,53.67499923706055,0.0,61.06057006948,77.9962749174313,0.0,77.9962749174313,0.0
47,47,0.4699407165283856,2.0,2.0,2.0,2.0,78.0,78.0,77.0,77.0,32827.0,28786.0,32848.0,28730.0,32990.0,28494.0,32788.0,28632.0,15.414469790274318,0.5733542040153989,1.8547018495232543,0.5744514013384664,2.0,2.0,2.0,2.0,-0.2489999999999993,-0.2459999999999993,-0.2489999999999993,-0.2469999999999993,38.0,0.0,293.0,198.0,0.0,0.0,0.0,0.0,-14.714999496936798,124.58699941635132,56.05500030517578,56.06499862670898,58.845001220703125,58.32500076293945,9.570000207424163,25.0,38.0,0.0,0.0,56.05500030517578,0.0,0.0,0.0,0.0,-1111.702,-1111.702,0.0,38.0,9.000015258789155,0.0,0.0,35.00022888183601,2.0,25.0,78.0,0.0,0.0001553472201029461,0.007160652748743694,0.0,0.0,0.0,0.0,0.0,0.0,0.0,0.0,0.47000000000000003,0.007160652748743694,0.0,0.0,0.0,0.0,0.0,0.0099407165283855,0.0,0.0,53.67499923706055,0.0,61.28239729769976,77.99626138503888,0.0,77.99626138503888,0.0
48,48,0.4799407165283855,2.0,2.0,2.0,2.0,78.0,78.0,77.0,77.0,32809.0,28812.0,32848.0,28747.0,32990.0,28319.0,32747.0,28725.0,15.424170098040191,0.7232179559883274,3.0196538679649825,0.6732179559883273,2.0,2.0,2.0,2.0,-0.2489999999999993,-0.2459999999999993,-0.2489999999999993,-0.2469999999999993,38.0,0.0,293.0,198.0,0.0,0.0,0.0,0.0,7.847999781370163,128.51099967956543,55.96500015258789,56.04499816894531,59.70000076293945,58.19499969482422,10.440000414848328,25.0,38.0,0.0,0.0,55.96500015258789,0.0,0.0,0.0,0.0,-1111.702,-1111.702,0.0,38.0,8.499908447265618,0.0,0.0,-0.500106811523537,2.0,25.0,78.0,0.0,0.00015558333396911464,0.007316236082712808,0.0,0.0,0.0,0.0,0.0,0.0,0.0,0.0,0.4799999999999999,0.007316236082712808,0.0,0.0,0.0,0.0,0.0,0.0099407165283855,0.0,0.0,53.67499923706055,0.0,61.205637118412675,77.99626606773175,0.0,77.99626606773175,0.0
49,49,0.4899407165283855,2.0,2.0,2.0,2.0,78.0,78.0,77.0,77.0,32848.0,28875.0,32848.0,28756.0,32990.0,28189.0,32768.0,28789.0,15.43464632391682,0.6290971139111785,3.1035118119238674,0.6035118119238674,2.0,2.0,2.0,2.0,-0.2489999999999993,-0.2459999999999993,-0.2489999999999993,-0.2469999999999993,38.0,0.0,293.0,198.0,0.0,0.0,0.0,0.0,4.904999956488609,141.26399755477905,55.880001068115234,56.09999847412109,59.90999984741211,58.125,13.05,25.0,38.0,0.0,0.0,55.880001068115234,0.0,0.0,0.0,0.0,-1111.702,-1111.702,0.0,38.0,-1.4999389648437487,0.0,0.0,-9.999847412109366,2.0,25.0,78.0,0.0,0.00015534027947319894,0.0074715763621860075,0.0,0.0,0.0,0.0,0.0,0.0,0.0,0.0,0.48999999999999994,0.0074715763621860075,0.0,0.0,0.0,0.0,0.0,0.0099407165283855,0.0,0.0,53.67499923706055,0.0,61.13311735819742,77.99627049174165,0.0,77.99627049174165,0.0
50,50,0.4999407165283855,2.0,2.0,2.0,2.0,78.0,78.0,77.0,77.0,32847.0,28900.0,32848.0,28765.0,32990.0,28144.0,32727.0,28791.0,15.448209981536962,0.4015884169887131,2.296443629347628,0.3289710424717829,2.0,2.0,2.0,2.0,-0.2489999999999993,-0.2459999999999993,-0.2489999999999993,-0.2469999999999993,38.0,0.0,293.0,198.0,0.0,0.0,0.0,0.0,30.410999059677124,151.0740041732788,55.89500045776367,56.15499877929688,59.625,58.43999862670898,7.829999792575835,25.0,38.0,0.0,0.0,55.89500045776367,0.0,0.0,0.0,0.0,-1111.702,-1111.702,0.0,38.0,-15.4998779296874,0.0,0.0,-13.999938964843652,2.0,25.0,78.0,0.0,0.00015524305767483196,0.00762681941986084,0.0,0.0,0.0,0.0,0.0,0.0,0.0,0.0,0.49999999999999994,0.00762681941986084,0.0,0.0,0.0,0.0,0.0,0.0099407165283855,0.0,0.0,53.67499923706055,0.0,61.14591634244467,77.99626971094985,0.0,77.99626971094985,0.0
51,51,0.5099407165283856,2.0,2.0,2.0,2.0,78.0,78.0,77.0,77.0,32827.0,28914.0,32848.0,28756.0,32969.0,28242.0,32768.0,28770.0,15.464617240515178,0.35,1.1352025487930113,0.4323987256034944,2.0,2.0,2.0,2.0,-0.2489999999999993,-0.2459999999999993,-0.2489999999999993,-0.2469999999999993,38.0,0.0,293.0,198.0,0.0,0.0,0.0,0.0,-4.904999956488609,206.0100078582764,56.04999923706055,56.27999877929688,58.845001220703125,58.78499984741211,3.4800000518560408,25.0,38.0,0.0,0.0,56.04999923706055,0.0,0.0,0.0,0.0,-1111.702,-1111.702,0.0,38.0,20.000076293946005,0.0,0.0,35.49995422363341,2.0,25.0,78.0,0.0,0.0001554791662428124,0.007782298586103652,0.0,0.0,0.0,0.0,0.0,0.0,0.0,0.0,0.51,0.007782298586103652,0.0,0.0,0.0,0.0,0.0,0.0099407165283855,0.0,0.0,53.67499923706055,0.0,61.27813265136179,77.99626164520018,0.0,77.99626164520018,0.0
52,52,0.5199407165283856,2.0,2.0,2.0,2.0,78.0,78.0,77.0,77.0,32768.0,28995.0,32848.0,28761.0,32969.0,28379.0,32809.0,28731.0,15.479597290138353,0.35,0.6701547420126587,0.8169245700210978,2.0,2.0,2.0,2.0,-0.2489999999999993,-0.2459999999999993,-0.2489999999999993,-0.2469999999999993,38.0,106.0,293.0,198.0,0.0,0.0,0.0,0.0,44.144999980926514,190.31399488449097,55.84999847412109,56.31499862670898,58.32500076293945,59.005001068115234,12.179999792575837,25.0,38.0,0.0,0.0,55.84999847412109,0.0,0.0,0.0,0.0,-1111.702,-1111.702,0.0,38.0,-23.50006103515694,0.0,0.0,-43.50013732910294,2.0,25.0,78.0,0.0,0.00015541666348775244,0.007937715249591405,0.0,0.0,0.0,0.0,0.0,0.0,0.0,0.0,0.52,0.007937715249591405,0.0,0.0,0.0,0.0,0.0,0.0099407165283855,0.0,0.0,53.67499923706055,0.0,61.107513866380934,77.99627205366227,0.0,77.99627205366227,0.0
53,53,0.5299407165283856,2.0,2.0,2.0,2.0,78.0,78.0,77.0,77.0,32827.0,28969.0,32827.0,28740.0,32969.0,28534.0,32768.0,28689.0,15.490684280889424,0.4478397597274366,0.8478397597274366,0.8032403604088452,2.0,2.0,2.0,2.0,-0.2489999999999993,-0.2459999999999993,-0.2489999999999993,-0.2469999999999993,38.0,0.0,293.0,198.0,0.0,0.0,0.0,0.0,1.9619999453425407,157.9409956932068,56.084999084472656,56.470001220703125,58.04999923706055,59.27000045776367,16.529999792575836,25.0,38.0,0.0,0.0,56.084999084472656,0.0,0.0,0.0,0.0,-1111.702,-1111.702,0.0,38.0,-26.00021362304685,0.0,0.0,-2.500152587889911,2.0,25.0,78.0,0.0,0.00015546527438693592,0.00809318052397834,0.0,0.0,0.0,0.0,0.0,0.0,0.0,0.0,0.53,0.00809318052397834,0.0,0.0,0.0,0.0,0.0,0.0099407165283855,0.0,0.0,53.67499923706055,0.0,61.30797691313321,77.99625982457513,0.0,77.99625982457513,0.0
54,54,0.5399407165283856,2.0,2.0,2.0,2.0,78.0,78.0,77.0,77.0,32827.0,28944.0,32889.0,28723.0,32969.0,28643.0,32788.0,28681.0,15.500630775846195,0.623458384018049,0.6561664639278042,0.6989722560120326,2.0,2.0,2.0,2.0,-0.2489999999999993,-0.2459999999999993,-0.2489999999999993,-0.2469999999999993,38.0,0.0,293.0,198.0,0.0,0.0,0.0,0.0,-27.46799886226654,124.58699941635132,56.345001220703125,56.55500030517578,58.17499923706055,59.25,11.30999958515167,25.0,38.0,0.0,0.0,56.345001220703125,0.0,0.0,0.0,0.0,-1111.702,-1111.702,0.0,38.0,-14.99977111816405,0.0,0.0,11.0004425048828,2.0,25.0,78.0,0.0,0.00015615277820163318,0.008249333302179973,0.0,0.0,0.0,0.0,0.0,0.0,0.0,0.0,0.54,0.008249333302179973,0.0,0.0,0.0,0.0,0.0,0.0099407165283855,0.0,0.0,53.67499923706055,0.0,61.5295518739107,77.99624630757593,0.0,77.99624630757593,0.0
55,55,0.5499407165283856,2.0,2.0,2.0,2.0,78.0,78.0,77.0,77.0,32809.0,28918.0,32807.0,28684.0,32990.0,28672.0,32768.0,28723.0,15.513680094054433,0.3380763835449071,0.9049495452311423,0.5811023123209567,2.0,2.0,2.0,2.0,-0.2489999999999993,-0.2459999999999993,-0.2489999999999993,-0.2469999999999993,38.0,0.0,293.0,198.0,0.0,0.0,0.0,0.0,24.52500015497208,157.9409956932068,56.494998931884766,56.72999954223633,58.57500076293945,59.07500076293945,13.05,25.0,38.0,0.0,0.0,56.494998931884766,0.0,0.0,0.0,0.0,-1111.702,-1111.702,0.0,38.0,4.4998168945312464,0.0,0.0,19.4995880126953,2.0,25.0,78.0,0.0,0.00015672222243415,0.008406055524614124,0.0,0.0,0.0,0.0,0.0,0.0,0.0,0.0,0.55,0.008406055524614124,0.0,0.0,0.0,0.0,0.0,0.0099407165283855,0.0,0.0,53.67499923706055,0.0,61.65727823428605,77.99623851573537,0.0,77.99623851573537,0.0
56,56,0.5599407165283856,2.0,2.0,2.0,2.0,78.0,78.0,77.0,77.0,32847.0,28932.0,32848.0,28695.0,32969.0,28666.0,32809.0,28794.0,15.527644960350722,0.1909245026769759,1.789109403212371,0.5445547016061856,2.0,2.0,2.0,2.0,-0.2489999999999993,-0.2459999999999993,-0.2489999999999993,-0.2469999999999993,38.0,0.0,293.0,198.0,0.0,0.0,0.0,0.0,-4.904999956488609,180.50400018692017,56.45000076293945,56.60499954223633,58.935001373291016,58.834999084472656,6.9600001037120816,25.0,38.0,0.0,0.0,56.45000076293945,0.0,0.0,0.0,0.0,-1111.702,-1111.702,0.0,38.0,7.500076293945305,0.0,0.0,3.000259399414059,2.0,25.0,78.0,0.0,0.00015686805513170045,0.008562923579745824,0.0,0.0,0.0,0.0,0.0,0.0,0.0,0.0,0.56,0.008562923579745824,0.0,0.0,0.0,0.0,0.0,0.0099407165283855,0.0,0.0,53.67499923706055,0.0,61.618969142973,77.99624085274957,0.0,77.99624085274957,0.0
57,57,0.5699407165283856,2.0,2.0,2.0,2.0,78.0,78.0,77.0,77.0,32868.0,28956.0,32868.0,28702.0,32990.0,28646.0,32768.0,28859.0,15.53995577838498,0.3765760572062032,1.708405638433084,0.4063042288248131,2.0,2.0,2.0,2.0,-0.2489999999999993,-0.2459999999999993,-0.2489999999999993,-0.2469999999999993,38.0,0.0,293.0,198.0,0.0,0.0,0.0,0.0,10.790999978780746,173.63699674606323,56.375,56.584999084472656,59.17499923706055,58.69499969482422,12.179999792575837,25.0,38.0,0.0,0.0,56.375,0.0,0.0,0.0,0.0,-1111.702,-1111.702,0.0,38.0,-0.5001068115234426,0.0,0.0,-8.000183105468748,2.0,25.0,78.0,0.0,0.00015670138994852717,0.008719624969694351,0.0,0.0,0.0,0.0,0.0,0.0,0.0,0.0,0.5700000000000001,0.008719624969694351,0.0,0.0,0.0,0.0,0.0,0.0099407165283855,0.0,0.0,53.67499923706055,0.0,61.555102474623375,77.99624474888266,0.0,77.99624474888266,0.0
58,58,0.5799407165283855,2.0,2.0,2.0,2.0,78.0,78.0,77.0,77.0,32868.0,28979.0,32889.0,28727.0,32990.0,28653.0,32768.0,28903.0,15.548772151994504,-0.2619250625192748,1.1778423777132012,0.1732945733720793,2.0,2.0,2.0,2.0,-0.2489999999999993,-0.2459999999999993,-0.2489999999999993,-0.2469999999999993,38.0,0.0,293.0,198.0,0.0,0.0,0.0,0.0,-4.904999956488609,141.26399755477905,56.380001068115234,56.52999877929688,59.22999954223633,58.71500015258789,1.7400000259280204,25.0,38.0,0.0,0.0,56.380001068115234,0.0,0.0,0.0,0.0,-1111.702,-1111.702,0.0,38.0,-12.999725341796864,0.0,0.0,-12.499618530273422,2.0,25.0,78.0,0.0,0.00015660416815015845,0.00887622913784451,0.0,0.0,0.0,0.0,0.0,0.0,0.0,0.0,0.58,0.00887622913784451,0.0,0.0,0.0,0.0,0.0,0.0099407165283855,0.0,0.0,53.67499923706055,0.0,61.5593617001672,77.99624448905215,0.0,77.99624448905215,0.0
59,59,0.5899407165283855,2.0,2.0,2.0,2.0,78.0,78.0,77.0,77.0,32827.0,28948.0,32869.0,28725.0,32969.0,28623.0,32768.0,28941.0,15.557342005485513,-0.8988713477748704,1.1966140433246113,0.2988713477748704,2.0,2.0,2.0,2.0,-0.2489999999999993,-0.2459999999999993,-0.2489999999999993,-0.2469999999999993,38.0,0.0,293.0,198.0,0.0,0.0,0.0,0.0,34.334999322891235,118.70100498199464,56.5099983215332,56.65999984741211,59.5099983215332,58.85499954223633,4.35,25.0,38.0,0.0,0.0,56.5099983215332,0.0,0.0,0.0,0.0,-1111.702,-1111.702,0.0,38.0,-22.500228881835916,0.0,0.0,-9.500503540039052,2.0,25.0,78.0,0.0,0.00015679166581895632,0.009033020803663467,0.0,0.0,0.0,0.0,0.0,0.0,0.0,0.0,0.59,0.009033020803663467,0.0,0.0,0.0,0.0,0.0,0.0099407165283855,0.0,0.0,53.67499923706055,0.0,61.67004643944608,77.99623773682168,0.0,77.99623773682168,0.0
60,60,0.5999407165283855,2.0,2.0,2.0,2.0,78.0,78.0,77.0,77.0,32847.0,28954.0,32848.0,28736.0,32969.0,28628.0,32768.0,28992.0,15.567823191095496,-0.998260919421035,0.7467385072370634,0.3258695402894825,2.0,2.0,2.0,2.0,-0.2489999999999993,-0.2459999999999993,-0.2489999999999993,-0.2469999999999993,38.0,106.0,293.0,198.0,0.0,0.0,0.0,0.0,-7.847999781370163,144.20700073242188,56.73500061035156,56.685001373291016,59.47499847412109,58.84000015258789,6.089999896287917,25.0,38.0,0.0,0.0,56.73500061035156,0.0,0.0,0.0,0.0,-1111.702,-1111.702,0.0,38.0,-3.4999847412109344,0.0,0.0,19.000244140624982,2.0,25.0,78.0,0.0,0.000157284720738729,0.009190305524402196,0.0,0.0,0.0,0.0,0.0,0.0,0.0,0.0,0.6,0.009190305524402196,0.0,0.0,0.0,0.0,0.0,0.0099407165283855,0.0,0.0,53.67499923706055,0.0,61.861489916374445,77.99622605797367,0.0,77.99622605797367,0.0
61,61,0.6099407165283856,2.0,2.0,2.0,2.0,78.0,78.0,77.0,77.0,32827.0,28914.0,32848.0,28753.0,32990.0,28584.0,32768.0,29036.0,15.579748486444624,-1.146403568293595,-0.0205044603669935,0.3723026762201961,2.0,2.0,2.0,2.0,-0.2489999999999993,-0.2459999999999993,-0.2489999999999993,-0.2469999999999993,38.0,0.0,293.0,198.0,0.0,0.0,0.0,0.0,4.904999956488609,157.9409956932068,56.77000045776367,56.68999862670898,59.720001220703125,58.915000915527344,5.220000207424164,25.0,38.0,0.0,0.0,56.77000045776367,0.0,0.0,0.0,0.0,-1111.702,-1111.702,0.0,38.0,-13.49983215332101,0.0,0.0,-9.999847412110077,2.0,25.0,78.0,0.0,0.00015764583481682687,0.009347951359219023,0.0,0.0,0.0,0.0,0.0,0.0,0.0,0.0,0.61,0.009347951359219023,0.0,0.0,0.0,0.0,0.0,0.0099407165283855,0.0,0.0,53.67499923706055,0.0,61.89125455410238,77.99622424220726,0.0,77.99622424220726,0.0
62,62,0.6199407165283856,2.0,2.0,2.0,2.0,78.0,78.0,77.0,77.0,32809.0,28887.0,32869.0,28743.0,32909.0,28584.0,32768.0,29093.0,15.592282389987885,-1.1521394883020142,-0.3457210233959716,0.3766046162265106,2.0,2.0,2.0,2.0,-0.2489999999999993,-0.2459999999999993,-0.2489999999999993,-0.2469999999999993,38.0,0.0,293.0,198.0,0.0,0.0,0.0,0.0,10.790999978780746,160.8839988708496,56.90499877929688,56.845001220703125,59.630001068115234,58.86000061035156,7.829999792575835,25.0,38.0,0.0,0.0,56.90499877929688,0.0,0.0,0.0,0.0,-1111.702,-1111.702,0.0,38.0,-3.0002593994133493,0.0,0.0,10.49957275390766,2.0,25.0,78.0,0.0,0.00015788194338480646,0.00950583330260383,0.0,0.0,0.0,0.0,0.0,0.0,0.0,0.0,0.62,0.00950583330260383,0.0,0.0,0.0,0.0,0.0,0.0099407165283855,0.0,0.0,53.67499923706055,0.0,62.00602230017914,77.99621724089907,0.0,77.99621724089907,0.0
63,63,0.6299407165283856,2.0,2.0,2.0,2.0,78.0,78.0,77.0,77.0,32848.0,28881.0,32868.0,28733.0,32989.0,28677.0,32788.0,29108.0,15.606784721815634,-1.05,-0.8436480538298055,0.3734120134574513,2.0,2.0,2.0,2.0,-0.2489999999999993,-0.2459999999999993,-0.2489999999999993,-0.2469999999999993,38.0,0.0,293.0,198.0,0.0,0.0,0.0,0.0,24.52500015497208,176.57999992370603,56.935001373291016,56.95000076293945,59.15999984741211,59.04499816894531,5.220000207424164,25.0,38.0,0.0,0.0,56.935001373291016,0.0,0.0,0.0,0.0,-1111.702,-1111.702,0.0,38.0,-5.999755859374995,0.0,0.0,-2.9994964599616454,2.0,25.0,78.0,0.0,0.0001581111113230389,0.009663944413926867,0.0,0.0,0.0,0.0,0.0,0.0,0.0,0.0,0.63,0.009663944413926867,0.0,0.0,0.0,0.0,0.0,0.0099407165283855,0.0,0.0,53.67499923706055,0.0,62.031520626725076,77.9962156853956,0.0,77.9962156853956,0.0
64,64,0.6399407165283856,2.0,2.0,2.0,2.0,78.0,78.0,77.0,77.0,32807.0,28865.0,32869.0,28744.0,32990.0,28834.0,32768.0,29103.0,15.62253078178994,-0.9280767598025516,-1.247538592157959,0.3524614078420412,2.0,2.0,2.0,2.0,-0.2489999999999993,-0.2459999999999993,-0.2489999999999993,-0.2469999999999993,38.0,0.0,293.0,198.0,0.0,0.0,0.0,0.0,7.847999781370163,200.12400150299072,56.994998931884766,56.91999816894531,58.65999984741211,59.13999938964844,7.829999792575835,25.0,38.0,0.0,0.0,56.994998931884766,0.0,0.0,0.0,0.0,-1111.702,-1111.702,0.0,38.0,2.0000457763678963,0.0,0.0,7.999801635742891,2.0,25.0,78.0,0.0,0.0001582361115349665,0.009822180525461834,0.0,0.0,0.0,0.0,0.0,0.0,0.0,0.0,0.64,0.009822180525461834,0.0,0.0,0.0,0.0,0.0,0.0099407165283855,0.0,0.0,53.67499923706055,0.0,62.0825019319169,77.99621257532507,0.0,77.99621257532507,0.0
65,65,0.6499407165283856,2.0,2.0,2.0,2.0,78.0,78.0,77.0,77.0,32827.0,28878.0,32848.0,28745.0,32990.0,28844.0,32788.0,29035.0,15.63425686600316,-0.82403300168734,-1.08563698143926,0.4662970151860599,2.0,2.0,2.0,2.0,-0.2489999999999993,-0.2459999999999993,-0.2489999999999993,-0.2469999999999993,38.0,0.0,293.0,198.0,0.0,0.0,0.0,0.0,27.46799886226654,176.57999992370603,56.97499847412109,56.98500061035156,59.209999084472656,59.59999847412109,4.35,25.0,38.0,0.0,0.0,56.97499847412109,0.0,0.0,0.0,0.0,-1111.702,-1111.702,0.0,38.0,15.999984741210923,0.0,0.0,13.999938964843027,2.0,25.0,78.0,0.0,0.00015829166306389718,0.00998047218852573,0.0,0.0,0.0,0.0,0.0,0.0,0.0,0.0,0.65,0.00998047218852573,0.0,0.0,0.0,0.0,0.0,0.0099407165283855,0.0,0.0,53.67499923706055,0.0,62.06550839554131,77.99621361200107,0.0,77.99621361200107,0.0
66,66,0.6599407165283856,2.0,2.0,2.0,2.0,78.0,78.0,77.0,77.0,32827.0,28889.0,32869.0,28756.0,32950.0,28804.0,32788.0,28946.0,15.644358346349948,-0.5846916854938782,-1.0170704391413723,0.6035242492705012,2.0,2.0,2.0,2.0,-0.2489999999999993,-0.2459999999999993,-0.2489999999999993,-0.2469999999999993,38.0,0.0,293.0,198.0,0.0,0.0,0.0,0.0,1.9619999453425407,128.51099967956543,56.81499862670898,56.994998931884766,59.7599983215332,59.93999862670898,12.179999792575837,25.0,38.0,0.0,0.0,56.81499862670898,0.0,0.0,0.0,0.0,-1111.702,-1111.702,0.0,38.0,-20.000076293946005,0.0,0.0,-36.00006103515693,2.0,25.0,78.0,0.0,0.00015804166264004192,0.010138513851165772,0.0,0.0,0.0,0.0,0.0,0.0,0.0,0.0,0.66,0.010138513851165772,0.0,0.0,0.0,0.0,0.0,0.0099407165283855,0.0,0.0,53.67499923706055,0.0,61.92951605279266,77.99622190809714,0.0,77.99622190809714,0.0
67,67,0.6699407165283856,2.0,2.0,2.0,2.0,78.0,78.0,77.0,77.0,32809.0,28847.0,32848.0,28753.0,32969.0,28799.0,32768.0,28903.0,15.658692727590246,-0.3489709873775309,-1.054116050489876,0.2551450631123451,2.0,2.0,2.0,2.0,-0.2489999999999993,-0.2459999999999993,-0.2489999999999993,-0.2469999999999993,38.0,0.0,293.0,198.0,0.0,0.0,0.0,0.0,-24.52500015497208,131.45400285720825,57.01499938964844,57.09000015258789,59.72499847412109,60.01499938964844,8.7,25.0,38.0,0.0,0.0,57.01499938964844,0.0,0.0,0.0,0.0,-1111.702,-1111.702,0.0,38.0,-17.499923706053963,0.0,0.0,2.5001525878920425,2.0,25.0,78.0,0.0,0.00015809721946716325,0.010296611070632934,0.0,0.0,0.0,0.0,0.0,0.0,0.0,0.0,0.67,0.010296611070632934,0.0,0.0,0.0,0.0,0.0,0.0099407165283855,0.0,0.0,53.67499923706055,0.0,62.09949415641621,77.99621153872911,0.0,77.99621153872911,0.0
68,68,0.6799407165283856,2.0,2.0,2.0,2.0,78.0,78.0,77.0,77.0,32848.0,28826.0,32848.0,28743.0,32948.0,28778.0,32827.0,28900.0,15.679634480952831,-0.5711462777511822,-1.2411914920027023,0.3911914920027023,2.0,2.0,2.0,2.0,-0.2489999999999993,-0.2459999999999993,-0.2489999999999993,-0.2469999999999993,38.0,0.0,293.0,198.0,0.0,0.0,0.0,0.0,-1.9619999453425407,203.0669927597046,57.18999862670898,57.20000076293945,59.80500030517578,59.88999938964844,0.0,25.0,38.0,0.0,0.0,57.18999862670898,0.0,0.0,0.0,0.0,-1111.702,-1111.702,0.0,38.0,4.499816894530536,0.0,0.0,21.9997406005845,2.0,25.0,78.0,0.0,0.00015861805280049658,0.01045522912343343,0.0,0.0,0.0,0.0,0.0,0.0,0.0,0.0,0.68,0.01045522912343343,0.0,0.0,0.0,0.0,0.0,0.0099407165283855,0.0,0.0,53.67499923706055,0.0,62.248116198464714,77.9962024721709,0.0,77.9962024721709,0.0
