,Unnamed: 0,currentTime,Agp_Pos_Sp_FL,Agp_Pos_Sp_FR,Agp_Pos_Sp_RL,Agp_Pos_Sp_RR,Disc_T_Est_FL,Disc_T_Est_FR,Disc_T_Est_RL,Disc_T_Est_RR,Motor_current_FL,Wheel_Decl_FL,Motor_current_FR,Wheel_Decl_FR,Motor_current_RL,Wheel_Decl_RL,Motor_current_RR,Wheel_Decl_RR,Vehicle_speed,Gyro_Rate_Pitch,IMU_Gyro_Rate_Roll,IMU_Gyro_Rate_Yaw,RealizedClampingForce_FL,RealizedClampingForce_FR,RealizedClampingForce_RL,RealizedClampingForce_RR,Piston_position_FL,Piston_position_FR,Piston_position_RL,Piston_position_RR,CF_FL,CF_FR,CF_RL,CF_RR,ESTIMATED_PRESSURE_FL,ESTIMATED_PRESSURE_FR,ESTIMATED_PRESSURE_RL,ESTIMATED_PRESSURE_RR,LATERAL_ACCELERATION,LONGITUDINAL_ACCELERATION,Wheel_Speed_FL,Wheel_Speed_FR,Wheel_Speed_RL,Wheel_Speed_RR,Yaw_rate,Ambiant_Temperature,Init_Disc_CF_FL,POS_MEASUREREV,TMC_filtered,Vitesse_Vehicule_Roues,Pressure_Speed_FL,Position_previous_FL,POS_MEASUREREV_square,POS_MEASUREREV_cube,Estimated_CF_FL,Estimated_CF_previous_FL,Pressure_Speed_previous_FL,CF_previous_FL,Deceleration_g,PosDiff,PreDiff,DecDiff,Lookup_Table,Temp_amb_C,Initial_temp_FL,RPM,Distance_Roues_instant,Distance_Roues,Brake_apply,Brake_release,Time_since_brake_apply,Miles_since_brake_apply,Time_since_brake_release,Miles_since_brake_release,BrakingTime_2,BrakingMiles_2,TimeSinceLastBrake_2,MilesSinceLastBrake_2,Change_Position,Change_pressure,BrakingForce_2,BrakingForce_ma_2,Start_braking_time,End_braking_time,BrakeStartSpeed,LastBrakStartSpeed,LastBrakEndtSpeed,LastDeceleration,conv_heat_trans_coef,temp_change_conv_FL,disc_heating_BTM_FL,temp_change_instant_BTM_1_FL,Pressure_Speed_time_FL
0,0,-0.0039239225097844,2.0,2.0,2.0,2.0,67.0,67.0,66.0,66.0,32868.0,28605.0,32848.0,28343.0,32990.0,27594.0,32788.0,27700.0,12.5268,1.2,-0.2,-2.95,2.0,2.0,2.0,2.0,-0.2499999999999993,-0.2459999999999993,-0.2489999999999993,-0.2479999999999993,38.0,0.0,293.0,198.0,0.0,0.0,0.0,0.0,-83.38500261306763,170.69400548934937,45.36000061035156,45.625,46.92499923706055,46.875,-45.23999834060668,25.0,38.0,0.0,0.0,45.36000061035156,0.0,0.0,0.0,0.0,-1111.702,-1111.702,0.0,38.0,6.500244140625064,0.0,0.0,0.0,2.0,25.0,67.0,0.0,0.0,0.0,0.0,0.0,0.0,0.0,0.0,0.0,0.0,0.0,0.0,0.0,0.0,0.0,0.0,0.0,0.0,0.0,0.0,0.0,0.0,0.0,0.0,0.0,0.0,0.0,0.0
1,1,0.0060760774902155,2.0,2.0,2.0,2.0,67.0,67.0,66.0,66.0,32868.0,28606.0,32848.0,28350.0,32990.0,27625.0,32788.0,27598.0,12.53503846655928,0.9093449029479574,0.017991322789032,-2.8046724514739787,2.0,2.0,2.0,2.0,-0.2499999999999993,-0.2459999999999993,-0.2489999999999993,-0.2479999999999993,38.0,0.0,293.0,198.0,0.0,0.0,0.0,0.0,-24.52500015497208,163.82700204849243,45.29499816894531,45.51499938964844,46.90499877929688,47.970001220703125,-51.33000082969665,25.0,38.0,0.0,0.0,45.29499816894531,0.0,0.0,0.0,0.0,-1111.702,-1111.702,0.0,38.0,-0.5001068115234374,0.0,0.0,-7.0003509521485014,2.0,25.0,67.0,0.0,0.00012590972052679998,0.00012590972052679998,0.0,0.0,0.0,0.0,0.0,0.0,0.0,0.0,0.009999999999999901,0.00012590972052679998,0.0,0.0,0.0,0.0,0.0,0.0060760774902155,0.0,0.0,45.36000061035156,7465.342679285478,51.89622144038509,66.99749108181979,0.0,66.99749108181979,0.0
2,2,0.0160760774902155,2.0,2.0,2.0,2.0,67.0,67.0,66.0,66.0,32868.0,28651.0,32827.0,28351.0,32948.0,27573.0,32768.0,27489.0,12.545223493542434,0.4777217959824393,0.3506608253469917,-2.964852136011708,2.0,2.0,2.0,2.0,-0.2499999999999993,-0.2459999999999993,-0.2489999999999993,-0.2479999999999993,38.0,0.0,293.0,198.0,0.0,0.0,0.0,0.0,-27.46799886226654,124.58699941635132,45.29999923706055,45.584999084472656,47.16999816894531,48.59999847412109,-47.85,25.0,38.0,0.0,0.0,45.29999923706055,0.0,0.0,0.0,0.0,-1111.702,-1111.702,0.0,38.0,4.999923706054688,0.0,0.0,5.500030517578126,2.0,25.0,67.0,0.0,0.00012582638528611928,0.00025173610581291926,0.0,0.0,0.0,0.0,0.0,0.0,0.0,0.0,0.019999999999999903,0.00025173610581291926,0.0,0.0,0.0,0.0,0.0,0.0060760774902155,0.0,0.0,45.36000061035156,0.0,51.90069072064881,66.99749086575929,0.0,66.99749086575929,0.0
3,3,0.0260760774902155,2.0,2.0,2.0,2.0,67.0,67.0,66.0,66.0,32847.0,28696.0,32827.0,28340.0,32990.0,27465.0,32788.0,27474.0,12.560379054954796,0.3859729939249345,0.378054012150131,-2.546378085050917,2.0,2.0,2.0,2.0,-0.2499999999999993,-0.2459999999999993,-0.2489999999999993,-0.2479999999999993,38.0,0.0,293.0,198.0,0.0,0.0,0.0,0.0,-53.95500063896179,163.82700204849243,45.25,45.720001220703125,47.93000030517578,48.540000915527344,-53.06999917030334,25.0,38.0,0.0,0.0,45.25,0.0,0.0,0.0,0.0,-1111.702,-1111.702,0.0,38.0,26.499938964843754,0.0,0.0,21.500015258789066,2.0,25.0,67.0,0.0,0.00012576388782925075,0.00037749999364217,0.0,0.0,0.0,0.0,0.0,0.0,0.0,0.0,0.029999999999999902,0.00037749999364217,0.0,0.0,0.0,0.0,0.0,0.0060760774902155,0.0,0.0,45.36000061035156,0.0,51.85600326051026,66.99749302610607,0.0,66.99749302610607,0.0
4,4,0.0360760774902155,2.0,2.0,2.0,2.0,67.0,67.0,66.0,66.0,32868.0,28757.0,32848.0,28327.0,32990.0,27357.0,32768.0,27499.0,12.577159036292386,-0.0352057196807701,-0.1214728629875009,-2.531335716533654,2.0,2.0,2.0,2.0,-0.2499999999999993,-0.2459999999999993,-0.2489999999999993,-0.2479999999999993,38.0,0.0,293.0,198.0,0.0,0.0,0.0,0.0,-50.03100037574768,206.0100078582764,44.98500061035156,45.79499816894531,48.400001525878906,48.07500076293945,-40.88999834060669,25.0,38.0,0.0,0.0,44.98500061035156,0.0,0.0,0.0,0.0,-1111.702,-1111.702,0.0,38.0,-8.499908447265623,0.0,0.0,-34.999847412109375,2.0,25.0,67.0,0.0,0.00012532638973659937,0.0005028263833787693,0.0,0.0,0.0,0.0,0.0,0.0,0.0,0.0,0.0399999999999999,0.0005028263833787693,0.0,0.0,0.0,0.0,0.0,0.0060760774902155,0.0,0.0,45.36000061035156,0.0,51.61897491605865,66.99750448487998,0.0,66.99750448487998,0.0
5,5,0.0460760774902155,2.0,2.0,2.0,2.0,67.0,67.0,66.0,66.0,32868.0,28787.0,32869.0,28310.0,32990.0,27422.0,32788.0,27528.0,12.595368377372822,-0.1273293509491596,-1.3537244112371851,-2.381988052847479,2.0,2.0,2.0,2.0,-0.2499999999999993,-0.2459999999999993,-0.2489999999999993,-0.2479999999999993,38.0,0.0,293.0,198.0,0.0,0.0,0.0,0.0,-31.39199912548065,212.8770112991333,45.06999969482422,45.91999816894531,48.380001068115234,47.900001525878906,-45.23999834060668,25.0,38.0,0.0,0.0,45.06999969482422,0.0,0.0,0.0,0.0,-1111.702,-1111.702,0.0,38.0,-18.00003051757812,0.0,0.0,-9.500122070312498,2.0,25.0,67.0,0.0,0.00012507638931274416,0.0006279027726915135,0.0,0.0,0.0,0.0,0.0,0.0,0.0,0.0,0.0499999999999999,0.0006279027726915135,0.0,0.0,0.0,0.0,0.0,0.0060760774902155,0.0,0.0,45.36000061035156,0.0,51.695035611117945,66.9975008078413,0.0,66.9975008078413,0.0
6,6,0.0560760774902155,2.0,2.0,2.0,2.0,67.0,67.0,66.0,66.0,32847.0,28818.0,32848.0,28297.0,32990.0,27575.0,32747.0,27531.0,12.613141951361014,-0.1,-1.495617201462581,-2.227319200417881,2.0,2.0,2.0,2.0,-0.2499999999999993,-0.2459999999999993,-0.2489999999999993,-0.2479999999999993,38.0,0.0,293.0,198.0,0.0,0.0,0.0,0.0,-41.20199978351593,228.57298851013184,45.25,46.04499816894531,47.41999816894531,47.90499877929688,-40.01999917030334,25.0,38.0,0.0,0.0,45.25,0.0,0.0,0.0,0.0,-1111.702,-1111.702,0.0,38.0,-6.000137329101562,0.0,0.0,11.999893188476559,2.0,25.0,67.0,0.0,0.00012544444402058923,0.0007533472167121027,0.0,0.0,0.0,0.0,0.0,0.0,0.0,0.0,0.0599999999999999,0.0007533472167121027,0.0,0.0,0.0,0.0,0.0,0.0060760774902155,0.0,0.0,45.36000061035156,0.0,51.85600326051026,66.99749302610607,0.0,66.99749302610607,0.0
7,7,0.0660760774902155,2.0,2.0,2.0,2.0,67.0,67.0,66.0,66.0,32847.0,28814.0,32848.0,28295.0,32990.0,27673.0,32788.0,27538.0,12.628395227764717,-0.6442498364648983,-1.218583387845034,-2.272566644861987,2.0,2.0,2.0,2.0,-0.2499999999999993,-0.2459999999999993,-0.2489999999999993,-0.2479999999999993,38.0,0.0,293.0,198.0,0.0,0.0,0.0,0.0,-63.76500129699707,209.93399620056152,45.310001373291016,46.025001525878906,47.1150016784668,47.994998931884766,-38.280000829696654,25.0,38.0,0.0,0.0,45.310001373291016,0.0,0.0,0.0,0.0,-1111.702,-1111.702,0.0,38.0,-28.49998474121095,0.0,0.0,-22.49984741210939,2.0,25.0,67.0,0.0,0.00012577777968512642,0.0008791249963972292,0.0,0.0,0.0,0.0,0.0,0.0,0.0,0.0,0.0699999999999999,0.0008791249963972292,0.0,0.0,0.0,0.0,0.0,0.0060760774902155,0.0,0.0,45.36000061035156,0.0,51.909628955548555,66.99749043365404,0.0,66.99749043365404,0.0
8,8,0.0760760774902155,2.0,2.0,2.0,2.0,67.0,67.0,66.0,66.0,32827.0,28802.0,32827.0,28316.0,32969.0,27653.0,32768.0,27587.0,12.641265049037834,-0.85,-1.1857969907641148,-2.156812036943541,2.0,2.0,2.0,2.0,-0.2499999999999993,-0.2459999999999993,-0.2489999999999993,-0.2479999999999993,38.0,0.0,293.0,198.0,0.0,0.0,0.0,0.0,-89.27099704742432,180.50400018692017,45.595001220703125,46.01499938964844,47.29999923706055,48.02999877929688,-40.01999917030334,25.0,38.0,0.0,0.0,45.595001220703125,0.0,0.0,0.0,0.0,-1111.702,-1111.702,0.0,38.0,-18.49975585937572,0.0,0.0,10.00022888183523,2.0,25.0,67.0,0.0,0.00012625694804721402,0.0010053819444444433,0.0,0.0,0.0,0.0,0.0,0.0,0.0,0.0,0.07999999999999989,0.0010053819444444433,0.0,0.0,0.0,0.0,0.0,0.0060760774902155,0.0,0.0,45.36000061035156,0.0,52.16413215925098,66.99747813008892,0.0,66.99747813008892,0.0
9,9,0.0860760774902155,2.0,2.0,2.0,2.0,67.0,67.0,66.0,66.0,32827.0,28772.0,32869.0,28322.0,32950.0,27563.0,32747.0,27665.0,12.653452500652884,-0.7777620132067871,-0.9832860396203612,-2.20835698018982,2.0,2.0,2.0,2.0,-0.2499999999999993,-0.2459999999999993,-0.2489999999999993,-0.2479999999999993,38.0,0.0,293.0,198.0,0.0,0.0,0.0,0.0,-76.5179991722107,163.82700204849243,45.77999877929688,45.9900016784668,48.04999923706055,47.790000915527344,-36.53999834060669,25.0,38.0,0.0,0.0,45.77999877929688,0.0,0.0,0.0,0.0,-1111.702,-1111.702,0.0,38.0,-4.000091552733661,0.0,0.0,14.49966430664206,2.0,25.0,67.0,0.0,0.00012690972222222216,0.0011322916666666656,0.0,0.0,0.0,0.0,0.0,0.0,0.0,0.0,0.08999999999999989,0.0011322916666666656,0.0,0.0,0.0,0.0,0.0,0.0060760774902155,0.0,0.0,45.36000061035156,0.0,52.32914654171881,66.99747015272487,0.0,66.99747015272487,0.0
10,10,0.0960760774902155,2.0,2.0,2.0,2.0,67.0,67.0,66.0,66.0,32848.0,28740.0,32827.0,28341.0,32948.0,27431.0,32747.0,27739.0,12.66682219685222,-1.1494972871914548,-0.682092388804661,-2.104728259203107,2.0,2.0,2.0,2.0,-0.2499999999999993,-0.2459999999999993,-0.2489999999999993,-0.2479999999999993,38.0,0.0,293.0,198.0,0.0,0.0,0.0,0.0,-63.76500129699707,157.9409956932068,45.81999969482422,46.02999877929688,48.630001068115234,47.709999084472656,-39.15,25.0,38.0,0.0,0.0,45.81999969482422,0.0,0.0,0.0,0.0,-1111.702,-1111.702,0.0,38.0,-13.999938964843757,0.0,0.0,-9.999847412110096,2.0,25.0,67.0,0.0,0.0001272222201029461,0.0012595138867696116,0.0,0.0,0.0,0.0,0.0,0.0,0.0,0.0,0.0999999999999999,0.0012595138867696116,0.0,0.0,0.0,0.0,0.0,0.0060760774902155,0.0,0.0,45.36000061035156,0.0,52.36480730873845,66.99746842876067,0.0,66.99746842876067,0.0
11,11,0.1060760774902155,2.0,2.0,2.0,2.0,67.0,67.0,66.0,66.0,32827.0,28735.0,32827.0,28346.0,33010.0,27415.0,32747.0,27744.0,12.682565639338174,-1.1183259338714546,-0.4183259338714546,-1.831991120645745,2.0,2.0,2.0,2.0,-0.2499999999999993,-0.2459999999999993,-0.2489999999999993,-0.2479999999999993,38.0,0.0,293.0,198.0,0.0,0.0,0.0,0.0,-76.5179991722107,180.50400018692017,45.959999084472656,46.025001525878906,48.90999984741211,47.790000915527344,-35.66999917030334,25.0,38.0,0.0,0.0,45.959999084472656,0.0,0.0,0.0,0.0,-1111.702,-1111.702,0.0,38.0,8.499908447265618,0.0,0.0,22.499847412109375,2.0,25.0,67.0,0.0,0.00012747222052680114,0.0013869861072964128,0.0,0.0,0.0,0.0,0.0,0.0,0.0,0.0,0.10999999999999989,0.0013869861072964128,0.0,0.0,0.0,0.0,0.0,0.0060760774902155,0.0,0.0,45.36000061035156,0.0,52.48956271206972,66.99746239765571,0.0,66.99746239765571,0.0
12,12,0.1160760774902155,2.0,2.0,2.0,2.0,67.0,67.0,66.0,66.0,32827.0,28725.0,32827.0,28342.0,32990.0,27468.0,32768.0,27689.0,12.69926488656933,-1.8378474721835176,-0.2067550050575422,-1.821622497471229,2.0,2.0,2.0,2.0,-0.2499999999999993,-0.2459999999999993,-0.2489999999999993,-0.2479999999999993,38.0,0.0,293.0,198.0,0.0,0.0,0.0,0.0,-53.95500063896179,206.0100078582764,45.875,46.209999084472656,48.41999816894531,48.22499847412109,-30.45,25.0,38.0,0.0,0.0,45.875,0.0,0.0,0.0,0.0,-1111.702,-1111.702,0.0,38.0,5.500030517578136,0.0,0.0,-2.9998779296874822,2.0,25.0,67.0,0.0,0.00012754860983954549,0.0015145347171359584,0.0,0.0,0.0,0.0,0.0,0.0,0.0,0.0,0.1199999999999999,0.0015145347171359584,0.0,0.0,0.0,0.0,0.0,0.0060760774902155,0.0,0.0,45.36000061035156,0.0,52.41382883289726,66.9974660588916,0.0,66.9974660588916,0.0
13,13,0.1260760774902155,2.0,2.0,2.0,2.0,67.0,67.0,66.0,66.0,32827.0,28742.0,32827.0,28370.0,32969.0,27547.0,32808.0,27574.0,12.71273475520148,-2.3667563541463794,0.3196387673171553,-1.524865468780431,2.0,2.0,2.0,2.0,-0.2499999999999993,-0.2459999999999993,-0.2489999999999993,-0.2479999999999993,38.0,0.0,293.0,198.0,0.0,0.0,0.0,0.0,-56.89799785614014,196.2000012397766,45.81999969482422,46.23500061035156,48.03499984741211,48.78499984741211,-32.19000041484833,25.0,38.0,0.0,0.0,45.81999969482422,0.0,0.0,0.0,0.0,-1111.702,-1111.702,0.0,38.0,-12.49999999999999,0.0,0.0,-18.000030517578125,2.0,25.0,67.0,0.0,0.00012735416624281117,0.0016418888833787696,0.0,0.0,0.0,0.0,0.0,0.0,0.0,0.0,0.1299999999999999,0.0016418888833787696,0.0,0.0,0.0,0.0,0.0,0.0060760774902155,0.0,0.0,45.36000061035156,0.0,52.36480730873845,66.99746842876067,0.0,66.99746842876067,0.0
14,14,0.1360760774902155,2.0,2.0,2.0,2.0,67.0,67.0,66.0,66.0,32847.0,28729.0,32827.0,28376.0,32948.0,27555.0,32768.0,27453.0,12.723085436241202,-2.195677118508821,0.1730134380827692,-1.6543228814911797,2.0,2.0,2.0,2.0,-0.2499999999999993,-0.2459999999999993,-0.2489999999999993,-0.2479999999999993,38.0,0.0,293.0,198.0,0.0,0.0,0.0,0.0,-89.27099704742432,154.01699542999268,45.94499969482422,46.19499969482422,47.915000915527344,49.23500061035156,-24.35999958515167,25.0,38.0,0.0,0.0,45.94499969482422,0.0,0.0,0.0,0.0,-1111.702,-1111.702,0.0,38.0,-6.000137329101557,0.0,0.0,6.499862670898432,2.0,25.0,67.0,0.0,0.0001274513880411785,0.001769340271419948,0.0,0.0,0.0,0.0,0.0,0.0,0.0,0.0,0.1399999999999999,0.001769340271419948,0.0,0.0,0.0,0.0,0.0,0.0060760774902155,0.0,0.0,45.36000061035156,0.0,52.476200550280296,66.99746304362849,0.0,66.99746304362849,0.0
15,15,0.1460760774902155,2.0,2.0,2.0,2.0,67.0,67.0,66.0,66.0,32827.0,28698.0,32827.0,28389.0,32969.0,27487.0,32768.0,27430.0,12.734034851845356,-2.1,0.0136621832736419,-2.0770403505372226,2.0,2.0,2.0,2.0,-0.2499999999999993,-0.2459999999999993,-0.2489999999999993,-0.2479999999999993,38.0,0.0,293.0,198.0,0.0,0.0,0.0,0.0,-76.5179991722107,138.32099437713623,46.005001068115234,46.32500076293945,48.38999938964844,49.35499954223633,-30.45,25.0,38.0,0.0,0.0,46.005001068115234,0.0,0.0,0.0,0.0,-1111.702,-1111.702,0.0,38.0,-23.500061035156293,0.0,0.0,-17.499923706054737,2.0,25.0,67.0,0.0,0.0001277083343929716,0.0018970486058129197,0.0,0.0,0.0,0.0,0.0,0.0,0.0,0.0,0.1499999999999999,0.0018970486058129197,0.0,0.0,0.0,0.0,0.0,0.0060760774902155,0.0,0.0,45.36000061035156,0.0,52.52964684031898,66.99746045985135,0.0,66.99746045985135,0.0
16,16,0.1560760774902155,2.0,2.0,2.0,2.0,67.0,67.0,66.0,66.0,32847.0,28662.0,32786.0,28402.0,32990.0,27331.0,32809.0,27521.0,12.747170641444924,-2.2454188028703848,0.327192306458365,-2.127290598564808,2.0,2.0,2.0,2.0,-0.2499999999999993,-0.2459999999999993,-0.2489999999999993,-0.2479999999999993,38.0,0.0,293.0,198.0,0.0,0.0,0.0,0.0,-79.46100234985352,157.9409956932068,46.2400016784668,46.334999084472656,48.994998931884766,48.85499954223633,-38.280000829696654,25.0,38.0,0.0,0.0,46.2400016784668,0.0,0.0,0.0,0.0,-1111.702,-1111.702,0.0,38.0,-2.4997711181640603,0.0,0.0,21.000289916992234,2.0,25.0,67.0,0.0,0.00012811805937025257,0.002025166665183172,0.0,0.0,0.0,0.0,0.0,0.0,0.0,0.0,0.1599999999999999,0.002025166665183172,0.0,0.0,0.0,0.0,0.0,0.0060760774902155,0.0,0.0,45.36000061035156,0.0,52.73882649287465,66.99745034739043,0.0,66.99745034739043,0.0
17,17,0.1660760774902155,2.0,2.0,2.0,2.0,67.0,67.0,66.0,66.0,32889.0,28696.0,32827.0,28435.0,33010.0,27208.0,32788.0,27669.0,12.76077124760026,-2.013353293239469,-0.5174326353167902,-2.565800898485862,2.0,2.0,2.0,2.0,-0.2499999999999993,-0.2459999999999993,-0.2489999999999993,-0.2479999999999993,38.0,0.0,293.0,198.0,0.0,0.0,0.0,0.0,-76.5179991722107,173.63699674606323,46.26499938964844,46.310001373291016,49.584999084472656,48.15499877929688,-36.53999834060669,25.0,38.0,0.0,0.0,46.26499938964844,0.0,0.0,0.0,0.0,-1111.702,-1111.702,0.0,38.0,19.499969482421857,0.0,0.0,21.999740600585916,2.0,25.0,67.0,0.0,0.00012847916815016017,0.002153645833333332,0.0,0.0,0.0,0.0,0.0,0.0,0.0,0.0,0.1699999999999999,0.002153645833333332,0.0,0.0,0.0,0.0,0.0,0.0060760774902155,0.0,0.0,45.36000061035156,0.0,52.76106377204178,66.99744927236432,0.0,66.99744927236432,0.0
18,18,0.1760760774902155,2.0,2.0,2.0,2.0,67.0,67.0,66.0,66.0,32847.0,28679.0,32807.0,28465.0,32948.0,27111.0,32768.0,27766.0,12.77351858289812,-1.9715447091292808,-0.9,-2.71422764543536,2.0,2.0,2.0,2.0,-0.2499999999999993,-0.2459999999999993,-0.2489999999999993,-0.2479999999999993,38.0,0.0,293.0,198.0,0.0,0.0,0.0,0.0,-69.65100169181824,170.69400548934937,46.06999969482422,46.32500076293945,49.630001068115234,47.88999938964844,-47.85,25.0,38.0,0.0,0.0,46.06999969482422,0.0,0.0,0.0,0.0,-1111.702,-1111.702,0.0,38.0,-29.00009155273435,0.0,0.0,-48.50006103515621,2.0,25.0,67.0,0.0,0.00012824305428398993,0.002281888887617322,0.0,0.0,0.0,0.0,0.0,0.0,0.0,0.0,0.1799999999999999,0.002281888887617322,0.0,0.0,0.0,0.0,0.0,0.0060760774902155,0.0,0.0,45.36000061035156,0.0,52.58752713817589,66.99745766171925,0.0,66.99745766171925,0.0
19,19,0.1860760774902155,2.0,2.0,2.0,2.0,67.0,67.0,66.0,66.0,32868.0,28634.0,32848.0,28482.0,32969.0,27113.0,32809.0,27800.0,12.786435382456512,-2.0,-0.863801306584937,-2.3380130658493705,2.0,2.0,2.0,2.0,-0.2499999999999993,-0.2459999999999993,-0.2489999999999993,-0.2479999999999993,38.0,0.0,293.0,198.0,0.0,0.0,0.0,0.0,-56.89799785614014,134.39699411392212,46.36000061035156,46.34000015258789,49.54999923706055,48.03499984741211,-46.98000082969665,25.0,38.0,0.0,0.0,46.36000061035156,0.0,0.0,0.0,0.0,-1111.702,-1111.702,0.0,38.0,-7.999801635741492,0.0,0.0,21.00028991699286,2.0,25.0,67.0,0.0,0.00012837500042385538,0.002410263888041177,0.0,0.0,0.0,0.0,0.0,0.0,0.0,0.0,0.18999999999999992,0.002410263888041177,0.0,0.0,0.0,0.0,0.0,0.0060760774902155,0.0,0.0,45.36000061035156,0.0,52.845550160383425,66.9974451880037,0.0,66.9974451880037,0.0
20,20,0.1960760774902155,2.0,2.0,2.0,2.0,67.0,67.0,66.0,66.0,32827.0,28613.0,32848.0,28499.0,33010.0,27171.0,32808.0,27746.0,12.80292864635882,-1.4188655674726962,-0.2325446654397397,-2.3816045101647827,2.0,2.0,2.0,2.0,-0.2499999999999993,-0.2459999999999993,-0.2489999999999993,-0.2479999999999993,38.0,0.0,293.0,198.0,0.0,0.0,0.0,0.0,-63.76500129699707,160.8839988708496,46.43999862670898,46.45000076293945,48.994998931884766,48.584999084472656,-38.280000829696654,25.0,38.0,0.0,0.0,46.43999862670898,0.0,0.0,0.0,0.0,-1111.702,-1111.702,0.0,38.0,-2.0000457763678963,0.0,0.0,5.999755859373596,2.0,25.0,67.0,0.0,0.0001288888878292505,0.0025391527758704276,0.0,0.0,0.0,0.0,0.0,0.0,0.0,0.0,0.1999999999999999,0.0025391527758704276,0.0,0.0,0.0,0.0,0.0,0.0060760774902155,0.0,0.0,45.36000061035156,0.0,52.91666437635163,66.99744175009988,0.0,66.99744175009988,0.0
21,21,0.2060760774902155,2.0,2.0,2.0,2.0,67.0,67.0,66.0,66.0,32809.0,28608.0,32848.0,28514.0,32948.0,27281.0,32768.0,27657.0,12.81947028093059,-1.1273553943079109,0.0,-2.4863223028460446,2.0,2.0,2.0,2.0,-0.2499999999999993,-0.2459999999999993,-0.2489999999999993,-0.2479999999999993,38.0,0.0,293.0,198.0,0.0,0.0,0.0,0.0,-37.27799952030182,193.2569980621338,46.459999084472656,46.51499938964844,48.650001525878906,49.11000061035156,-42.630000829696655,25.0,38.0,0.0,0.0,46.459999084472656,0.0,0.0,0.0,0.0,-1111.702,-1111.702,0.0,38.0,3.4999847412109344,0.0,0.0,5.50003051757883,2.0,25.0,67.0,0.0,0.00012902777459886352,0.0026681805504692913,0.0,0.0,0.0,0.0,0.0,0.0,0.0,0.0,0.2099999999999999,0.0026681805504692913,0.0,0.0,0.0,0.0,0.0,0.0060760774902155,0.0,0.0,45.36000061035156,0.0,52.934439565446404,66.99744089078663,0.0,66.99744089078663,0.0
22,22,0.2160760774902155,2.0,2.0,2.0,2.0,67.0,67.0,66.0,66.0,32827.0,28640.0,32827.0,28527.0,32990.0,27318.0,32788.0,27531.0,12.833484270573766,-1.2799209209459923,0.8636204205407633,-2.5,2.0,2.0,2.0,2.0,-0.2499999999999993,-0.2459999999999993,-0.2489999999999993,-0.2479999999999993,38.0,0.0,293.0,198.0,0.0,0.0,0.0,0.0,-27.46799886226654,173.63699674606323,46.42499923706055,46.56499862670898,48.40499877929688,49.59000015258789,-43.5,25.0,38.0,0.0,0.0,46.42499923706055,0.0,0.0,0.0,0.0,-1111.702,-1111.702,0.0,38.0,8.499908447265641,0.0,0.0,4.999923706054707,2.0,25.0,67.0,0.0,0.0001290069421132407,0.002797187492582532,0.0,0.0,0.0,0.0,0.0,0.0,0.0,0.0,0.21999999999999992,0.002797187492582532,0.0,0.0,0.0,0.0,0.0,0.0060760774902155,0.0,0.0,45.36000061035156,0.0,52.90333272696133,66.99744239459727,0.0,66.99744239459727,0.0
23,23,0.2260760774902155,2.0,2.0,2.0,2.0,67.0,67.0,66.0,66.0,32847.0,28627.0,32827.0,28539.0,32990.0,27290.0,32788.0,27444.0,12.845988715225907,-1.1715073059530916,1.307095616428145,-2.5,2.0,2.0,2.0,2.0,-0.2499999999999993,-0.2459999999999993,-0.2489999999999993,-0.2479999999999993,38.0,0.0,293.0,198.0,0.0,0.0,0.0,0.0,-41.20199978351593,141.26399755477905,46.34000015258789,46.65499877929688,48.85499954223633,49.935001373291016,-43.5,25.0,38.0,0.0,0.0,46.34000015258789,0.0,0.0,0.0,0.0,-1111.702,-1111.702,0.0,38.0,-7.99980163574218,0.0,0.0,-16.49971008300782,2.0,25.0,67.0,0.0,0.00012884027693006703,0.002926027769512599,0.0,0.0,0.0,0.0,0.0,0.0,0.0,0.0,0.2299999999999999,0.002926027769512599,0.0,0.0,0.0,0.0,0.0,0.0060760774902155,0.0,0.0,45.36000061035156,0.0,52.82776654152414,66.99744604772455,0.0,66.99744604772455,0.0
24,24,0.2360760774902155,2.0,2.0,2.0,2.0,67.0,67.0,66.0,66.0,32827.0,28668.0,32827.0,28573.0,32948.0,27155.0,32768.0,27415.0,12.86275347360782,-0.8468374531457942,0.988339218779706,-3.042491171830441,2.0,2.0,2.0,2.0,-0.2499999999999993,-0.2459999999999993,-0.2489999999999993,-0.2479999999999993,38.0,0.0,293.0,198.0,0.0,0.0,0.0,0.0,-59.84100103378296,134.39699411392212,46.41999816894531,46.650001525878906,49.380001068115234,49.79999923706055,-43.5,25.0,38.0,0.0,0.0,46.41999816894531,0.0,0.0,0.0,0.0,-1111.702,-1111.702,0.0,38.0,6.499862670898432,0.0,0.0,14.499664306640613,2.0,25.0,67.0,0.0,0.00012883333100212956,0.0030548611005147283,0.0,0.0,0.0,0.0,0.0,0.0,0.0,0.0,0.2399999999999999,0.0030548611005147283,0.0,0.0,0.0,0.0,0.0,0.0060760774902155,0.0,0.0,45.36000061035156,0.0,52.898887503012,66.99744260949456,0.0,66.99744260949456,0.0
25,25,0.2460760774902155,2.0,2.0,2.0,2.0,67.0,67.0,66.0,66.0,32868.0,28666.0,32786.0,28587.0,32948.0,26938.0,32788.0,27434.0,12.880304906188302,-0.9319727016672394,-0.1690471293365406,-2.74047643533173,2.0,2.0,2.0,2.0,-0.2499999999999993,-0.2459999999999993,-0.2489999999999993,-0.2479999999999993,38.0,0.0,293.0,198.0,0.0,0.0,0.0,0.0,-27.46799886226654,163.82700204849243,46.35499954223633,46.63999938964844,50.36000061035156,49.54499816894531,-56.55,25.0,38.0,0.0,0.0,46.35499954223633,0.0,0.0,0.0,0.0,-1111.702,-1111.702,0.0,38.0,-2.0000457763671915,0.0,0.0,-8.499908447265623,2.0,25.0,67.0,0.0,0.0001288541634877524,0.0031837152640024806,0.0,0.0,0.0,0.0,0.0,0.0,0.0,0.0,0.24999999999999992,0.0031837152640024806,0.0,0.0,0.0,0.0,0.0,0.0060760774902155,0.0,0.0,45.36000061035156,0.0,52.841103565984234,66.99744540296726,0.0,66.99744540296726,0.0
26,26,0.2560760774902155,2.0,2.0,2.0,2.0,67.0,67.0,66.0,66.0,32847.0,28672.0,32827.0,28615.0,32990.0,26880.0,32788.0,27445.0,12.897715738108298,-0.3808660724596311,-0.8413571423719384,-2.659258928389477,2.0,2.0,2.0,2.0,-0.2499999999999993,-0.2459999999999993,-0.2489999999999993,-0.2479999999999993,38.0,0.0,293.0,198.0,0.0,0.0,0.0,0.0,-27.46799886226654,154.01699542999268,46.375,46.7599983215332,50.560001373291016,49.334999084472656,-44.36999917030334,25.0,38.0,0.0,0.0,46.375,0.0,0.0,0.0,0.0,-1111.702,-1111.702,0.0,38.0,-18.99986267089771,0.0,0.0,-16.999816894530518,2.0,25.0,67.0,0.0,0.00012879166603088353,0.0033125069300333643,0.0,0.0,0.0,0.0,0.0,0.0,0.0,0.0,0.2599999999999999,0.0033125069300333643,0.0,0.0,0.0,0.0,0.0,0.0060760774902155,0.0,0.0,45.36000061035156,0.0,52.858885918997274,66.99744454330761,0.0,66.99744454330761,0.0
27,27,0.2660760774902155,2.0,2.0,2.0,2.0,67.0,67.0,66.0,66.0,32827.0,28681.0,32827.0,28605.0,32948.0,26887.0,32788.0,27433.0,12.91678677281505,0.1411757453538989,-1.4231605862000858,-2.9911757453538987,2.0,2.0,2.0,2.0,-0.2499999999999993,-0.2459999999999993,-0.2489999999999993,-0.2479999999999993,38.0,0.0,293.0,198.0,0.0,0.0,0.0,0.0,-50.03100037574768,167.75100231170654,46.56499862670898,46.7400016784668,50.06999969482422,49.39500045776367,-46.98000082969665,25.0,38.0,0.0,0.0,46.56499862670898,0.0,0.0,0.0,0.0,-1111.702,-1111.702,0.0,38.0,-3.0002593994147704,0.0,0.0,15.99960327148294,2.0,25.0,67.0,0.0,0.00012908333142598483,0.003441590261459349,0.0,0.0,0.0,0.0,0.0,0.0,0.0,0.0,0.2699999999999999,0.003441590261459349,0.0,0.0,0.0,0.0,0.0,0.0060760774902155,0.0,0.0,45.36000061035156,0.0,53.027729169765195,66.99743638084942,0.0,66.99743638084942,0.0
28,28,0.2760760774902155,2.0,2.0,2.0,2.0,67.0,67.0,66.0,66.0,32847.0,28688.0,32827.0,28617.0,32969.0,27004.0,32788.0,27387.0,12.935588602090384,0.0146806392720116,-1.8353193607279883,-2.696595381609163,2.0,2.0,2.0,2.0,-0.2499999999999993,-0.2459999999999993,-0.2489999999999993,-0.2479999999999993,38.0,0.0,293.0,198.0,0.0,0.0,0.0,0.0,-34.334999322891235,180.50400018692017,46.595001220703125,46.97999954223633,49.59000015258789,49.6150016784668,-53.939998340606685,25.0,38.0,0.0,0.0,46.595001220703125,0.0,0.0,0.0,0.0,-1111.702,-1111.702,0.0,38.0,-6.499862670898432,0.0,0.0,-3.499603271483662,2.0,25.0,67.0,0.0,0.0001293888886769614,0.0035709791501363102,0.0,0.0,0.0,0.0,0.0,0.0,0.0,0.0,0.2799999999999999,0.0035709791501363102,0.0,0.0,0.0,0.0,0.0,0.0060760774902155,0.0,0.0,45.36000061035156,0.0,53.05437725870536,66.99743509259011,0.0,66.99743509259011,0.0
29,29,0.2860760774902155,2.0,2.0,2.0,2.0,67.0,67.0,66.0,66.0,32847.0,28708.0,32827.0,28626.0,32969.0,27128.0,32809.0,27276.0,12.953148405928546,0.1450387848728001,-2.0200110813922283,-2.6050166220883426,2.0,2.0,2.0,2.0,-0.2499999999999993,-0.2459999999999993,-0.2489999999999993,-0.2479999999999993,38.0,0.0,293.0,198.0,0.0,0.0,0.0,0.0,-37.27799952030182,173.63699674606323,46.65999984741211,46.93000030517578,48.970001220703125,49.95500183105469,-43.5,25.0,38.0,0.0,0.0,46.65999984741211,0.0,0.0,0.0,0.0,-1111.702,-1111.702,0.0,38.0,0.9998321533203172,0.0,0.0,7.499694824218749,2.0,25.0,67.0,0.0,0.00012952083481682685,0.003700499984953137,0.0,0.0,0.0,0.0,0.0,0.0,0.0,0.0,0.2899999999999999,0.003700499984953137,0.0,0.0,0.0,0.0,0.0,0.0060760774902155,0.0,0.0,45.36000061035156,0.0,53.11209563019347,66.99743230228778,0.0,66.99743230228778,0.0
30,30,0.2960760774902155,2.0,2.0,2.0,2.0,67.0,67.0,66.0,66.0,32848.0,28697.0,32827.0,28623.0,32969.0,27274.0,32788.0,27189.0,12.967261364724614,-0.0771496671070519,-1.541100517833475,-2.686349963011895,2.0,2.0,2.0,2.0,-0.2499999999999993,-0.2459999999999993,-0.2489999999999993,-0.2479999999999993,38.0,0.0,293.0,198.0,0.0,0.0,0.0,0.0,-56.89799785614014,131.45400285720825,46.650001525878906,46.97499847412109,48.834999084472656,50.34999847412109,-46.11000165939331,25.0,38.0,0.0,0.0,46.650001525878906,0.0,0.0,0.0,0.0,-1111.702,-1111.702,0.0,38.0,-20.49980163574217,0.0,0.0,-21.499633789062486,2.0,25.0,67.0,0.0,0.00012959722412957025,0.0038300972090827075,0.0,0.0,0.0,0.0,0.0,0.0,0.0,0.0,0.2999999999999999,0.0038300972090827075,0.0,0.0,0.0,0.0,0.0,0.0060760774902155,0.0,0.0,45.36000061035156,0.0,53.103218335364865,66.99743273144638,0.0,66.99743273144638,0.0
31,31,0.3060760774902155,2.0,2.0,2.0,2.0,67.0,67.0,66.0,66.0,32788.0,28684.0,32827.0,28615.0,32948.0,27351.0,32768.0,27180.0,12.982795024564451,0.2735861122639302,-0.5849762801890358,-2.918578205660276,2.0,2.0,2.0,2.0,-0.2499999999999993,-0.2459999999999993,-0.2489999999999993,-0.2479999999999993,38.0,0.0,293.0,198.0,0.0,0.0,0.0,0.0,-27.46799886226654,121.6439962387085,46.85499954223633,47.10499954223633,48.67499923706055,50.334999084472656,-46.98000082969665,25.0,38.0,0.0,0.0,46.85499954223633,0.0,0.0,0.0,0.0,-1111.702,-1111.702,0.0,38.0,-27.000045776367163,0.0,0.0,-6.500244140624993,2.0,25.0,67.0,0.0,0.00012986805703904907,0.003959965266121757,0.0,0.0,0.0,0.0,0.0,0.0,0.0,0.0,0.3099999999999999,0.003959965266121757,0.0,0.0,0.0,0.0,0.0,0.0060760774902155,0.0,0.0,45.36000061035156,0.0,53.28514813236496,66.99742393634247,0.0,66.99742393634247,0.0
32,32,0.3160760774902155,2.0,2.0,2.0,2.0,67.0,67.0,66.0,66.0,32827.0,28649.0,32807.0,28593.0,32948.0,27364.0,32768.0,27217.0,13.00042235945826,0.521802423562719,0.4539254474085494,-2.928197576437281,2.0,2.0,2.0,2.0,-0.2499999999999993,-0.2459999999999993,-0.2489999999999993,-0.2479999999999993,38.0,0.0,293.0,198.0,0.0,0.0,0.0,0.0,-31.39199912548065,157.9409956932068,47.125,47.32500076293945,49.119998931884766,49.97999954223633,-52.2,25.0,38.0,0.0,0.0,47.125,0.0,0.0,0.0,0.0,-1111.702,-1111.702,0.0,38.0,15.499877929687486,0.0,0.0,42.499923706054645,2.0,25.0,67.0,0.0,0.00013052777714199504,0.004090493043263752,0.0,0.0,0.0,0.0,0.0,0.0,0.0,0.0,0.3199999999999999,0.004090493043263752,0.0,0.0,0.0,0.0,0.0,0.0060760774902155,0.0,0.0,45.36000061035156,0.0,53.52449878274046,66.99741236532242,0.0,66.99741236532242,0.0
33,33,0.3260760774902155,2.0,2.0,2.0,2.0,67.0,67.0,66.0,66.0,32889.0,28631.0,32786.0,28599.0,32990.0,27269.0,32747.0,27282.0,13.013315134591108,0.7301542028081982,1.1463392461780362,-2.611753275506883,2.0,2.0,2.0,2.0,-0.2499999999999993,-0.2459999999999993,-0.2489999999999993,-0.2479999999999993,38.0,0.0,293.0,198.0,0.0,0.0,0.0,0.0,-44.144999980926514,157.9409956932068,46.970001220703125,47.27000045776367,49.72999954223633,49.755001068115234,-50.460001659393306,25.0,38.0,0.0,0.0,46.970001220703125,0.0,0.0,0.0,0.0,-1111.702,-1111.702,0.0,38.0,-11.999893188476552,0.0,0.0,-27.499771118164038,2.0,25.0,67.0,0.0,0.00013068750169542115,0.004221180544959173,0.0,0.0,0.0,0.0,0.0,0.0,0.0,0.0,0.3299999999999999,0.004221180544959173,0.0,0.0,0.0,0.0,0.0,0.0060760774902155,0.0,0.0,45.36000061035156,0.0,53.387132091763426,66.99741900609251,0.0,66.99741900609251,0.0
34,34,0.3360760774902155,2.0,2.0,2.0,2.0,67.0,67.0,66.0,66.0,32827.0,28651.0,32869.0,28624.0,32990.0,27129.0,32768.0,27416.0,13.02687461204507,1.236182468233983,1.5907883121559887,-2.4273029219610027,2.0,2.0,2.0,2.0,-0.2499999999999993,-0.2459999999999993,-0.2489999999999993,-0.2479999999999993,38.0,0.0,293.0,198.0,0.0,0.0,0.0,0.0,-56.89799785614014,131.45400285720825,47.09000015258789,47.2599983215332,50.52000045776367,49.47499847412109,-43.5,25.0,38.0,0.0,0.0,47.09000015258789,0.0,0.0,0.0,0.0,-1111.702,-1111.702,0.0,38.0,12.49999999999992,0.0,0.0,24.49989318847647,2.0,25.0,67.0,0.0,0.00013063889079623764,0.004351819435755411,0.0,0.0,0.0,0.0,0.0,0.0,0.0,0.0,0.3399999999999999,0.004351819435755411,0.0,0.0,0.0,0.0,0.0,0.0060760774902155,0.0,0.0,45.36000061035156,0.0,53.493489088109605,66.99741386443577,0.0,66.99741386443577,0.0
35,35,0.3460760774902156,2.0,2.0,2.0,2.0,67.0,67.0,66.0,66.0,32847.0,28651.0,32786.0,28654.0,32990.0,27129.0,32788.0,27570.0,13.044660400312624,1.2907534078927476,1.627168938595165,-2.9098174298338444,2.0,2.0,2.0,2.0,-0.2499999999999993,-0.2459999999999993,-0.2489999999999993,-0.2479999999999993,38.0,0.0,293.0,198.0,0.0,0.0,0.0,0.0,-47.0880001783371,180.50400018692017,46.96500015258789,47.16999816894531,50.64500045776367,49.04999923706055,-41.76000165939331,25.0,38.0,0.0,0.0,46.96500015258789,0.0,0.0,0.0,0.0,-1111.702,-1111.702,0.0,38.0,-9.500122070312544,0.0,0.0,-22.000122070312464,2.0,25.0,67.0,0.0,0.00013063194486830055,0.0044824513806237115,0.0,0.0,0.0,0.0,0.0,0.0,0.0,0.0,0.35,0.0044824513806237115,0.0,0.0,0.0,0.0,0.0,0.0060760774902155,0.0,0.0,45.36000061035156,0.0,53.38269826746362,66.99741922043859,0.0,66.99741922043859,0.0
36,36,0.3560760774902155,2.0,2.0,2.0,2.0,67.0,67.0,66.0,66.0,32827.0,28682.0,32807.0,28674.0,32969.0,27216.0,32788.0,27705.0,13.061593893420229,1.2135993771630729,1.563599377163073,-2.772394394467657,2.0,2.0,2.0,2.0,-0.2499999999999993,-0.2459999999999993,-0.2489999999999993,-0.2479999999999993,38.0,0.0,293.0,198.0,0.0,0.0,0.0,0.0,-24.52500015497208,200.12400150299072,47.060001373291016,47.18999862670898,50.11000061035156,48.915000915527344,-53.939998340606685,25.0,38.0,0.0,0.0,47.060001373291016,0.0,0.0,0.0,0.0,-1111.702,-1111.702,0.0,38.0,12.500000000000059,0.0,0.0,22.000122070312603,2.0,25.0,67.0,0.0,0.00013059027989705343,0.004613041660520765,0.0,0.0,0.0,0.0,0.0,0.0,0.0,0.0,0.35999999999999993,0.004613041660520765,0.0,0.0,0.0,0.0,0.0,0.0060760774902155,0.0,0.0,45.36000061035156,0.0,53.466906279803275,66.99741514953854,0.0,66.99741514953854,0.0
37,37,0.3660760774902155,2.0,2.0,2.0,2.0,67.0,67.0,66.0,66.0,32889.0,28676.0,32827.0,28687.0,32990.0,27420.0,32768.0,27801.0,13.075664870368618,1.3801256747871748,1.3698743252128252,-2.43384919025539,2.0,2.0,2.0,2.0,-0.2499999999999993,-0.2459999999999993,-0.2489999999999993,-0.2479999999999993,38.0,0.0,293.0,198.0,0.0,0.0,0.0,0.0,-59.84100103378296,176.57999992370603,46.935001373291016,47.2400016784668,49.5,49.01499938964844,-46.11000165939331,25.0,38.0,0.0,0.0,46.935001373291016,0.0,0.0,0.0,0.0,-1111.702,-1111.702,0.0,38.0,-2.0000457763671857,0.0,0.0,-14.500045776367244,2.0,25.0,67.0,0.0,0.00013054861492580775,0.0047435902754465725,0.0,0.0,0.0,0.0,0.0,0.0,0.0,0.0,0.3699999999999999,0.0047435902754465725,0.0,0.0,0.0,0.0,0.0,0.0060760774902155,0.0,0.0,45.36000061035156,0.0,53.35609990496368,66.99742050629345,0.0,66.99742050629345,0.0
38,38,0.3760760774902155,2.0,2.0,2.0,2.0,67.0,67.0,66.0,66.0,32827.0,28762.0,32807.0,28679.0,32990.0,27651.0,32809.0,27839.0,13.08671638739905,0.9473978331273856,1.0845990713403082,-2.493600619106461,2.0,2.0,2.0,2.0,-0.2499999999999993,-0.2459999999999993,-0.2489999999999993,-0.2479999999999993,38.0,0.0,293.0,198.0,0.0,0.0,0.0,0.0,-53.95500063896179,154.01699542999268,46.95500183105469,47.435001373291016,48.79499816894531,49.290000915527344,-40.88999834060669,25.0,38.0,0.0,0.0,46.95500183105469,0.0,0.0,0.0,0.0,-1111.702,-1111.702,0.0,38.0,27.5001525878906,0.0,0.0,29.500198364257784,2.0,25.0,67.0,0.0,0.00013040278222825805,0.00487399305767483,0.0,0.0,0.0,0.0,0.0,0.0,0.0,0.0,0.3799999999999999,0.00487399305767483,0.0,0.0,0.0,0.0,0.0,0.0060760774902155,0.0,0.0,45.36000061035156,0.0,53.37383368945231,66.99741964898229,0.0,66.99741964898229,0.0
39,39,0.3860760774902155,2.0,2.0,2.0,2.0,67.0,67.0,66.0,66.0,32827.0,28769.0,32827.0,28692.0,32969.0,27868.0,32788.0,27820.0,13.094687398154688,0.459744645637842,0.9274361614094604,-2.368590403523652,2.0,2.0,2.0,2.0,-0.2499999999999993,-0.2459999999999993,-0.2489999999999993,-0.2479999999999993,38.0,0.0,293.0,198.0,0.0,0.0,0.0,0.0,-56.89799785614014,131.45400285720825,46.68000030517578,47.47999954223633,48.41999816894531,49.71500015258789,-44.36999917030334,25.0,38.0,0.0,0.0,46.68000030517578,0.0,0.0,0.0,0.0,-1111.702,-1111.702,0.0,38.0,-42.49992370605465,0.0,0.0,-70.00007629394526,2.0,25.0,67.0,0.0,0.000130048614078098,0.005004041671752928,0.0,0.0,0.0,0.0,0.0,0.0,0.0,0.0,0.3899999999999999,0.005004041671752928,0.0,0.0,0.0,0.0,0.0,0.0060760774902155,0.0,0.0,45.36000061035156,0.0,53.12985235110649,66.99743144386754,0.0,66.99743144386754,0.0
40,40,0.3960760774902155,2.0,2.0,2.0,2.0,67.0,67.0,66.0,66.0,32847.0,28763.0,32827.0,28678.0,32990.0,27969.0,32809.0,27784.0,13.104522263280211,0.6777852583020881,0.7907382472326373,-2.0086353259536995,2.0,2.0,2.0,2.0,-0.2499999999999993,-0.2459999999999993,-0.2489999999999993,-0.2479999999999993,38.0,0.0,293.0,198.0,0.0,0.0,0.0,0.0,-63.76500129699707,131.45400285720825,47.10499954223633,47.53499984741211,48.54999923706055,50.14500045776367,-40.01999917030334,25.0,38.0,0.0,0.0,47.10499954223633,0.0,0.0,0.0,0.0,-1111.702,-1111.702,0.0,38.0,-20.999908447264897,0.0,0.0,21.500015258789755,2.0,25.0,67.0,0.0,0.00013025694423251694,0.005134298615985446,0.0,0.0,0.0,0.0,0.0,0.0,0.0,0.0,0.3999999999999999,0.005134298615985446,0.0,0.0,0.0,0.0,0.0,0.0060760774902155,0.0,0.0,45.36000061035156,0.0,53.50677909507253,66.99741322195194,0.0,66.99741322195194,0.0
41,41,0.4060760774902155,2.0,2.0,2.0,2.0,67.0,67.0,66.0,66.0,32847.0,28770.0,32827.0,28707.0,32990.0,27963.0,32808.0,27805.0,13.115937064782552,0.9092170246245324,1.1140567487484414,-1.608754601001247,2.0,2.0,2.0,2.0,-0.2499999999999993,-0.2459999999999993,-0.2489999999999993,-0.2479999999999993,38.0,0.0,293.0,198.0,0.0,0.0,0.0,0.0,-66.70799851417542,163.82700204849243,47.31499862670898,47.584999084472656,49.22499847412109,50.30500030517578,-33.05999958515167,25.0,38.0,0.0,0.0,47.31499862670898,0.0,0.0,0.0,0.0,-1111.702,-1111.702,0.0,38.0,2.000045776366475,0.0,0.0,22.99995422363137,2.0,25.0,67.0,0.0,0.0001311388863457575,0.005265437502331203,0.0,0.0,0.0,0.0,0.0,0.0,0.0,0.0,0.4099999999999999,0.005265437502331203,0.0,0.0,0.0,0.0,0.0,0.0060760774902155,0.0,0.0,45.36000061035156,0.0,53.692748357122156,66.9974042315708,0.0,66.9974042315708,0.0
42,42,0.4160760774902155,2.0,2.0,2.0,2.0,67.0,67.0,66.0,66.0,32868.0,28744.0,32827.0,28729.0,32969.0,27869.0,32808.0,27898.0,13.126957126431652,0.3756779733307442,1.752531773335599,-1.787161013334628,2.0,2.0,2.0,2.0,-0.2499999999999993,-0.2459999999999993,-0.2489999999999993,-0.2479999999999993,38.0,0.0,293.0,198.0,0.0,0.0,0.0,0.0,-56.89799785614014,163.82700204849243,47.29499816894531,47.52999877929688,50.04999923706055,50.06499862670898,-26.1,25.0,38.0,0.0,0.0,47.29499816894531,0.0,0.0,0.0,0.0,-1111.702,-1111.702,0.0,38.0,-23.50006103515707,0.0,0.0,-25.500106811523544,2.0,25.0,67.0,0.0,0.00013140277332729776,0.005396840275658501,0.0,0.0,0.0,0.0,0.0,0.0,0.0,0.0,0.41999999999999993,0.005396840275658501,0.0,0.0,0.0,0.0,0.0,0.0060760774902155,0.0,0.0,45.36000061035156,0.0,53.675044351530424,66.99740508744203,0.0,66.99740508744203,0.0
43,43,0.4260760774902155,2.0,2.0,2.0,2.0,67.0,67.0,66.0,66.0,32848.0,28753.0,32807.0,28746.0,32948.0,27698.0,32788.0,28039.0,13.137389768031731,0.2217316562151787,1.5196100627089275,-2.50971907782902,2.0,2.0,2.0,2.0,-0.2499999999999993,-0.2459999999999993,-0.2489999999999993,-0.2479999999999993,38.0,0.0,293.0,198.0,0.0,0.0,0.0,0.0,-93.19499731063844,157.9409956932068,47.52999877929688,47.525001525878906,50.8849983215332,49.625,-33.05999958515167,25.0,38.0,0.0,0.0,47.52999877929688,0.0,0.0,0.0,0.0,-1111.702,-1111.702,0.0,38.0,4.499816894531957,0.0,0.0,27.999877929689028,2.0,25.0,67.0,0.0,0.00013170138465033574,0.005528541660308837,0.0,0.0,0.0,0.0,0.0,0.0,0.0,0.0,0.4299999999999999,0.005528541660308837,0.0,0.0,0.0,0.0,0.0,0.0060760774902155,0.0,0.0,45.36000061035156,0.0,53.8829583989887,66.99739503617803,0.0,66.99739503617803,0.0
44,44,0.4360760774902155,2.0,2.0,2.0,2.0,67.0,67.0,66.0,66.0,32827.0,28731.0,32827.0,28737.0,32969.0,27642.0,32768.0,28167.0,13.14760486975653,0.1774295274119122,1.0597181096476491,-2.350862400765517,2.0,2.0,2.0,2.0,-0.2499999999999993,-0.2459999999999993,-0.2489999999999993,-0.2479999999999993,38.0,0.0,293.0,198.0,0.0,0.0,0.0,0.0,-47.0880001783371,163.82700204849243,47.48500061035156,47.65499877929688,51.185001373291016,49.34999847412109,-47.85,25.0,38.0,0.0,0.0,47.48500061035156,0.0,0.0,0.0,0.0,-1111.702,-1111.702,0.0,38.0,-16.999816894531946,0.0,0.0,-21.499633789063903,2.0,25.0,67.0,0.0,0.0001319652769300674,0.005660506937238905,0.0,0.0,0.0,0.0,0.0,0.0,0.0,0.0,0.4399999999999999,0.005660506937238905,0.0,0.0,0.0,0.0,0.0,0.0060760774902155,0.0,0.0,45.36000061035156,0.0,53.843164332936105,66.99739695995677,0.0,66.99739695995677,0.0
45,45,0.4460760774902155,2.0,2.0,2.0,2.0,67.0,67.0,66.0,66.0,32868.0,28694.0,32827.0,28716.0,32990.0,27661.0,32788.0,28261.0,13.157597722894536,0.259257841095113,0.8771614392699246,-2.127161439269925,2.0,2.0,2.0,2.0,-0.2499999999999993,-0.2459999999999993,-0.2489999999999993,-0.2479999999999993,38.0,0.0,293.0,198.0,0.0,0.0,0.0,0.0,-27.46799886226654,163.82700204849243,47.65499877929688,47.85499954223633,50.834999084472656,49.3650016784668,-38.280000829696654,25.0,38.0,0.0,0.0,47.65499877929688,0.0,0.0,0.0,0.0,-1111.702,-1111.702,0.0,38.0,-29.00009155273364,0.0,0.0,-12.000274658201693,2.0,25.0,67.0,0.0,0.0001321388880411785,0.005792645825280083,0.0,0.0,0.0,0.0,0.0,0.0,0.0,0.0,0.4499999999999999,0.005792645825280083,0.0,0.0,0.0,0.0,0.0,0.0060760774902155,0.0,0.0,45.36000061035156,0.0,53.99345851230884,66.99738969423206,0.0,66.99738969423206,0.0
46,46,0.4560760774902155,2.0,2.0,2.0,2.0,67.0,67.0,66.0,66.0,32868.0,28619.0,32827.0,28695.0,32990.0,27766.0,32788.0,28303.0,13.167241622898242,0.3,0.4494969476535248,-1.8451344212340608,2.0,2.0,2.0,2.0,-0.2499999999999993,-0.2459999999999993,-0.2489999999999993,-0.2479999999999993,38.0,0.0,293.0,198.0,0.0,0.0,0.0,0.0,-66.70799851417542,163.82700204849243,47.94499969482422,47.959999084472656,50.415000915527344,49.59000015258789,-36.53999834060669,25.0,38.0,0.0,0.0,47.94499969482422,0.0,0.0,0.0,0.0,-1111.702,-1111.702,0.0,38.0,4.000091552733661,0.0,0.0,33.0001831054673,2.0,25.0,67.0,0.0,0.00013277777565850164,0.0059254236009385845,0.0,0.0,0.0,0.0,0.0,0.0,0.0,0.0,0.4599999999999999,0.0059254236009385845,0.0,0.0,0.0,0.0,0.0,0.0060760774902155,0.0,0.0,45.36000061035156,0.0,54.24957442390789,66.9973773127328,0.0,66.9973773127328,0.0
47,47,0.4660760774902155,2.0,2.0,2.0,2.0,67.0,67.0,66.0,66.0,32827.0,28613.0,32827.0,28669.0,32969.0,27878.0,32788.0,28280.0,13.174795455610813,0.445523341679768,0.2636191645800579,-2.041046683359536,2.0,2.0,2.0,2.0,-0.2499999999999993,-0.2459999999999993,-0.2489999999999993,-0.2479999999999993,38.0,0.0,293.0,198.0,0.0,0.0,0.0,0.0,-86.32799983024597,154.01699542999268,47.90499877929688,48.09000015258789,49.92499923706055,50.01499938964844,-30.45,25.0,38.0,0.0,0.0,47.90499877929688,0.0,0.0,0.0,0.0,-1111.702,-1111.702,0.0,38.0,-19.00024414062427,0.0,0.0,-23.000335693357933,2.0,25.0,67.0,0.0,0.00013312499788072386,0.006058548598819308,0.0,0.0,0.0,0.0,0.0,0.0,0.0,0.0,0.4699999999999999,0.006058548598819308,0.0,0.0,0.0,0.0,0.0,0.0060760774902155,0.0,0.0,45.36000061035156,0.0,54.21426770027366,66.99737901957761,0.0,66.99737901957761,0.0
48,48,0.4760760774902155,2.0,2.0,2.0,2.0,67.0,67.0,66.0,66.0,32827.0,28525.0,32827.0,28647.0,32990.0,27896.0,32788.0,28250.0,13.18214142028482,0.7510909166225803,0.9315324879755752,-2.293480523784332,2.0,2.0,2.0,2.0,-0.2499999999999993,-0.2459999999999993,-0.2489999999999993,-0.2479999999999993,38.0,0.0,293.0,198.0,0.0,0.0,0.0,0.0,-34.334999322891235,131.45400285720825,48.095001220703125,48.1349983215332,49.93000030517578,50.415000915527344,-37.41000165939331,25.0,38.0,0.0,0.0,48.095001220703125,0.0,0.0,0.0,0.0,-1111.702,-1111.702,0.0,38.0,-5.500030517578151,0.0,0.0,13.500213623046122,2.0,25.0,67.0,0.0,0.00013333333333333345,0.006191881932152641,0.0,0.0,0.0,0.0,0.0,0.0,0.0,0.0,0.4799999999999999,0.006191881932152641,0.0,0.0,0.0,0.0,0.0,0.0060760774902155,0.0,0.0,45.36000061035156,0.0,54.381915297659376,66.99737091493401,0.0,66.99737091493401,0.0
49,49,0.4860760774902155,2.0,2.0,2.0,2.0,67.0,67.0,66.0,66.0,32827.0,28493.0,32869.0,28651.0,33071.0,27910.0,32788.0,28216.0,13.193551239652049,0.6688987534317605,0.51181526304069,-2.386220249313648,2.0,2.0,2.0,2.0,-0.2499999999999993,-0.2459999999999993,-0.2489999999999993,-0.2479999999999993,38.0,0.0,293.0,198.0,0.0,0.0,0.0,0.0,-44.144999980926514,138.32099437713623,48.150001525878906,48.16999816894531,50.27999877929688,50.65499877929688,-40.88999834060669,25.0,38.0,0.0,0.0,48.150001525878906,0.0,0.0,0.0,0.0,-1111.702,-1111.702,0.0,38.0,-2.9998779296874973,0.0,0.0,2.5001525878906534,2.0,25.0,67.0,0.0,0.00013367361492580776,0.0063255555470784494,0.0,0.0,0.0,0.0,0.0,0.0,0.0,0.0,0.4899999999999999,0.0063255555470784494,0.0,0.0,0.0,0.0,0.0,0.0060760774902155,0.0,0.0,45.36000061035156,0.0,54.43041729813221,66.99736857018596,0.0,66.99736857018596,0.0
50,50,0.4960760774902155,2.0,2.0,2.0,2.0,67.0,67.0,66.0,66.0,32889.0,28507.0,32827.0,28620.0,32948.0,27869.0,32788.0,28242.0,13.207627745735056,1.0733919900480342,-0.3326362954437345,-2.4728295369304667,2.0,2.0,2.0,2.0,-0.2499999999999993,-0.2459999999999993,-0.2489999999999993,-0.2479999999999993,38.0,0.0,293.0,198.0,0.0,0.0,0.0,0.0,-76.5179991722107,173.63699674606323,48.18000030517578,48.19499969482422,50.52999877929688,50.6349983215332,-41.76000165939331,25.0,38.0,0.0,0.0,48.18000030517578,0.0,0.0,0.0,0.0,-1111.702,-1111.702,0.0,38.0,20.50018310546933,0.0,0.0,23.500061035156826,2.0,25.0,67.0,0.0,0.0001337916692097983,0.0064593472162882476,0.0,0.0,0.0,0.0,0.0,0.0,0.0,0.0,0.4999999999999999,0.0064593472162882476,0.0,0.0,0.0,0.0,0.0,0.0060760774902155,0.0,0.0,45.36000061035156,0.0,54.45686657405431,66.99736729154002,0.0,66.99736729154002,0.0
51,51,0.5060760774902155,2.0,2.0,2.0,2.0,67.0,67.0,66.0,66.0,32847.0,28480.0,32827.0,28607.0,32969.0,27921.0,32809.0,28332.0,13.222100221271972,1.0314505090892916,-0.2950255939375069,-2.281450509089292,2.0,2.0,2.0,2.0,-0.2499999999999993,-0.2459999999999993,-0.2489999999999993,-0.2479999999999993,38.0,0.0,293.0,198.0,0.0,0.0,0.0,0.0,-47.0880001783371,180.50400018692017,47.97499847412109,48.29499816894531,50.77999877929688,50.38999938964844,-43.5,25.0,38.0,0.0,0.0,47.97499847412109,0.0,0.0,0.0,0.0,-1111.702,-1111.702,0.0,38.0,-13.500213623047573,0.0,0.0,-34.000396728516904,2.0,25.0,67.0,0.0,0.00013354860941569097,0.006592895825703939,0.0,0.0,0.0,0.0,0.0,0.0,0.0,0.0,0.51,0.006592895825703939,0.0,0.0,0.0,0.0,0.0,0.0060760774902155,0.0,0.0,45.36000061035156,0.0,54.2760485307212,66.99737603288618,0.0,66.99737603288618,0.0
52,52,0.5160760774902156,2.0,2.0,2.0,2.0,67.0,67.0,66.0,66.0,32809.0,28481.0,32848.0,28604.0,32990.0,28045.0,32768.0,28410.0,13.236198311754036,0.8783552488104268,0.3731580095165857,-2.2358223755947866,2.0,2.0,2.0,2.0,-0.2499999999999993,-0.2459999999999993,-0.2489999999999993,-0.2479999999999993,38.0,0.0,293.0,198.0,0.0,0.0,0.0,0.0,-41.20199978351593,190.31399488449097,48.11000061035156,48.275001525878906,50.35499954223633,50.07500076293945,-38.280000829696654,25.0,38.0,0.0,0.0,48.11000061035156,0.0,0.0,0.0,0.0,-1111.702,-1111.702,0.0,38.0,6.500244140624994,0.0,0.0,20.000457763672568,2.0,25.0,67.0,0.0,0.00013345138761732326,0.006726347213321262,0.0,0.0,0.0,0.0,0.0,0.0,0.0,0.0,0.52,0.006726347213321262,0.0,0.0,0.0,0.0,0.0,0.0060760774902155,0.0,0.0,45.36000061035156,0.0,54.395143713898634,66.99737027542835,0.0,66.99737027542835,0.0
53,53,0.5260760774902156,2.0,2.0,2.0,2.0,67.0,67.0,66.0,66.0,32809.0,28471.0,32827.0,28597.0,32990.0,28141.0,32809.0,28407.0,13.248490639136037,0.9573266644309962,0.3495711163276754,-2.3931022192413285,2.0,2.0,2.0,2.0,-0.2499999999999993,-0.2459999999999993,-0.2489999999999993,-0.2479999999999993,38.0,0.0,293.0,198.0,0.0,0.0,0.0,0.0,-73.57500195503235,176.57999992370603,48.04499816894531,48.31499862670898,50.09999847412109,50.16999816894531,-39.15,25.0,38.0,0.0,0.0,48.04499816894531,0.0,0.0,0.0,0.0,-1111.702,-1111.702,0.0,38.0,-12.000274658203114,0.0,0.0,-18.500518798828107,2.0,25.0,67.0,0.0,0.00013354860941569024,0.006859895822736953,0.0,0.0,0.0,0.0,0.0,0.0,0.0,0.0,0.53,0.006859895822736953,0.0,0.0,0.0,0.0,0.0,0.0060760774902155,0.0,0.0,45.36000061035156,0.0,54.33780953275064,66.99737304715353,0.0,66.99737304715353,0.0
54,54,0.5360760774902156,2.0,2.0,2.0,2.0,67.0,67.0,66.0,66.0,32847.0,28465.0,32827.0,28581.0,32969.0,28245.0,32788.0,28351.0,13.26063701459164,0.8551963746204392,0.3586027190346706,-2.5224018126897807,2.0,2.0,2.0,2.0,-0.2499999999999993,-0.2459999999999993,-0.2489999999999993,-0.2479999999999993,38.0,0.0,293.0,198.0,0.0,0.0,0.0,0.0,-96.13800048828124,141.26399755477905,48.165000915527344,48.380001068115234,49.98500061035156,50.630001068115234,-42.630000829696655,25.0,38.0,0.0,0.0,48.165000915527344,0.0,0.0,0.0,0.0,-1111.702,-1111.702,0.0,38.0,-1.4999389648437487,0.0,0.0,10.500335693359366,2.0,25.0,67.0,0.0,0.00013362499872843437,0.0069935208214653875,0.0,0.0,0.0,0.0,0.0,0.0,0.0,0.0,0.54,0.0069935208214653875,0.0,0.0,0.0,0.0,0.0,0.0060760774902155,0.0,0.0,45.36000061035156,0.0,54.44364238911444,66.99736793084108,0.0,66.99736793084108,0.0
55,55,0.5460760774902156,2.0,2.0,2.0,2.0,67.0,67.0,66.0,66.0,32847.0,28439.0,32827.0,28570.0,32969.0,28246.0,32788.0,28283.0,13.274286429077735,0.9817264602654606,0.7271076284778291,-2.5500000000000003,2.0,2.0,2.0,2.0,-0.2499999999999993,-0.2459999999999993,-0.2489999999999993,-0.2479999999999993,38.0,0.0,293.0,198.0,0.0,0.0,0.0,0.0,-79.46100234985352,141.26399755477905,48.18000030517578,48.51499938964844,50.1150016784668,51.09000015258789,-44.36999917030334,25.0,38.0,0.0,0.0,48.18000030517578,0.0,0.0,0.0,0.0,-1111.702,-1111.702,0.0,38.0,-22.00012207031248,0.0,0.0,-20.50018310546873,2.0,25.0,67.0,0.0,0.00013381250169542113,0.0071273333231608085,0.0,0.0,0.0,0.0,0.0,0.0,0.0,0.0,0.55,0.0071273333231608085,0.0,0.0,0.0,0.0,0.0,0.0060760774902155,0.0,0.0,45.36000061035156,0.0,54.45686657405431,66.99736729154002,0.0,66.99736729154002,0.0
56,56,0.5560760774902156,2.0,2.0,2.0,2.0,67.0,67.0,66.0,66.0,32829.0,28436.0,32848.0,28563.0,32990.0,28222.0,32788.0,28266.0,13.289761485069969,1.1946638114552457,0.5245064242256976,-2.911659528638114,2.0,2.0,2.0,2.0,-0.2499999999999993,-0.2459999999999993,-0.2489999999999993,-0.2479999999999993,38.0,0.0,293.0,198.0,0.0,0.0,0.0,0.0,-76.5179991722107,163.82700204849243,48.400001525878906,48.5,50.709999084472656,51.19499969482422,-44.36999917030334,25.0,38.0,0.0,0.0,48.400001525878906,0.0,0.0,0.0,0.0,-1111.702,-1111.702,0.0,38.0,8.000183105468743,0.0,0.0,30.00030517578122,2.0,25.0,67.0,0.0,0.00013413889143202052,0.007261472214592829,0.0,0.0,0.0,0.0,0.0,0.0,0.0,0.0,0.56,0.007261472214592829,0.0,0.0,0.0,0.0,0.0,0.0060760774902155,0.0,0.0,45.36000061035156,0.0,54.65072637072588,66.9973579197141,0.0,66.9973579197141,0.0
57,57,0.5660760774902156,2.0,2.0,2.0,2.0,67.0,67.0,66.0,66.0,32827.0,28423.0,32827.0,28553.0,32948.0,28156.0,32768.0,28312.0,13.305772942764094,1.463377793383005,0.5778148278191709,-3.334503724510673,2.0,2.0,2.0,2.0,-0.2499999999999993,-0.2459999999999993,-0.2489999999999993,-0.2479999999999993,38.0,0.0,293.0,198.0,0.0,0.0,0.0,0.0,-66.70799851417542,180.50400018692017,48.31999969482422,48.54999923706055,51.02999877929688,51.02999877929688,-53.06999917030334,25.0,38.0,0.0,0.0,48.31999969482422,0.0,0.0,0.0,0.0,-1111.702,-1111.702,0.0,38.0,-6.000137329101624,0.0,0.0,-14.000320434570366,2.0,25.0,67.0,0.0,0.00013433333502875446,0.007395805549621584,0.0,0.0,0.0,0.0,0.0,0.0,0.0,0.0,0.5700000000000001,0.007395805549621584,0.0,0.0,0.0,0.0,0.0,0.0060760774902155,0.0,0.0,45.36000061035156,0.0,54.5802531526621,66.99736132662309,0.0,66.99736132662309,0.0
58,58,0.5760760774902155,2.0,2.0,2.0,2.0,67.0,67.0,66.0,66.0,32827.0,28430.0,32848.0,28545.0,33071.0,28068.0,32788.0,28396.0,13.320858138318886,1.3714776726161455,1.2569759131051046,-3.271477672616146,2.0,2.0,2.0,2.0,-0.2499999999999993,-0.2459999999999993,-0.2489999999999993,-0.2479999999999993,38.0,0.0,293.0,198.0,0.0,0.0,0.0,0.0,-50.03100037574768,176.57999992370603,48.380001068115234,48.619998931884766,51.380001068115234,50.665000915527344,-60.030000829696654,25.0,38.0,0.0,0.0,48.380001068115234,0.0,0.0,0.0,0.0,-1111.702,-1111.702,0.0,38.0,-3.4999847412109344,0.0,0.0,2.5001525878906894,2.0,25.0,67.0,0.0,0.00013430555661519231,0.007530111106236776,0.0,0.0,0.0,0.0,0.0,0.0,0.0,0.0,0.58,0.007530111106236776,0.0,0.0,0.0,0.0,0.0,0.0060760774902155,0.0,0.0,45.36000061035156,0.0,54.633110470344164,66.9973587713251,0.0,66.9973587713251,0.0
59,59,0.5860760774902155,2.0,2.0,2.0,2.0,67.0,67.0,66.0,66.0,32827.0,28398.0,32807.0,28521.0,32990.0,28121.0,32768.0,28450.0,13.33580426581617,1.7344825573019298,1.3913793606745175,-3.2,2.0,2.0,2.0,2.0,-0.2499999999999993,-0.2459999999999993,-0.2489999999999993,-0.2479999999999993,38.0,0.0,293.0,198.0,0.0,0.0,0.0,0.0,-63.76500129699707,160.8839988708496,48.415000915527344,48.70500183105469,51.525001525878906,50.47499847412109,-55.68000082969665,25.0,38.0,0.0,0.0,48.415000915527344,0.0,0.0,0.0,0.0,-1111.702,-1111.702,0.0,38.0,-18.49975585937427,0.0,0.0,-14.999771118163338,2.0,25.0,67.0,0.0,0.00013443750275505926,0.0076645486089918355,0.0,0.0,0.0,0.0,0.0,0.0,0.0,0.0,0.59,0.0076645486089918355,0.0,0.0,0.0,0.0,0.0,0.0060760774902155,0.0,0.0,45.36000061035156,0.0,54.66393640516622,66.99735728109727,0.0,66.99735728109727,0.0
60,60,0.5960760774902155,2.0,2.0,2.0,2.0,67.0,67.0,66.0,66.0,32847.0,28405.0,32827.0,28498.0,32948.0,28183.0,32809.0,28480.0,13.352462953734216,2.2634807725175365,1.3863480772517538,-3.236348077251754,2.0,2.0,2.0,2.0,-0.2499999999999993,-0.2459999999999993,-0.2489999999999993,-0.2479999999999993,38.0,0.0,293.0,198.0,0.0,0.0,0.0,0.0,-76.5179991722107,173.63699674606323,48.59999847412109,48.80500030517578,50.845001220703125,50.59999847412109,-55.68000082969665,25.0,38.0,0.0,0.0,48.59999847412109,0.0,0.0,0.0,0.0,-1111.702,-1111.702,0.0,38.0,4.9999237060539725,0.0,0.0,23.499679565428245,2.0,25.0,67.0,0.0,0.00013474305470784518,0.007799291663699681,0.0,0.0,0.0,0.0,0.0,0.0,0.0,0.0,0.6,0.007799291663699681,0.0,0.0,0.0,0.0,0.0,0.0060760774902155,0.0,0.0,45.36000061035156,0.0,54.826790716555166,66.99734940818115,0.0,66.99734940818115,0.0
61,61,0.6060760774902155,2.0,2.0,2.0,2.0,67.0,67.0,66.0,66.0,32827.0,28371.0,32827.0,28492.0,32909.0,28202.0,32768.0,28469.0,13.367390899273214,2.436357724802692,1.6908617984215284,-2.9591382015784715,2.0,2.0,2.0,2.0,-0.2499999999999993,-0.2459999999999993,-0.2489999999999993,-0.2479999999999993,38.0,0.0,293.0,198.0,0.0,0.0,0.0,0.0,-53.95500063896179,190.31399488449097,48.54999923706055,48.86000061035156,50.79999923706055,50.81999969482422,-56.55,25.0,38.0,0.0,0.0,48.54999923706055,0.0,0.0,0.0,0.0,-1111.702,-1111.702,0.0,38.0,-17.499923706053963,0.0,0.0,-22.499847412107936,2.0,25.0,67.0,0.0,0.0001349305523766413,0.007934222216076323,0.0,0.0,0.0,0.0,0.0,0.0,0.0,0.0,0.61,0.007934222216076323,0.0,0.0,0.0,0.0,0.0,0.0060760774902155,0.0,0.0,45.36000061035156,0.0,54.78278959815154,66.99735153534061,0.0,66.99735153534061,0.0
62,62,0.6160760774902155,2.0,2.0,2.0,2.0,67.0,67.0,66.0,66.0,32827.0,28359.0,32827.0,28472.0,32990.0,28172.0,32788.0,28430.0,13.378450766732229,2.163350697020144,1.5133506970201438,-3.02915581436241,2.0,2.0,2.0,2.0,-0.2499999999999993,-0.2459999999999993,-0.2489999999999993,-0.2479999999999993,38.0,0.0,293.0,198.0,0.0,0.0,0.0,0.0,-83.38500261306763,144.20700073242188,48.72499847412109,48.91999816894531,51.16999816894531,51.125,-49.58999834060669,25.0,38.0,0.0,0.0,48.72499847412109,0.0,0.0,0.0,0.0,-1111.702,-1111.702,0.0,38.0,2.999877929686787,0.0,0.0,20.49980163574075,2.0,25.0,67.0,0.0,0.0001351041634877524,0.008069326379564075,0.0,0.0,0.0,0.0,0.0,0.0,0.0,0.0,0.62,0.008069326379564075,0.0,0.0,0.0,0.0,0.0,0.0060760774902155,0.0,0.0,45.36000061035156,0.0,54.936751651781215,66.99734409230663,0.0,66.99734409230663,0.0
63,63,0.6260760774902155,2.0,2.0,2.0,2.0,67.0,67.0,66.0,66.0,32868.0,28348.0,32786.0,28466.0,32969.0,28119.0,32747.0,28381.0,13.390094889182972,1.7279808416083222,0.684401870240716,-3.064220093512036,2.0,2.0,2.0,2.0,-0.2499999999999993,-0.2459999999999993,-0.2489999999999993,-0.2479999999999993,38.0,0.0,293.0,198.0,0.0,0.0,0.0,0.0,-69.65100169181824,128.51099967956543,48.69499969482422,48.94499969482422,51.44499969482422,51.3849983215332,-53.939998340606685,25.0,38.0,0.0,0.0,48.69499969482422,0.0,0.0,0.0,0.0,-1111.702,-1111.702,0.0,38.0,-9.000015258789054,0.0,0.0,-11.999893188475841,2.0,25.0,67.0,0.0,0.00013530555301242416,0.008204631932576499,0.0,0.0,0.0,0.0,0.0,0.0,0.0,0.0,0.63,0.008204631932576499,0.0,0.0,0.0,0.0,0.0,0.0060760774902155,0.0,0.0,45.36000061035156,0.0,54.91036776670882,66.99734536779064,0.0,66.99734536779064,0.0
64,64,0.6360760774902156,2.0,2.0,2.0,2.0,67.0,67.0,66.0,66.0,32868.0,28339.0,32848.0,28427.0,32990.0,28088.0,32747.0,28347.0,13.404633471739135,1.780991141636634,0.5447929133093071,-3.2309911416366344,2.0,2.0,2.0,2.0,-0.2499999999999993,-0.2459999999999993,-0.2489999999999993,-0.2479999999999993,38.0,0.0,293.0,198.0,0.0,0.0,0.0,0.0,-63.76500129699707,151.0740041732788,48.78499984741211,49.06999969482422,51.61000061035156,51.54499816894531,-53.06999917030334,25.0,38.0,0.0,0.0,48.78499984741211,0.0,0.0,0.0,0.0,-1111.702,-1111.702,0.0,38.0,-6.000137329101557,0.0,0.0,2.9998779296874964,2.0,25.0,67.0,0.0,0.00013538888825310614,0.008340020820829606,0.0,0.0,0.0,0.0,0.0,0.0,0.0,0.0,0.64,0.008340020820829606,0.0,0.0,0.0,0.0,0.0,0.0060760774902155,0.0,0.0,45.36000061035156,0.0,54.989512058240514,66.9973415416947,0.0,66.9973415416947,0.0
65,65,0.6460760774902156,2.0,2.0,2.0,2.0,67.0,67.0,66.0,66.0,32868.0,28328.0,32807.0,28402.0,32969.0,28153.0,32768.0,28331.0,13.421284269234857,2.1409378160251893,0.1999605029653648,-3.4818361350157434,2.0,2.0,2.0,2.0,-0.2499999999999993,-0.2459999999999993,-0.2489999999999993,-0.2479999999999993,38.0,0.0,293.0,198.0,0.0,0.0,0.0,0.0,-50.03100037574768,183.447003364563,48.845001220703125,49.16999816894531,51.560001373291016,51.55500030517578,-57.41999917030334,25.0,38.0,0.0,0.0,48.845001220703125,0.0,0.0,0.0,0.0,-1111.702,-1111.702,0.0,38.0,-2.4997711181640603,0.0,0.0,3.500366210937497,2.0,25.0,67.0,0.0,0.00013559722370571573,0.00847561804453532,0.0,0.0,0.0,0.0,0.0,0.0,0.0,0.0,0.65,0.00847561804453532,0.0,0.0,0.0,0.0,0.0,0.0060760774902155,0.0,0.0,45.36000061035156,0.0,55.04225819065476,66.99733899177298,0.0,66.99733899177298,0.0
66,66,0.6560760774902156,2.0,2.0,2.0,2.0,67.0,67.0,66.0,66.0,32827.0,28343.0,32807.0,28382.0,32969.0,28224.0,32747.0,28357.0,13.436765274206357,2.25,0.0863732326603354,-3.7318661633016776,2.0,2.0,2.0,2.0,-0.2499999999999993,-0.2459999999999993,-0.2489999999999993,-0.2479999999999993,38.0,0.0,293.0,198.0,0.0,0.0,0.0,0.0,-96.13800048828124,193.2569980621338,48.869998931884766,49.244998931884766,51.084999084472656,51.46500015258789,-61.76999917030334,25.0,38.0,0.0,0.0,48.869998931884766,0.0,0.0,0.0,0.0,-1111.702,-1111.702,0.0,38.0,4.4998168945312464,0.0,0.0,6.999588012695307,2.0,25.0,67.0,0.0,0.00013571527798970554,0.008611333322525026,0.0,0.0,0.0,0.0,0.0,0.0,0.0,0.0,0.66,0.008611333322525026,0.0,0.0,0.0,0.0,0.0,0.0060760774902155,0.0,0.0,45.36000061035156,0.0,55.06422902363785,66.99733792963059,0.0,66.99733792963059,0.0
67,67,0.6660760774902156,2.0,2.0,2.0,2.0,67.0,67.0,66.0,66.0,32827.0,28345.0,32827.0,28378.0,32990.0,28318.0,32768.0,28410.0,13.450828435969164,1.9954757304059925,0.3181636596520065,-3.2909514608119848,2.0,2.0,2.0,2.0,-0.2499999999999993,-0.2459999999999993,-0.2489999999999993,-0.2479999999999993,38.0,0.0,293.0,198.0,0.0,0.0,0.0,0.0,-56.89799785614014,170.69400548934937,48.82500076293945,49.22999954223633,50.97999954223633,51.290000915527344,-66.11999917030334,25.0,38.0,0.0,0.0,48.82500076293945,0.0,0.0,0.0,0.0,-1111.702,-1111.702,0.0,38.0,-0.5001068115234371,0.0,0.0,-4.999923706054684,2.0,25.0,67.0,0.0,0.0001356874995761449,0.008747020822101171,0.0,0.0,0.0,0.0,0.0,0.0,0.0,0.0,0.67,0.008747020822101171,0.0,0.0,0.0,0.0,0.0,0.0060760774902155,0.0,0.0,45.36000061035156,0.0,55.02467773120017,66.99733984167025,0.0,66.99733984167025,0.0
68,68,0.6760760774902156,2.0,2.0,2.0,2.0,67.0,67.0,66.0,66.0,32848.0,28378.0,32827.0,28388.0,32948.0,28379.0,32768.0,28468.0,13.464750195555244,1.7924757621076504,0.2207929368460837,-3.1,2.0,2.0,2.0,2.0,-0.2499999999999993,-0.2459999999999993,-0.2489999999999993,-0.2479999999999993,38.0,0.0,293.0,198.0,0.0,0.0,0.0,0.0,-27.46799886226654,167.75100231170654,48.83000183105469,49.22499847412109,50.91999816894531,51.10499954223633,-53.939998340606685,25.0,38.0,0.0,0.0,48.83000183105469,0.0,0.0,0.0,0.0,-1111.702,-1111.702,0.0,38.0,7.000350952148431,0.0,0.0,7.500457763671868,2.0,25.0,67.0,0.0,0.0001356319480472142,0.008882652770148386,0.0,0.0,0.0,0.0,0.0,0.0,0.0,0.0,0.68,0.008882652770148386,0.0,0.0,0.0,0.0,0.0,0.0060760774902155,0.0,0.0,45.36000061035156,0.0,55.02907383287354,66.99733962914823,0.0,66.99733962914823,0.0
