,Unnamed: 0,currentTime,Agp_Pos_Sp_FL,Agp_Pos_Sp_FR,Agp_Pos_Sp_RL,Agp_Pos_Sp_RR,Disc_T_Est_FL,Disc_T_Est_FR,Disc_T_Est_RL,Disc_T_Est_RR,Motor_current_FL,Wheel_Decl_FL,Motor_current_FR,Wheel_Decl_FR,Motor_current_RL,Wheel_Decl_RL,Motor_current_RR,Wheel_Decl_RR,Vehicle_speed,Gyro_Rate_Pitch,IMU_Gyro_Rate_Roll,IMU_Gyro_Rate_Yaw,RealizedClampingForce_FL,RealizedClampingForce_FR,RealizedClampingForce_RL,RealizedClampingForce_RR,Piston_position_FL,Piston_position_FR,Piston_position_RL,Piston_position_RR,CF_FL,CF_FR,CF_RL,CF_RR,ESTIMATED_PRESSURE_FL,ESTIMATED_PRESSURE_FR,ESTIMATED_PRESSURE_RL,ESTIMATED_PRESSURE_RR,LATERAL_ACCELERATION,LONGITUDINAL_ACCELERATION,Wheel_Speed_FL,Wheel_Speed_FR,Wheel_Speed_RL,Wheel_Speed_RR,Yaw_rate,Ambiant_Temperature,Init_Disc_CF_FL,POS_MEASUREREV,TMC_filtered,Vitesse_Vehicule_Roues,Pressure_Speed_FL,Position_previous_FL,POS_MEASUREREV_square,POS_MEASUREREV_cube,Estimated_CF_FL,Estimated_CF_previous_FL,Pressure_Speed_previous_FL,CF_previous_FL,Deceleration_g,PosDiff,PreDiff,DecDiff,Lookup_Table,Temp_amb_C,Initial_temp_FL,RPM,Distance_Roues_instant,Distance_Roues,Brake_apply,Brake_release,Time_since_brake_apply,Miles_since_brake_apply,Time_since_brake_release,Miles_since_brake_release,BrakingTime_2,BrakingMiles_2,TimeSinceLastBrake_2,MilesSinceLastBrake_2,Change_Position,Change_pressure,BrakingForce_2,BrakingForce_ma_2,Start_braking_time,End_braking_time,BrakeStartSpeed,LastBrakStartSpeed,LastBrakEndtSpeed,LastDeceleration,conv_heat_trans_coef,temp_change_conv_FL,disc_heating_BTM_FL,temp_change_instant_BTM_1_FL,Pressure_Speed_time_FL
0,0,-0.0037817771974459,2.0,2.0,2.0,2.0,64.0,64.0,64.0,64.0,32847.0,28070.0,32827.0,28014.0,33010.0,28109.0,32768.0,28221.0,13.84951,1.0500593959672992,0.3,-0.5166270693551338,2.0,2.0,3.0,2.0,-0.2489999999999993,-0.2489999999999993,-0.2449999999999993,-0.2469999999999993,38.0,0.0,293.0,198.0,0.0,0.0,0.0,0.0,-31.39199912548065,212.8770112991333,50.34000015258789,50.6349983215332,52.81499862670898,52.58000183105469,-8.7,25.0,38.0,0.0,0.0,50.34000015258789,0.0,0.0,0.0,0.0,-1111.702,-1111.702,0.0,38.0,-22.00012207031272,0.0,0.0,0.0,2.0,25.0,64.0,0.0,0.0,0.0,0.0,0.0,0.0,0.0,0.0,0.0,0.0,0.0,0.0,0.0,0.0,0.0,0.0,0.0,0.0,0.0,0.0,0.0,0.0,0.0,0.0,0.0,0.0,0.0,0.0
1,1,0.006218222802554,2.0,2.0,2.0,2.0,64.0,64.0,64.0,64.0,32847.0,28070.0,32848.0,28018.0,32969.0,28179.0,32768.0,28247.0,13.859891387415788,1.2411065796829213,0.2411065796829213,-0.299519925442504,2.0,2.0,3.0,2.0,-0.2489999999999993,-0.2489999999999993,-0.2449999999999993,-0.2469999999999993,38.0,0.0,293.0,198.0,0.0,0.0,0.0,0.0,-31.39199912548065,209.93399620056152,50.560001373291016,50.6150016784668,52.5,52.505001068115234,-9.570000207424163,25.0,38.0,0.0,0.0,50.560001373291016,0.0,0.0,0.0,0.0,-1111.702,-1111.702,0.0,38.0,-6.999969482421875,0.0,0.0,15.000152587890845,2.0,25.0,64.0,0.0,0.00014013889100816375,0.00014013889100816375,0.0,0.0,0.0,0.0,0.0,0.0,0.0,0.0,0.0099999999999999,0.00014013889100816375,0.0,0.0,0.0,0.0,0.0,0.006218222802554,0.0,0.0,50.34000015258789,8095.560701348918,56.54393986461036,63.997461653058004,0.0,63.997461653058004,0.0
2,2,0.016218222802554,2.0,2.0,2.0,2.0,64.0,64.0,64.0,64.0,32847.0,28062.0,32827.0,28026.0,32990.0,28275.0,32747.0,28253.0,13.872459358173623,0.8264775704553733,0.0294072761358314,-0.1029381840905543,2.0,2.0,3.0,2.0,-0.2489999999999993,-0.2489999999999993,-0.2449999999999993,-0.2469999999999993,38.0,0.0,293.0,198.0,0.0,0.0,0.0,0.0,-21.581999957561493,193.2569980621338,50.630001068115234,50.685001373291016,52.4900016784668,52.65999984741211,-6.089999896287917,25.0,38.0,0.0,0.0,50.630001068115234,0.0,0.0,0.0,0.0,-1111.702,-1111.702,0.0,38.0,-0.9998321533203126,0.0,0.0,6.0001373291015625,2.0,25.0,64.0,0.0,0.0001405416700575087,0.00028068056106567244,0.0,0.0,0.0,0.0,0.0,0.0,0.0,0.0,0.0199999999999999,0.00028068056106567244,0.0,0.0,0.0,0.0,0.0,0.006218222802554,0.0,0.0,50.34000015258789,0.0,56.604992389605776,63.99745891240283,0.0,63.99745891240283,0.0
3,3,0.026218222802554,2.0,2.0,2.0,2.0,64.0,64.0,64.0,64.0,32809.0,28055.0,32807.0,28034.0,32990.0,28312.0,32788.0,28216.0,13.884992194553275,0.2676957052072976,0.4,-0.4119349682255415,2.0,2.0,3.0,2.0,-0.2489999999999993,-0.2489999999999993,-0.2449999999999993,-0.2469999999999993,38.0,0.0,293.0,198.0,0.0,0.0,0.0,0.0,-14.714999496936798,180.50400018692017,50.63999938964844,50.744998931884766,52.41999816894531,52.93000030517578,-0.8700000129640102,25.0,38.0,0.0,0.0,50.63999938964844,0.0,0.0,0.0,0.0,-1111.702,-1111.702,0.0,38.0,-13.00010681152344,0.0,0.0,-12.000274658203127,2.0,25.0,64.0,0.0,0.00014065277841356064,0.0004213333394792331,0.0,0.0,0.0,0.0,0.0,0.0,0.0,0.0,0.0299999999999999,0.0004213333394792331,0.0,0.0,0.0,0.0,0.0,0.006218222802554,0.0,0.0,50.34000015258789,0.0,56.61371123683622,63.99745852101275,0.0,63.99745852101275,0.0
4,4,0.036218222802554,2.0,2.0,2.0,2.0,64.0,64.0,64.0,64.0,32827.0,28059.0,32827.0,28044.0,32990.0,28311.0,32827.0,28095.0,13.89710685806027,0.3937598358321708,0.3299842626685267,-0.7087519671664342,2.0,2.0,3.0,2.0,-0.2489999999999993,-0.2489999999999993,-0.2449999999999993,-0.2469999999999993,38.0,0.0,293.0,198.0,0.0,0.0,0.0,0.0,-4.904999956488609,180.50400018692017,50.77000045776367,50.875,52.650001525878906,53.3849983215332,-6.089999896287917,25.0,38.0,0.0,0.0,50.77000045776367,0.0,0.0,0.0,0.0,-1111.702,-1111.702,0.0,38.0,-2.000045776367187,0.0,0.0,11.000061035156252,2.0,25.0,64.0,0.0,0.00014084722201029458,0.0005621805614895276,0.0,0.0,0.0,0.0,0.0,0.0,0.0,0.0,0.0399999999999999,0.0005621805614895276,0.0,0.0,0.0,0.0,0.0,0.006218222802554,0.0,0.0,50.34000015258789,0.0,56.72704176898313,63.99745343359212,0.0,63.99745343359212,0.0
5,5,0.046218222802554,2.0,2.0,2.0,2.0,64.0,64.0,64.0,64.0,32809.0,28068.0,32827.0,28069.0,32989.0,28242.0,32768.0,27943.0,13.908158278274888,0.6248626825646549,-0.0248626825646549,-0.6754119523060351,2.0,2.0,3.0,2.0,-0.2489999999999993,-0.2489999999999993,-0.2449999999999993,-0.2469999999999993,38.0,0.0,293.0,198.0,0.0,0.0,0.0,0.0,-31.39199912548065,176.57999992370603,50.790000915527344,50.81499862670898,52.915000915527344,54.005001068115234,-12.179999792575837,25.0,38.0,0.0,0.0,50.790000915527344,0.0,0.0,0.0,0.0,-1111.702,-1111.702,0.0,38.0,-9.999847412109373,0.0,0.0,-7.999801635742186,2.0,25.0,64.0,0.0,0.00014105555746290422,0.0007032361189524319,0.0,0.0,0.0,0.0,0.0,0.0,0.0,0.0,0.0499999999999999,0.0007032361189524319,0.0,0.0,0.0,0.0,0.0,0.006218222802554,0.0,0.0,50.34000015258789,0.0,56.74447182129388,63.99745265115513,0.0,63.99745265115513,0.0
6,6,0.056218222802554,2.0,2.0,2.0,2.0,64.0,64.0,64.0,64.0,32868.0,28039.0,32827.0,28070.0,32969.0,28220.0,32768.0,27825.0,13.919852212440762,0.7086879350893028,-0.2326241298213943,-0.3247872389464183,2.0,2.0,3.0,2.0,-0.2489999999999993,-0.2489999999999993,-0.2449999999999993,-0.2469999999999993,38.0,0.0,293.0,198.0,0.0,0.0,0.0,0.0,-17.65799969434738,167.75100231170654,50.88999938964844,50.90999984741211,53.43999862670898,54.334999084472656,-13.05,25.0,38.0,0.0,0.0,50.88999938964844,0.0,0.0,0.0,0.0,-1111.702,-1111.702,0.0,38.0,-5.500030517578124,0.0,0.0,4.499816894531249,2.0,25.0,64.0,0.0,0.0001412222226460775,0.0008444583415985094,0.0,0.0,0.0,0.0,0.0,0.0,0.0,0.0,0.0599999999999999,0.0008444583415985094,0.0,0.0,0.0,0.0,0.0,0.006218222802554,0.0,0.0,50.34000015258789,0.0,56.83159612514004,63.99744874013564,0.0,63.99744874013564,0.0
7,7,0.066218222802554,2.0,2.0,2.0,2.0,64.0,64.0,64.0,64.0,32868.0,28039.0,32869.0,28072.0,32969.0,28245.0,32768.0,27812.0,13.934323759572568,0.5176954795697578,-0.6146090408604843,-0.4765432193546368,2.0,2.0,3.0,2.0,-0.2489999999999993,-0.2489999999999993,-0.2449999999999993,-0.2469999999999993,38.0,0.0,293.0,198.0,0.0,0.0,0.0,0.0,-31.39199912548065,173.63699674606323,50.94499969482422,51.01499938964844,53.494998931884766,54.17499923706055,-5.220000207424164,25.0,38.0,0.0,0.0,50.94499969482422,0.0,0.0,0.0,0.0,-1111.702,-1111.702,0.0,38.0,0.5001068115241483,0.0,0.0,6.000137329102272,2.0,25.0,64.0,0.0,0.00014143749872843426,0.0009858958403269438,0.0,0.0,0.0,0.0,0.0,0.0,0.0,0.0,0.0699999999999999,0.0009858958403269438,0.0,0.0,0.0,0.0,0.0,0.006218222802554,0.0,0.0,50.34000015258789,0.0,56.879499432416345,63.99744658975112,0.0,63.99744658975112,0.0
8,8,0.076218222802554,2.0,2.0,2.0,2.0,64.0,64.0,64.0,64.0,32827.0,28022.0,32848.0,28090.0,32969.0,28253.0,32868.0,27851.0,13.950113330469362,0.6531083744620219,-0.3880402297943078,-0.5734458127689891,2.0,2.0,3.0,2.0,-0.2489999999999993,-0.2489999999999993,-0.2449999999999993,-0.2469999999999993,38.0,0.0,293.0,198.0,0.0,0.0,0.0,0.0,-27.46799886226654,206.0100078582764,50.93999862670898,51.10499954223633,53.290000915527344,53.744998931884766,-7.829999792575835,25.0,38.0,0.0,0.0,50.93999862670898,0.0,0.0,0.0,0.0,-1111.702,-1111.702,0.0,38.0,-18.000030517578818,0.0,0.0,-18.500137329102966,2.0,25.0,64.0,0.0,0.00014150694211324049,0.0011274027824401843,0.0,0.0,0.0,0.0,0.0,0.0,0.0,0.0,0.07999999999999989,0.0011274027824401843,0.0,0.0,0.0,0.0,0.0,0.006218222802554,0.0,0.0,50.34000015258789,0.0,56.87514415058077,63.99744678526017,0.0,63.99744678526017,0.0
9,9,0.086218222802554,2.0,2.0,2.0,2.0,64.0,64.0,64.0,64.0,32827.0,28011.0,32827.0,28089.0,32969.0,28214.0,32726.0,27936.0,13.96273151694058,0.8912325774103584,-0.0473954644621505,-0.4675348451792832,2.0,2.0,3.0,2.0,-0.2489999999999993,-0.2489999999999993,-0.2449999999999993,-0.2469999999999993,38.0,0.0,293.0,198.0,0.0,0.0,0.0,0.0,-11.772000044584274,219.74399089813232,51.119998931884766,51.084999084472656,53.27000045776367,53.28499984741211,-10.440000414848328,25.0,38.0,0.0,0.0,51.119998931884766,0.0,0.0,0.0,0.0,-1111.702,-1111.702,0.0,38.0,17.499923706054695,0.0,0.0,35.49995422363351,2.0,25.0,64.0,0.0,0.00014174999660915812,0.0012691527790493424,0.0,0.0,0.0,0.0,0.0,0.0,0.0,0.0,0.0899999999999999,0.0012691527790493424,0.0,0.0,0.0,0.0,0.0,0.006218222802554,0.0,0.0,50.34000015258789,0.0,57.03184192478305,63.99743975108135,0.0,63.99743975108135,0.0
10,10,0.096218222802554,2.0,2.0,2.0,2.0,64.0,64.0,64.0,64.0,32847.0,28077.0,32807.0,28093.0,32950.0,28215.0,32788.0,28031.0,13.97374498829998,0.8334414373385337,0.2662342506458649,-0.5748378439921994,2.0,2.0,3.0,2.0,-0.2489999999999993,-0.2489999999999993,-0.2449999999999993,-0.2469999999999993,38.0,0.0,293.0,198.0,0.0,0.0,0.0,0.0,-41.20199978351593,183.447003364563,50.94499969482422,51.16999816894531,53.58000183105469,53.03499984741211,-7.829999792575835,25.0,38.0,0.0,0.0,50.94499969482422,0.0,0.0,0.0,0.0,-1111.702,-1111.702,0.0,38.0,6.499862670898441,0.0,0.0,-11.000061035156254,2.0,25.0,64.0,0.0,0.00014175694253709572,0.001410909721586438,0.0,0.0,0.0,0.0,0.0,0.0,0.0,0.0,0.0999999999999999,0.001410909721586438,0.0,0.0,0.0,0.0,0.0,0.006218222802554,0.0,0.0,50.34000015258789,0.0,56.879499432416345,63.99744658975112,0.0,63.99744658975112,0.0
11,11,0.106218222802554,2.0,2.0,2.0,2.0,64.0,64.0,64.0,64.0,32847.0,28090.0,32869.0,28093.0,32990.0,28233.0,32809.0,28103.0,13.988974228932827,0.7170249379684672,0.6659501240630655,-0.6670249379684673,2.0,2.0,3.0,2.0,-0.2489999999999993,-0.2489999999999993,-0.2449999999999993,-0.2469999999999993,38.0,0.0,293.0,198.0,0.0,0.0,0.0,0.0,-27.46799886226654,170.69400548934937,50.880001068115234,51.25,53.57500076293945,52.9900016784668,-9.570000207424163,25.0,38.0,0.0,0.0,50.880001068115234,0.0,0.0,0.0,0.0,-1111.702,-1111.702,0.0,38.0,-14.500045776367175,0.0,0.0,-20.999908447265618,2.0,25.0,64.0,0.0,0.00014142361217074916,0.0015523333337571872,0.0,0.0,0.0,0.0,0.0,0.0,0.0,0.0,0.10999999999999989,0.0015523333337571872,0.0,0.0,0.0,0.0,0.0,0.006218222802554,0.0,0.0,50.34000015258789,0.0,56.822886719947874,63.99744913110177,0.0,63.99744913110177,0.0
12,12,0.116218222802554,2.0,2.0,2.0,2.0,64.0,64.0,64.0,64.0,32847.0,28129.0,32827.0,28115.0,32990.0,28256.0,32788.0,28170.0,14.007924684029812,0.4616985732301488,1.141282282831762,-0.5264904280309554,2.0,2.0,3.0,2.0,-0.2489999999999993,-0.2489999999999993,-0.2449999999999993,-0.2469999999999993,38.0,0.0,293.0,198.0,0.0,0.0,0.0,0.0,-27.46799886226654,186.38999462127688,51.025001525878906,51.27000045776367,53.494998931884766,53.07500076293945,-12.179999792575837,25.0,38.0,0.0,0.0,51.025001525878906,0.0,0.0,0.0,0.0,-1111.702,-1111.702,0.0,38.0,6.999969482421888,0.0,0.0,21.500015258789062,2.0,25.0,64.0,0.0,0.000141534725824992,0.001693868059582179,0.0,0.0,0.0,0.0,0.0,0.0,0.0,0.0,0.1199999999999999,0.001693868059582179,0.0,0.0,0.0,0.0,0.0,0.006218222802554,0.0,0.0,50.34000015258789,0.0,56.94915787386252,63.997443462776545,0.0,63.997443462776545,0.0
13,13,0.126218222802554,2.0,2.0,2.0,2.0,64.0,64.0,64.0,64.0,32809.0,28166.0,32869.0,28133.0,32969.0,28303.0,32788.0,28211.0,14.02660400608574,0.0238430661883141,1.7651240882510857,-0.5976861323766283,2.0,2.0,3.0,2.0,-0.2489999999999993,-0.2489999999999993,-0.2449999999999993,-0.2469999999999993,38.0,0.0,293.0,198.0,0.0,0.0,0.0,0.0,-4.904999956488609,219.74399089813232,50.95500183105469,51.244998931884766,53.42499923706055,53.15499877929688,-8.7,25.0,38.0,0.0,0.0,50.95500183105469,0.0,0.0,0.0,0.0,-1111.702,-1111.702,0.0,38.0,-17.99964904785155,0.0,0.0,-24.999618530273438,2.0,25.0,64.0,0.0,0.00014163889355129638,0.0018355069531334756,0.0,0.0,0.0,0.0,0.0,0.0,0.0,0.0,0.1299999999999999,0.0018355069531334756,0.0,0.0,0.0,0.0,0.0,0.006218222802554,0.0,0.0,50.34000015258789,0.0,56.888209713924915,63.99744619874567,0.0,63.99744619874567,0.0
14,14,0.136218222802554,2.0,2.0,2.0,2.0,64.0,64.0,64.0,64.0,32827.0,28142.0,32827.0,28154.0,32990.0,28343.0,32768.0,28260.0,14.043276341245624,-0.2604268163894824,1.5910873990894734,-0.3410873990894732,2.0,2.0,3.0,2.0,-0.2489999999999993,-0.2489999999999993,-0.2449999999999993,-0.2469999999999993,38.0,0.0,293.0,198.0,0.0,0.0,0.0,0.0,1.9619999453425407,219.74399089813232,51.1349983215332,51.275001525878906,53.34000015258789,53.345001220703125,-11.30999958515167,25.0,38.0,0.0,0.0,51.1349983215332,0.0,0.0,0.0,0.0,-1111.702,-1111.702,0.0,38.0,-18.000030517577397,0.0,0.0,-0.00038146972584840455,2.0,25.0,64.0,0.0,0.00014179166687859442,0.00197729862001207,0.0,0.0,0.0,0.0,0.0,0.0,0.0,0.0,0.1399999999999999,0.00197729862001207,0.0,0.0,0.0,0.0,0.0,0.006218222802554,0.0,0.0,50.34000015258789,0.0,57.04489403510856,63.99743916517087,0.0,63.99743916517087,0.0
15,15,0.146218222802554,2.0,2.0,2.0,2.0,64.0,64.0,64.0,64.0,32929.0,28159.0,32848.0,28160.0,33010.0,28339.0,32829.0,28307.0,14.059150356961862,-0.9560512874081216,1.5939487125918783,-0.2912102574816243,2.0,2.0,3.0,2.0,-0.2489999999999993,-0.2489999999999993,-0.2449999999999993,-0.2469999999999993,38.0,0.0,293.0,198.0,0.0,0.0,0.0,0.0,-21.581999957561493,196.2000012397766,51.31499862670898,51.39500045776367,53.40499877929688,53.33000183105469,-6.089999896287917,25.0,38.0,0.0,0.0,51.31499862670898,0.0,0.0,0.0,0.0,-1111.702,-1111.702,0.0,38.0,1.4999389648430381,0.0,0.0,19.499969482420436,2.0,25.0,64.0,0.0,0.0001422916624281143,0.0021195902824401843,0.0,0.0,0.0,0.0,0.0,0.0,0.0,0.0,0.1499999999999999,0.0021195902824401843,0.0,0.0,0.0,0.0,0.0,0.006218222802554,0.0,0.0,50.34000015258789,0.0,57.201460382558245,63.99743213689318,0.0,63.99743213689318,0.0
16,16,0.156218222802554,2.0,2.0,2.0,2.0,64.0,64.0,64.0,64.0,32868.0,28151.0,32827.0,28166.0,32969.0,28327.0,32768.0,28353.0,14.0785685490321,-0.8410749951226094,1.7917204549888537,-0.2334409099777074,2.0,2.0,3.0,2.0,-0.2489999999999993,-0.2489999999999993,-0.2449999999999993,-0.2469999999999993,38.0,0.0,293.0,198.0,0.0,0.0,0.0,0.0,-34.334999322891235,186.38999462127688,51.29999923706055,51.505001068115234,53.6349983215332,53.3849983215332,-5.220000207424164,25.0,38.0,0.0,0.0,51.29999923706055,0.0,0.0,0.0,0.0,-1111.702,-1111.702,0.0,38.0,-15.999984741210968,0.0,0.0,-17.499923706054005,2.0,25.0,64.0,0.0,0.0001425208303663467,0.002262111112806531,0.0,0.0,0.0,0.0,0.0,0.0,0.0,0.0,0.15999999999999992,0.002262111112806531,0.0,0.0,0.0,0.0,0.0,0.006218222802554,0.0,0.0,50.34000015258789,0.0,57.18841835990261,63.99743272235073,0.0,63.99743272235073,0.0
17,17,0.166218222802554,2.0,2.0,2.0,2.0,64.0,64.0,64.0,64.0,32809.0,28148.0,32848.0,28193.0,32990.0,28319.0,32788.0,28383.0,14.100186723056762,-1.2196921325372418,1.6786152289219929,-0.1767692891542527,2.0,2.0,3.0,2.0,-0.2489999999999993,-0.2489999999999993,-0.2449999999999993,-0.2469999999999993,38.0,0.0,293.0,198.0,0.0,0.0,0.0,0.0,-31.39199912548065,203.0669927597046,51.459999084472656,51.48500061035156,53.79499816894531,53.45000076293945,-4.35,25.0,38.0,0.0,0.0,51.459999084472656,0.0,0.0,0.0,0.0,-1111.702,-1111.702,0.0,38.0,-4.0000915527343714,0.0,0.0,11.999893188476596,2.0,25.0,64.0,0.0,0.00014272221989101807,0.002404833332697549,0.0,0.0,0.0,0.0,0.0,0.0,0.0,0.0,0.1699999999999999,0.002404833332697549,0.0,0.0,0.0,0.0,0.0,0.006218222802554,0.0,0.0,50.34000015258789,0.0,57.32749559996448,63.997426479161646,0.0,63.997426479161646,0.0
18,18,0.176218222802554,2.0,2.0,2.0,2.0,64.0,64.0,64.0,64.0,32868.0,28161.0,32869.0,28215.0,32990.0,28245.0,32768.0,28364.0,14.12027084564578,-0.8767778142579081,1.2964443714841838,-0.2821481238280612,2.0,2.0,3.0,2.0,-0.2489999999999993,-0.2489999999999993,-0.2449999999999993,-0.2469999999999993,38.0,0.0,293.0,198.0,0.0,0.0,0.0,0.0,-31.39199912548065,219.74399089813232,51.5,51.505001068115234,53.845001220703125,53.65999984741211,-2.610000103712082,25.0,38.0,0.0,0.0,51.5,0.0,0.0,0.0,0.0,-1111.702,-1111.702,0.0,38.0,-0.5001068115234371,0.0,0.0,3.4999847412109344,2.0,25.0,64.0,0.0,0.0001429999987284344,0.0025478333314259837,0.0,0.0,0.0,0.0,0.0,0.0,0.0,0.0,0.1799999999999999,0.0025478333314259837,0.0,0.0,0.0,0.0,0.0,0.006218222802554,0.0,0.0,50.34000015258789,0.0,57.36225086505071,63.99742491899501,0.0,63.99742491899501,0.0
19,19,0.186218222802554,2.0,2.0,2.0,2.0,64.0,64.0,64.0,64.0,32827.0,28141.0,32827.0,28223.0,32990.0,28224.0,32768.0,28325.0,14.137976524168236,-0.9821331547776856,0.9338655060549572,-0.2536005356669429,2.0,2.0,3.0,2.0,-0.2489999999999993,-0.2489999999999993,-0.2449999999999993,-0.2469999999999993,38.0,0.0,293.0,198.0,0.0,0.0,0.0,0.0,-21.581999957561493,200.12400150299072,51.505001068115234,51.55500030517578,54.23500061035156,53.98500061035156,-5.220000207424164,25.0,38.0,0.0,0.0,51.505001068115234,0.0,0.0,0.0,0.0,-1111.702,-1111.702,0.0,38.0,-18.00003051757816,0.0,0.0,-17.499923706054723,2.0,25.0,64.0,0.0,0.00014306250148349352,0.002690895832909477,0.0,0.0,0.0,0.0,0.0,0.0,0.0,0.0,0.18999999999999992,0.002690895832909477,0.0,0.0,0.0,0.0,0.0,0.006218222802554,0.0,0.0,50.34000015258789,0.0,57.36659568405046,63.99742472395574,0.0,63.99742472395574,0.0
20,20,0.196218222802554,2.0,2.0,2.0,2.0,64.0,64.0,64.0,64.0,32809.0,28141.0,32869.0,28232.0,32969.0,28233.0,32809.0,28281.0,14.155891262519932,-0.9441763126730086,0.3558236873269915,-0.5530115752076102,2.0,2.0,3.0,2.0,-0.2489999999999993,-0.2489999999999993,-0.2449999999999993,-0.2469999999999993,38.0,0.0,293.0,198.0,0.0,0.0,0.0,0.0,-31.39199912548065,176.57999992370603,51.685001373291016,51.665000915527344,54.25,54.2400016784668,-3.4800000518560408,25.0,38.0,0.0,0.0,51.685001373291016,0.0,0.0,0.0,0.0,-1111.702,-1111.702,0.0,38.0,-5.999755859374995,0.0,0.0,12.000274658203166,2.0,25.0,64.0,0.0,0.00014331944783528618,0.002834215280744763,0.0,0.0,0.0,0.0,0.0,0.0,0.0,0.0,0.1999999999999999,0.002834215280744763,0.0,0.0,0.0,0.0,0.0,0.006218222802554,0.0,0.0,50.34000015258789,0.0,57.52291432518263,63.997417706800206,0.0,63.997417706800206,0.0
21,21,0.206218222802554,2.0,2.0,2.0,2.0,64.0,64.0,64.0,64.0,32827.0,28137.0,32848.0,28237.0,32990.0,28208.0,32829.0,28281.0,14.17533414752986,-1.0990419657843529,0.1415069942973921,-0.7915069942973921,2.0,2.0,3.0,2.0,-0.2489999999999993,-0.2489999999999993,-0.2449999999999993,-0.2469999999999993,38.0,0.0,293.0,198.0,0.0,0.0,0.0,0.0,-44.144999980926514,180.50400018692017,51.744998931884766,51.77000045776367,54.09999847412109,54.27000045776367,-8.7,25.0,38.0,0.0,0.0,51.744998931884766,0.0,0.0,0.0,0.0,-1111.702,-1111.702,0.0,38.0,-3.00025939941406,0.0,0.0,2.999496459960935,2.0,25.0,64.0,0.0,0.00014365277820163318,0.002977868058946396,0.0,0.0,0.0,0.0,0.0,0.0,0.0,0.0,0.2099999999999999,0.002977868058946396,0.0,0.0,0.0,0.0,0.0,0.006218222802554,0.0,0.0,50.34000015258789,0.0,57.57499170159339,63.99741536904315,0.0,63.99741536904315,0.0
22,22,0.216218222802554,2.0,2.0,2.0,2.0,64.0,64.0,64.0,64.0,32827.0,28116.0,32848.0,28234.0,32969.0,28173.0,32747.0,28311.0,14.194019137340902,-0.7343701374264976,0.180051443320117,-0.6877377663065757,2.0,2.0,3.0,2.0,-0.2489999999999993,-0.2489999999999993,-0.2449999999999993,-0.2469999999999993,38.0,0.0,293.0,198.0,0.0,0.0,0.0,0.0,-59.84100103378296,196.2000012397766,51.775001525878906,51.82500076293945,54.209999084472656,54.14500045776367,-13.920000207424165,25.0,38.0,0.0,0.0,51.775001525878906,0.0,0.0,0.0,0.0,-1111.702,-1111.702,0.0,38.0,-15.499877929687528,0.0,0.0,-12.49961853027347,2.0,25.0,64.0,0.0,0.00014377777841356078,0.003121645837359957,0.0,0.0,0.0,0.0,0.0,0.0,0.0,0.0,0.21999999999999992,0.003121645837359957,0.0,0.0,0.0,0.0,0.0,0.006218222802554,0.0,0.0,50.34000015258789,0.0,57.60102871794646,63.99741420023973,0.0,63.99741420023973,0.0
23,23,0.226218222802554,2.0,2.0,2.0,2.0,64.0,64.0,64.0,64.0,32809.0,28121.0,32848.0,28245.0,32990.0,28163.0,32788.0,28371.0,14.212808308004824,-0.2355378199583959,0.576653364968797,-0.4621911849271929,2.0,2.0,3.0,2.0,-0.2489999999999993,-0.2489999999999993,-0.2449999999999993,-0.2469999999999993,38.0,0.0,293.0,198.0,0.0,0.0,0.0,0.0,-31.39199912548065,176.57999992370603,51.93000030517578,51.88999938964844,54.375,53.93999862670898,-13.05,25.0,38.0,0.0,0.0,51.93000030517578,0.0,0.0,0.0,0.0,-1111.702,-1111.702,0.0,38.0,2.0000457763671857,0.0,0.0,17.499923706054716,2.0,25.0,64.0,0.0,0.00014403472476535344,0.0032656805621253107,0.0,0.0,0.0,0.0,0.0,0.0,0.0,0.0,0.2299999999999999,0.0032656805621253107,0.0,0.0,0.0,0.0,0.0,0.006218222802554,0.0,0.0,50.34000015258789,0.0,57.735487797538084,63.997408164363115,0.0,63.997408164363115,0.0
24,24,0.236218222802554,2.0,2.0,2.0,2.0,64.0,64.0,64.0,64.0,32847.0,28123.0,32848.0,28246.0,32990.0,28119.0,32788.0,28435.0,14.23126262819943,-0.5037831995644209,0.5789196005081758,-0.7413514000362983,2.0,2.0,3.0,2.0,-0.2489999999999993,-0.2489999999999993,-0.2449999999999993,-0.2469999999999993,38.0,0.0,293.0,198.0,0.0,0.0,0.0,0.0,-37.27799952030182,180.50400018692017,51.90999984741211,51.915000915527344,54.41999816894531,53.79499816894531,-6.9600001037120816,25.0,38.0,0.0,0.0,51.90999984741211,0.0,0.0,0.0,0.0,-1111.702,-1111.702,0.0,38.0,2.500152587890623,0.0,0.0,0.5001068115234371,2.0,25.0,64.0,0.0,0.00014422222243414999,0.0034099027845594606,0.0,0.0,0.0,0.0,0.0,0.0,0.0,0.0,0.2399999999999999,0.0034099027845594606,0.0,0.0,0.0,0.0,0.0,0.006218222802554,0.0,0.0,50.34000015258789,0.0,57.71814267172174,63.99740894298686,0.0,63.99740894298686,0.0
25,25,0.246218222802554,2.0,2.0,2.0,2.0,64.0,64.0,64.0,64.0,32847.0,28125.0,32848.0,28247.0,32969.0,28119.0,32747.0,28458.0,14.250396602594012,-1.0168131838981722,0.0336263677963445,-0.6663736322036555,2.0,2.0,3.0,2.0,-0.2489999999999993,-0.2489999999999993,-0.2449999999999993,-0.2469999999999993,38.0,0.0,293.0,198.0,0.0,0.0,0.0,0.0,-24.52500015497208,176.57999992370603,51.8849983215332,51.994998931884766,54.6349983215332,53.84000015258789,-13.05,25.0,38.0,0.0,0.0,51.8849983215332,0.0,0.0,0.0,0.0,-1111.702,-1111.702,0.0,38.0,6.999969482422579,0.0,0.0,4.499816894531957,2.0,25.0,64.0,0.0,0.00014415971967909086,0.0035540625042385513,0.0,0.0,0.0,0.0,0.0,0.0,0.0,0.0,0.24999999999999992,0.0035540625042385513,0.0,0.0,0.0,0.0,0.0,0.006218222802554,0.0,0.0,50.34000015258789,0.0,57.69645836956994,63.99740991639651,0.0,63.99740991639651,0.0
26,26,0.256218222802554,2.0,2.0,2.0,2.0,64.0,64.0,64.0,64.0,32889.0,28133.0,32827.0,28247.0,32969.0,28140.0,32768.0,28436.0,14.26833119623538,-1.0574325873974442,0.1063516922743771,-0.6362157203281786,2.0,2.0,3.0,2.0,-0.2489999999999993,-0.2489999999999993,-0.2449999999999993,-0.2469999999999993,38.0,0.0,293.0,198.0,0.0,0.0,0.0,0.0,-44.144999980926514,186.38999462127688,51.81499862670898,52.06499862670898,54.494998931884766,54.060001373291016,-12.179999792575837,25.0,38.0,0.0,0.0,51.81499862670898,0.0,0.0,0.0,0.0,-1111.702,-1111.702,0.0,38.0,-20.500183105469443,0.0,0.0,-27.50015258789202,2.0,25.0,64.0,0.0,0.0001440277735392254,0.0036980902777777767,0.0,0.0,0.0,0.0,0.0,0.0,0.0,0.0,0.2599999999999999,0.0036980902777777767,0.0,0.0,0.0,0.0,0.0,0.006218222802554,0.0,0.0,50.34000015258789,0.0,57.63573406086005,63.99741264231459,0.0,63.99741264231459,0.0
27,27,0.266218222802554,2.0,2.0,2.0,2.0,64.0,64.0,64.0,64.0,32847.0,28163.0,32848.0,28233.0,32969.0,28178.0,32788.0,28387.0,14.285703525579162,-0.8856346435114197,-0.3945433043892747,-1.2109133912214505,2.0,2.0,3.0,2.0,-0.2489999999999993,-0.2489999999999993,-0.2449999999999993,-0.2469999999999993,38.0,0.0,293.0,198.0,0.0,0.0,0.0,0.0,-27.46799886226654,186.38999462127688,52.02000045776367,52.19499969482422,54.35499954223633,54.40499877929688,-8.7,25.0,38.0,0.0,0.0,52.02000045776367,0.0,0.0,0.0,0.0,-1111.702,-1111.702,0.0,38.0,6.999969482421908,0.0,0.0,27.50015258789135,2.0,25.0,64.0,0.0,0.00014421527650621216,0.003842305554283989,0.0,0.0,0.0,0.0,0.0,0.0,0.0,0.0,0.2699999999999999,0.003842305554283989,0.0,0.0,0.0,0.0,0.0,0.006218222802554,0.0,0.0,50.34000015258789,0.0,57.81352103377293,63.997404661446616,0.0,63.997404661446616,0.0
28,28,0.276218222802554,2.0,2.0,2.0,2.0,64.0,64.0,64.0,64.0,32829.0,28169.0,32848.0,28221.0,33010.0,28157.0,32768.0,28302.0,14.30319470259606,-1.032180565406987,-0.5910902827034936,-0.8089097172965064,2.0,2.0,3.0,2.0,-0.2489999999999993,-0.2489999999999993,-0.2449999999999993,-0.2469999999999993,38.0,0.0,293.0,198.0,0.0,0.0,0.0,0.0,-21.581999957561493,183.447003364563,51.95000076293945,52.275001525878906,54.22499847412109,54.72999954223633,-22.61999917030334,25.0,38.0,0.0,0.0,51.95000076293945,0.0,0.0,0.0,0.0,-1111.702,-1111.702,0.0,38.0,-3.4999847412109344,0.0,0.0,-10.499954223632843,2.0,25.0,64.0,0.0,0.0001444027794731981,0.003986708333757187,0.0,0.0,0.0,0.0,0.0,0.0,0.0,0.0,0.27999999999999986,0.003986708333757187,0.0,0.0,0.0,0.0,0.0,0.006218222802554,0.0,0.0,50.34000015258789,0.0,57.752831453740164,63.99740738580535,0.0,63.99740738580535,0.0
29,29,0.286218222802554,2.0,2.0,2.0,2.0,64.0,64.0,64.0,64.0,32809.0,28172.0,32848.0,28238.0,32990.0,28133.0,32809.0,28210.0,14.32090831524862,-0.95,-0.3910839918016946,-0.7881993301451035,2.0,2.0,3.0,2.0,-0.2489999999999993,-0.2489999999999993,-0.2449999999999993,-0.2469999999999993,38.0,0.0,293.0,198.0,0.0,0.0,0.0,0.0,-11.772000044584274,183.447003364563,51.98500061035156,52.29999923706055,54.505001068115234,55.060001373291016,-13.920000207424165,25.0,38.0,0.0,0.0,51.98500061035156,0.0,0.0,0.0,0.0,-1111.702,-1111.702,0.0,38.0,-11.00006103515624,0.0,0.0,-7.500076293945305,2.0,25.0,64.0,0.0,0.00014435416857401544,0.004131062502331202,0.0,0.0,0.0,0.0,0.0,0.0,0.0,0.0,0.28999999999999987,0.004131062502331202,0.0,0.0,0.0,0.0,0.0,0.006218222802554,0.0,0.0,50.34000015258789,0.0,57.78317849107674,63.99740602352508,0.0,63.99740602352508,0.0
30,30,0.296218222802554,2.0,2.0,2.0,2.0,64.0,64.0,64.0,64.0,32847.0,28197.0,32807.0,28239.0,32969.0,28057.0,32788.0,28115.0,14.337876417820382,-0.9584064790866288,0.3331870418267426,-0.5,2.0,2.0,3.0,2.0,-0.2489999999999993,-0.2489999999999993,-0.2449999999999993,-0.2469999999999993,38.0,0.0,293.0,198.0,0.0,0.0,0.0,0.0,-17.65799969434738,190.31399488449097,52.095001220703125,52.244998931884766,54.73500061035156,55.30500030517578,-14.790000414848327,25.0,38.0,0.0,0.0,52.095001220703125,0.0,0.0,0.0,0.0,-1111.702,-1111.702,0.0,38.0,-9.499740600585218,0.0,0.0,1.5003204345710213,2.0,25.0,64.0,0.0,0.0001445555580986872,0.0042756180604298895,0.0,0.0,0.0,0.0,0.0,0.0,0.0,0.0,0.2999999999999999,0.0042756180604298895,0.0,0.0,0.0,0.0,0.0,0.006218222802554,0.0,0.0,50.34000015258789,0.0,57.878526594769035,63.99740174334345,0.0,63.99740174334345,0.0
31,31,0.306218222802554,2.0,2.0,2.0,2.0,64.0,64.0,64.0,64.0,32827.0,28165.0,32827.0,28246.0,32989.0,27963.0,32788.0,28039.0,14.355191048418687,-0.9750419017743528,0.2333612678495685,-0.4916806339247843,2.0,2.0,3.0,2.0,-0.2489999999999993,-0.2489999999999993,-0.2449999999999993,-0.2469999999999993,38.0,0.0,293.0,198.0,0.0,0.0,0.0,0.0,-17.65799969434738,183.447003364563,52.18999862670898,52.32500076293945,55.084999084472656,55.31999969482422,-8.7,25.0,38.0,0.0,0.0,52.18999862670898,0.0,0.0,0.0,0.0,-1111.702,-1111.702,0.0,38.0,-11.00006103515695,0.0,0.0,-1.5003204345717318,2.0,25.0,64.0,0.0,0.0001448402775658503,0.004420458337995739,0.0,0.0,0.0,0.0,0.0,0.0,0.0,0.0,0.3099999999999999,0.004420458337995739,0.0,0.0,0.0,0.0,0.0,0.006218222802554,0.0,0.0,50.34000015258789,0.0,57.9608343399673,63.99739804854461,0.0,63.99739804854461,0.0
32,32,0.316218222802554,2.0,2.0,2.0,2.0,64.0,64.0,64.0,64.0,32827.0,28172.0,32848.0,28269.0,32969.0,27886.0,32747.0,27998.0,14.373382834050073,-0.7877914106986063,0.2122085893013937,-0.4766608239863116,2.0,2.0,3.0,2.0,-0.2489999999999993,-0.2489999999999993,-0.2449999999999993,-0.2469999999999993,38.0,0.0,293.0,198.0,0.0,0.0,0.0,0.0,-7.847999781370163,190.31399488449097,52.29999923706055,52.35499954223633,55.32500076293945,55.31999969482422,-8.7,25.0,38.0,0.0,0.0,52.29999923706055,0.0,0.0,0.0,0.0,-1111.702,-1111.702,0.0,38.0,-6.000137329101557,0.0,0.0,4.999923706055393,2.0,25.0,64.0,0.0,0.0001451249970330134,0.004565583335028753,0.0,0.0,0.0,0.0,0.0,0.0,0.0,0.0,0.3199999999999999,0.004565583335028753,0.0,0.0,0.0,0.0,0.0,0.006218222802554,0.0,0.0,50.34000015258789,0.0,58.05610000982498,63.99739377206432,0.0,63.99739377206432,0.0
33,33,0.326218222802554,2.0,2.0,2.0,2.0,64.0,64.0,64.0,64.0,32809.0,28155.0,32848.0,28304.0,32990.0,27880.0,32809.0,27965.0,14.388906842064214,-0.5357071393216715,0.3928785820349856,-0.5642928606783285,2.0,2.0,3.0,2.0,-0.2489999999999993,-0.2489999999999993,-0.2449999999999993,-0.2469999999999993,38.0,0.0,293.0,198.0,0.0,0.0,0.0,0.0,-7.847999781370163,209.93399620056152,52.36000061035156,52.290000915527344,55.40499877929688,55.22499847412109,-7.829999792575835,25.0,38.0,0.0,0.0,52.36000061035156,0.0,0.0,0.0,0.0,-1111.702,-1111.702,0.0,38.0,-2.499771118164074,0.0,0.0,3.500366210937483,2.0,25.0,64.0,0.0,0.00014536111089918363,0.004710944445927937,0.0,0.0,0.0,0.0,0.0,0.0,0.0,0.0,0.3299999999999999,0.004710944445927937,0.0,0.0,0.0,0.0,0.0,0.006218222802554,0.0,0.0,50.34000015258789,0.0,58.108045420473815,63.99739144023265,0.0,63.99739144023265,0.0
34,34,0.336218222802554,2.0,2.0,2.0,2.0,64.0,64.0,64.0,64.0,32848.0,28179.0,32827.0,28305.0,32969.0,27891.0,32788.0,27940.0,14.403866632750432,-0.6553375855822405,-0.1982573117190708,-0.4178649657671038,2.0,2.0,3.0,2.0,-0.2489999999999993,-0.2489999999999993,-0.2449999999999993,-0.2469999999999993,38.0,0.0,293.0,198.0,0.0,0.0,0.0,0.0,10.790999978780746,176.57999992370603,52.3849983215332,52.31999969482422,55.125,55.18999862670898,-10.440000414848328,25.0,38.0,0.0,0.0,52.3849983215332,0.0,0.0,0.0,0.0,-1111.702,-1111.702,0.0,38.0,-1.5003204345703112,0.0,0.0,0.9994506835937629,2.0,25.0,64.0,0.0,0.0001454791651831726,0.004856423611111109,0.0,0.0,0.0,0.0,0.0,0.0,0.0,0.0,0.33999999999999986,0.004856423611111109,0.0,0.0,0.0,0.0,0.0,0.006218222802554,0.0,0.0,50.34000015258789,0.0,58.129682999617984,63.997390468920855,0.0,63.997390468920855,0.0
35,35,0.346218222802554,2.0,2.0,2.0,2.0,64.0,64.0,64.0,64.0,32889.0,28174.0,32848.0,28288.0,32990.0,27939.0,32768.0,27932.0,14.419213317334336,-0.4058777221541849,-0.7029467334149782,-0.4558777221541849,2.0,2.0,3.0,2.0,-0.2489999999999993,-0.2489999999999993,-0.2449999999999993,-0.2469999999999993,38.0,0.0,293.0,198.0,0.0,0.0,0.0,0.0,-31.39199912548065,170.69400548934937,52.400001525878906,52.595001220703125,55.03499984741211,55.20000076293945,-6.9600001037120816,25.0,38.0,0.0,0.0,52.400001525878906,0.0,0.0,0.0,0.0,-1111.702,-1111.702,0.0,38.0,-18.499755859374982,0.0,0.0,-16.99943542480467,2.0,25.0,64.0,0.0,0.00014553472201029474,0.005001958333121404,0.0,0.0,0.0,0.0,0.0,0.0,0.0,0.0,0.34999999999999987,0.005001958333121404,0.0,0.0,0.0,0.0,0.0,0.006218222802554,0.0,0.0,50.34000015258789,0.0,58.14266841859138,63.99738988600488,0.0,63.99738988600488,0.0
36,36,0.356218222802554,2.0,2.0,2.0,2.0,64.0,64.0,64.0,64.0,32809.0,28173.0,32827.0,28278.0,32990.0,27938.0,32768.0,27947.0,14.434891757305468,-0.1915739696819371,-0.958426030318063,-0.2331479393638742,2.0,2.0,3.0,2.0,-0.2489999999999993,-0.2489999999999993,-0.2449999999999993,-0.2469999999999993,38.0,0.0,293.0,198.0,0.0,0.0,0.0,0.0,-31.39199912548065,173.63699674606323,52.584999084472656,52.72999954223633,54.869998931884766,55.10499954223633,-8.7,25.0,38.0,0.0,0.0,52.584999084472656,0.0,0.0,0.0,0.0,-1111.702,-1111.702,0.0,38.0,-10.499954223632093,0.0,0.0,7.999801635742889,2.0,25.0,64.0,0.0,0.00014581250084771066,0.0051477708339691145,0.0,0.0,0.0,0.0,0.0,0.0,0.0,0.0,0.3599999999999999,0.0051477708339691145,0.0,0.0,0.0,0.0,0.0,0.006218222802554,0.0,0.0,50.34000015258789,0.0,58.302718466634595,63.99738270135265,0.0,63.99738270135265,0.0
37,37,0.366218222802554,2.0,2.0,2.0,2.0,64.0,64.0,64.0,64.0,32827.0,28158.0,32827.0,28260.0,33010.0,27964.0,32809.0,27950.0,14.449370403032807,-0.0809755877933259,-1.2243293396716906,-0.1931402576291712,2.0,2.0,3.0,2.0,-0.2489999999999993,-0.2489999999999993,-0.2449999999999993,-0.2469999999999993,38.0,0.0,293.0,198.0,0.0,0.0,0.0,0.0,-34.334999322891235,180.50400018692017,52.68999862670898,52.72999954223633,55.084999084472656,55.08000183105469,-4.35,25.0,38.0,0.0,0.0,52.68999862670898,0.0,0.0,0.0,0.0,-1111.702,-1111.702,0.0,38.0,0.9998321533196011,0.0,0.0,11.499786376951693,2.0,25.0,64.0,0.0,0.00014621527459886353,0.005293986108567978,0.0,0.0,0.0,0.0,0.0,0.0,0.0,0.0,0.3699999999999999,0.005293986108567978,0.0,0.0,0.0,0.0,0.0,0.006218222802554,0.0,0.0,50.34000015258789,0.0,58.39350336665763,63.997378626015916,0.0,63.997378626015916,0.0
38,38,0.376218222802554,2.0,2.0,2.0,2.0,64.0,64.0,64.0,64.0,32847.0,28161.0,32827.0,28242.0,32969.0,28010.0,32768.0,27966.0,14.464215620519363,0.205950021470515,-2.255950021470515,-0.426429987117691,2.0,2.0,3.0,2.0,-0.2489999999999993,-0.2489999999999993,-0.2449999999999993,-0.2469999999999993,38.0,0.0,293.0,198.0,0.0,0.0,0.0,0.0,-44.144999980926514,160.8839988708496,52.68000030517578,52.90499877929688,55.025001525878906,55.1150016784668,-2.610000103712082,25.0,38.0,0.0,0.0,52.68000030517578,0.0,0.0,0.0,0.0,-1111.702,-1111.702,0.0,38.0,-11.999893188476552,0.0,0.0,-12.999725341796154,2.0,25.0,64.0,0.0,0.00014634722073872899,0.005440333329306707,0.0,0.0,0.0,0.0,0.0,0.0,0.0,0.0,0.3799999999999999,0.005440333329306707,0.0,0.0,0.0,0.0,0.0,0.006218222802554,0.0,0.0,50.34000015258789,0.0,58.38486031493224,63.99737901400273,0.0,63.99737901400273,0.0
39,39,0.386218222802554,2.0,2.0,2.0,2.0,64.0,64.0,64.0,64.0,32847.0,28118.0,32848.0,28225.0,33010.0,28061.0,32809.0,27993.0,14.47974451380887,-0.034790489480333,-1.9717213986692503,-0.4630237762991674,2.0,2.0,3.0,2.0,-0.2489999999999993,-0.2489999999999993,-0.2449999999999993,-0.2469999999999993,38.0,0.0,293.0,198.0,0.0,0.0,0.0,0.0,-34.334999322891235,170.69400548934937,52.79999923706055,52.98500061035156,54.92499923706055,55.119998931884766,-6.9600001037120816,25.0,38.0,0.0,0.0,52.79999923706055,0.0,0.0,0.0,0.0,-1111.702,-1111.702,0.0,38.0,-11.50016784667974,0.0,0.0,0.49972534179681105,2.0,25.0,64.0,0.0,0.00014649999936421727,0.005586833328670925,0.0,0.0,0.0,0.0,0.0,0.0,0.0,0.0,0.3899999999999999,0.005586833328670925,0.0,0.0,0.0,0.0,0.0,0.006218222802554,0.0,0.0,50.34000015258789,0.0,58.488569620646985,63.99737435848954,0.0,63.99737435848954,0.0
40,40,0.396218222802554,2.0,2.0,2.0,2.0,64.0,64.0,64.0,64.0,32847.0,28105.0,32848.0,28260.0,33010.0,28086.0,32768.0,27966.0,14.496352756513645,-0.0840585048981644,-1.5917184646355833,-0.1659414951018355,2.0,2.0,3.0,2.0,-0.2489999999999993,-0.2489999999999993,-0.2449999999999993,-0.2469999999999993,38.0,0.0,293.0,198.0,0.0,0.0,0.0,0.0,-34.334999322891235,173.63699674606323,52.915000915527344,52.875,54.8650016784668,55.20500183105469,-9.570000207424163,25.0,38.0,0.0,0.0,52.915000915527344,0.0,0.0,0.0,0.0,-1111.702,-1111.702,0.0,38.0,-10.499954223632804,0.0,0.0,1.0002136230469372,2.0,25.0,64.0,0.0,0.00014682638910081582,0.005733659717771741,0.0,0.0,0.0,0.0,0.0,0.0,0.0,0.0,0.39999999999999986,0.005733659717771741,0.0,0.0,0.0,0.0,0.0,0.006218222802554,0.0,0.0,50.34000015258789,0.0,58.58791139079175,63.99736989903563,0.0,63.99736989903563,0.0
41,41,0.406218222802554,2.0,2.0,2.0,2.0,64.0,64.0,64.0,64.0,32868.0,28102.0,32848.0,28235.0,32948.0,28087.0,32747.0,27939.0,14.510124394339266,0.4916092856025831,-1.340232140064578,-0.75,2.0,2.0,3.0,2.0,-0.2489999999999993,-0.2489999999999993,-0.2449999999999993,-0.2469999999999993,38.0,0.0,293.0,198.0,0.0,0.0,0.0,0.0,-47.0880001783371,193.2569980621338,53.02000045776367,52.880001068115234,55.03499984741211,55.46500015258789,-0.8700000129640102,25.0,38.0,0.0,0.0,53.02000045776367,0.0,0.0,0.0,0.0,-1111.702,-1111.702,0.0,38.0,10.000228881835929,0.0,0.0,20.500183105468732,2.0,25.0,64.0,0.0,0.0001471319463517932,0.005880791664123534,0.0,0.0,0.0,0.0,0.0,0.0,0.0,0.0,0.40999999999999986,0.005880791664123534,0.0,0.0,0.0,0.0,0.0,0.006218222802554,0.0,0.0,50.34000015258789,0.0,58.678571552112096,63.99736582929976,0.0,63.99736582929976,0.0
42,42,0.416218222802554,2.0,2.0,2.0,2.0,64.0,64.0,64.0,64.0,32827.0,28118.0,32827.0,28221.0,32990.0,28060.0,32768.0,27915.0,14.524200045551362,0.3529595299123003,-0.0794534770734098,-0.7411781390829364,2.0,2.0,3.0,2.0,-0.2489999999999993,-0.2489999999999993,-0.2449999999999993,-0.2469999999999993,38.0,0.0,293.0,198.0,0.0,0.0,0.0,0.0,-17.65799969434738,163.82700204849243,52.91999816894531,53.095001220703125,55.26499938964844,55.625,-13.05,25.0,38.0,0.0,0.0,52.91999816894531,0.0,0.0,0.0,0.0,-1111.702,-1111.702,0.0,38.0,-22.00012207031248,0.0,0.0,-32.00035095214841,2.0,25.0,64.0,0.0,0.0001471388869815404,0.006027930551105074,0.0,0.0,0.0,0.0,0.0,0.0,0.0,0.0,0.4199999999999999,0.006027930551105074,0.0,0.0,0.0,0.0,0.0,0.006218222802554,0.0,0.0,50.34000015258789,0.0,58.59222708508143,63.99736970530405,0.0,63.99736970530405,0.0
43,43,0.426218222802554,2.0,2.0,2.0,2.0,64.0,64.0,64.0,64.0,32909.0,28053.0,32827.0,28232.0,32969.0,28041.0,32747.0,27907.0,14.539545818882631,-0.0471260421105598,0.9676246526298136,-0.6823753473701867,2.0,2.0,3.0,2.0,-0.2489999999999993,-0.2489999999999993,-0.2449999999999993,-0.2469999999999993,38.0,0.0,293.0,198.0,0.0,0.0,0.0,0.0,-11.772000044584274,176.57999992370603,53.13999938964844,53.06999969482422,55.55500030517578,55.6349983215332,-13.05,25.0,38.0,0.0,0.0,53.13999938964844,0.0,0.0,0.0,0.0,-1111.702,-1111.702,0.0,38.0,-6.999969482421869,0.0,0.0,15.00015258789061,2.0,25.0,64.0,0.0,0.0001473055521647137,0.006175236103269787,0.0,0.0,0.0,0.0,0.0,0.0,0.0,0.0,0.4299999999999999,0.006175236103269787,0.0,0.0,0.0,0.0,0.0,0.006218222802554,0.0,0.0,50.34000015258789,0.0,58.78213434470234,63.997361180365104,0.0,63.997361180365104,0.0
44,44,0.436218222802554,2.0,2.0,2.0,2.0,64.0,64.0,64.0,64.0,32868.0,28087.0,32848.0,28235.0,32969.0,28003.0,32788.0,27934.0,14.556159240511375,0.2,1.224581839457088,-0.6261872759185632,2.0,2.0,3.0,2.0,-0.2489999999999993,-0.2489999999999993,-0.2449999999999993,-0.2469999999999993,38.0,0.0,293.0,198.0,0.0,0.0,0.0,0.0,-31.39199912548065,186.38999462127688,53.209999084472656,53.07500076293945,55.6150016784668,55.6150016784668,-12.179999792575837,25.0,38.0,0.0,0.0,53.209999084472656,0.0,0.0,0.0,0.0,-1111.702,-1111.702,0.0,38.0,16.50009155273436,0.0,0.0,23.50006103515623,2.0,25.0,64.0,0.0,0.00014770833121405721,0.006322944434483844,0.0,0.0,0.0,0.0,0.0,0.0,0.0,0.0,0.4399999999999999,0.006322944434483844,0.0,0.0,0.0,0.0,0.0,0.006218222802554,0.0,0.0,50.34000015258789,0.0,58.8425224849863,63.997358469541226,0.0,63.997358469541226,0.0
45,45,0.446218222802554,2.0,2.0,2.0,2.0,64.0,64.0,64.0,64.0,32847.0,28105.0,32848.0,28214.0,33031.0,27962.0,32847.0,27978.0,14.571856760592018,0.2412981912398388,2.149115658975613,-0.6591439792723546,2.0,2.0,3.0,2.0,-0.2489999999999993,-0.2489999999999993,-0.2449999999999993,-0.2469999999999993,38.0,0.0,293.0,198.0,0.0,0.0,0.0,0.0,-14.714999496936798,203.0669927597046,53.04499816894531,53.255001068115234,55.72999954223633,55.45000076293945,-10.440000414848328,25.0,38.0,0.0,0.0,53.04499816894531,0.0,0.0,0.0,0.0,-1111.702,-1111.702,0.0,38.0,6.999969482422618,0.0,0.0,-9.500122070311743,2.0,25.0,64.0,0.0,0.00014757638507419176,0.0064705208195580365,0.0,0.0,0.0,0.0,0.0,0.0,0.0,0.0,0.4499999999999999,0.0064705208195580365,0.0,0.0,0.0,0.0,0.0,0.006218222802554,0.0,0.0,50.34000015258789,0.0,58.70014959911148,63.997364860660994,0.0,63.997364860660994,0.0
46,46,0.456218222802554,2.0,2.0,2.0,2.0,64.0,64.0,64.0,64.0,32847.0,28107.0,32827.0,28202.0,32990.0,27941.0,32768.0,28012.0,14.586324078337515,0.4171487234958331,2.469317979227082,-0.2821281912604172,2.0,2.0,3.0,2.0,-0.2489999999999993,-0.2489999999999993,-0.2449999999999993,-0.2469999999999993,38.0,0.0,293.0,198.0,0.0,0.0,0.0,0.0,30.410999059677124,193.2569980621338,52.97499847412109,53.375,55.845001220703125,55.39500045776367,-13.05,25.0,38.0,0.0,0.0,52.97499847412109,0.0,0.0,0.0,0.0,-1111.702,-1111.702,0.0,38.0,-13.500213623047573,0.0,0.0,-20.500183105470192,2.0,25.0,64.0,0.0,0.00014724999533759155,0.006617770814895628,0.0,0.0,0.0,0.0,0.0,0.0,0.0,0.0,0.45999999999999985,0.006617770814895628,0.0,0.0,0.0,0.0,0.0,0.006218222802554,0.0,0.0,50.34000015258789,0.0,58.6397201563193,63.99736757333939,0.0,63.99736757333939,0.0
47,47,0.466218222802554,2.0,2.0,2.0,2.0,64.0,64.0,64.0,64.0,32809.0,28121.0,32908.0,28187.0,33011.0,27959.0,32788.0,28025.0,14.600433370770611,0.2588189077268064,1.3207083991030322,-0.6382676459123549,2.0,2.0,3.0,2.0,-0.2489999999999993,-0.2489999999999993,-0.2449999999999993,-0.2469999999999993,38.0,0.0,293.0,198.0,0.0,0.0,0.0,0.0,-11.772000044584274,183.447003364563,53.11000061035156,53.40999984741211,55.81999969482422,55.43000030517578,-3.4800000518560408,25.0,38.0,0.0,0.0,53.11000061035156,0.0,0.0,0.0,0.0,-1111.702,-1111.702,0.0,38.0,-6.999969482421869,0.0,0.0,6.500244140625704,2.0,25.0,64.0,0.0,0.00014734027650621217,0.00676511109140184,0.0,0.0,0.0,0.0,0.0,0.0,0.0,0.0,0.46999999999999986,0.00676511109140184,0.0,0.0,0.0,0.0,0.0,0.006218222802554,0.0,0.0,50.34000015258789,0.0,58.756249297249624,63.99736234234506,0.0,63.99736234234506,0.0
48,48,0.476218222802554,2.0,2.0,2.0,2.0,64.0,64.0,64.0,64.0,32788.0,28135.0,32848.0,28195.0,32969.0,28028.0,32788.0,27999.0,14.61569440988702,0.3,0.3733971653472812,-0.314743667043634,2.0,2.0,3.0,2.0,-0.2489999999999993,-0.2489999999999993,-0.2449999999999993,-0.2469999999999993,38.0,0.0,293.0,198.0,0.0,0.0,0.0,0.0,-24.52500015497208,180.50400018692017,53.18000030517578,53.3849983215332,55.7400016784668,55.685001373291016,-12.179999792575837,25.0,38.0,0.0,0.0,53.18000030517578,0.0,0.0,0.0,0.0,-1111.702,-1111.702,0.0,38.0,-3.4999847412109344,0.0,0.0,3.4999847412109344,2.0,25.0,64.0,0.0,0.00014762500127156588,0.0069127360926734055,0.0,0.0,0.0,0.0,0.0,0.0,0.0,0.0,0.47999999999999987,0.0069127360926734055,0.0,0.0,0.0,0.0,0.0,0.006218222802554,0.0,0.0,50.34000015258789,0.0,58.81664493509433,63.99735963118453,0.0,63.99735963118453,0.0
49,49,0.486218222802554,2.0,2.0,2.0,2.0,64.0,64.0,64.0,64.0,32827.0,28148.0,32848.0,28214.0,32969.0,28097.0,32809.0,27946.0,14.629756181249116,0.378422996529395,0.8628633371895611,-0.1587136662810438,2.0,2.0,3.0,2.0,-0.2489999999999993,-0.2489999999999993,-0.2449999999999993,-0.2469999999999993,38.0,0.0,293.0,198.0,0.0,0.0,0.0,0.0,27.46799886226654,196.2000012397766,53.21500015258789,53.34999847412109,55.525001525878906,55.96500015258789,-6.089999896287917,25.0,38.0,0.0,0.0,53.21500015258789,0.0,0.0,0.0,0.0,-1111.702,-1111.702,0.0,38.0,-5.50003051757812,0.0,0.0,-2.0000457763671853,2.0,25.0,64.0,0.0,0.00014777083396911634,0.007060506926642522,0.0,0.0,0.0,0.0,0.0,0.0,0.0,0.0,0.4899999999999999,0.007060506926642522,0.0,0.0,0.0,0.0,0.0,0.006218222802554,0.0,0.0,50.34000015258789,0.0,58.84683619466725,63.99735827589879,0.0,63.99735827589879,0.0
50,50,0.496218222802554,2.0,2.0,2.0,2.0,64.0,64.0,64.0,64.0,32868.0,28152.0,32827.0,28237.0,33010.0,28123.0,32747.0,27893.0,14.642711694933112,0.6675753813995122,0.4170301525598049,-0.1917575381399512,2.0,2.0,3.0,2.0,-0.2489999999999993,-0.2489999999999993,-0.2449999999999993,-0.2469999999999993,38.0,0.0,293.0,198.0,0.0,0.0,0.0,0.0,17.65799969434738,183.447003364563,53.27000045776367,53.3650016784668,55.435001373291016,56.22999954223633,-2.610000103712082,25.0,38.0,0.0,0.0,53.27000045776367,0.0,0.0,0.0,0.0,-1111.702,-1111.702,0.0,38.0,-5.50003051757812,0.0,0.0,0.0,2.0,25.0,64.0,0.0,0.00014789583418104398,0.007208402760823566,0.0,0.0,0.0,0.0,0.0,0.0,0.0,0.0,0.4999999999999999,0.007208402760823566,0.0,0.0,0.0,0.0,0.0,0.006218222802554,0.0,0.0,50.34000015258789,0.0,58.89427124827105,63.99735614653917,0.0,63.99735614653917,0.0
51,51,0.506218222802554,2.0,2.0,2.0,2.0,64.0,64.0,64.0,64.0,32788.0,28156.0,32848.0,28268.0,32948.0,28144.0,32788.0,27862.0,14.655239227102632,0.1514836246033243,0.4059842610447364,-0.1582096979497229,2.0,2.0,3.0,2.0,-0.2489999999999993,-0.2489999999999993,-0.2449999999999993,-0.2469999999999993,38.0,0.0,293.0,198.0,0.0,0.0,0.0,0.0,-37.27799952030182,173.63699674606323,53.32500076293945,53.29999923706055,55.63999938964844,56.380001068115234,-3.4800000518560408,25.0,38.0,0.0,0.0,53.32500076293945,0.0,0.0,0.0,0.0,-1111.702,-1111.702,0.0,38.0,-11.999893188476552,0.0,0.0,-6.499862670898432,2.0,25.0,64.0,0.0,0.00014804861280653226,0.007356451373630098,0.0,0.0,0.0,0.0,0.0,0.0,0.0,0.0,0.5099999999999999,0.007356451373630098,0.0,0.0,0.0,0.0,0.0,0.006218222802554,0.0,0.0,50.34000015258789,0.0,58.94169552841401,63.997354017663284,0.0,63.997354017663284,0.0
52,52,0.516218222802554,2.0,2.0,2.0,2.0,64.0,64.0,64.0,64.0,32868.0,28149.0,32848.0,28260.0,32990.0,28151.0,32768.0,27922.0,14.66850571510924,-0.314710299552234,1.270579400895532,-0.1558878744402925,2.0,2.0,3.0,2.0,-0.2489999999999993,-0.2489999999999993,-0.2449999999999993,-0.2469999999999993,38.0,0.0,293.0,198.0,0.0,0.0,0.0,0.0,-7.847999781370163,163.82700204849243,53.44499969482422,53.45000076293945,55.72499847412109,56.220001220703125,-2.610000103712082,25.0,38.0,0.0,0.0,53.44499969482422,0.0,0.0,0.0,0.0,-1111.702,-1111.702,0.0,38.0,-15.499877929686775,0.0,0.0,-3.4999847412102234,2.0,25.0,64.0,0.0,0.0001482916673024497,0.007504743040932548,0.0,0.0,0.0,0.0,0.0,0.0,0.0,0.0,0.5199999999999999,0.007504743040932548,0.0,0.0,0.0,0.0,0.0,0.006218222802554,0.0,0.0,50.34000015258789,0.0,59.045127860945975,63.99734937458639,0.0,63.99734937458639,0.0
53,53,0.526218222802554,2.0,2.0,2.0,2.0,64.0,64.0,64.0,64.0,32829.0,28142.0,32848.0,28253.0,33010.0,28156.0,32726.0,28044.0,14.68485227379476,-0.1059267291463781,1.4677801874391343,0.0235560374878268,2.0,2.0,3.0,2.0,-0.2489999999999993,-0.2489999999999993,-0.2449999999999993,-0.2469999999999993,38.0,0.0,293.0,198.0,0.0,0.0,0.0,0.0,20.600999891757965,167.75100231170654,53.59999847412109,53.630001068115234,55.84999847412109,55.71500015258789,-3.4800000518560408,25.0,38.0,0.0,0.0,53.59999847412109,0.0,0.0,0.0,0.0,-1111.702,-1111.702,0.0,38.0,-1.5003204345710217,0.0,0.0,13.999557495115754,2.0,25.0,64.0,0.0,0.00014867360856797975,0.007653416649500528,0.0,0.0,0.0,0.0,0.0,0.0,0.0,0.0,0.5299999999999999,0.007653416649500528,0.0,0.0,0.0,0.0,0.0,0.006218222802554,0.0,0.0,50.34000015258789,0.0,59.178652515410676,63.99734338066614,0.0,63.99734338066614,0.0
54,54,0.536218222802554,2.0,2.0,2.0,2.0,64.0,64.0,64.0,64.0,32827.0,28131.0,32868.0,28237.0,32990.0,28184.0,32768.0,28175.0,14.700749894170746,-0.0762911131245412,0.8147417773750918,-0.0911854443437729,2.0,2.0,3.0,2.0,-0.2489999999999993,-0.2489999999999993,-0.2449999999999993,-0.2469999999999993,38.0,0.0,293.0,198.0,0.0,0.0,0.0,0.0,-4.904999956488609,203.0669927597046,53.6150016784668,53.73500061035156,55.92499923706055,55.31499862670898,0.8700000129640102,25.0,38.0,0.0,0.0,53.6150016784668,0.0,0.0,0.0,0.0,-1111.702,-1111.702,0.0,38.0,10.000228881835929,0.0,0.0,11.50054931640695,2.0,25.0,64.0,0.0,0.00014890972243414998,0.0078023263719346776,0.0,0.0,0.0,0.0,0.0,0.0,0.0,0.0,0.5399999999999999,0.0078023263719346776,0.0,0.0,0.0,0.0,0.0,0.006218222802554,0.0,0.0,50.34000015258789,0.0,59.19157260577865,63.99734280068348,0.0,63.99734280068348,0.0
55,55,0.546218222802554,2.0,2.0,2.0,2.0,64.0,64.0,64.0,64.0,32889.0,28149.0,32848.0,28243.0,32990.0,28179.0,32747.0,28226.0,14.713493485898193,-0.9086228684439988,0.589639920892009,0.0534744213279846,2.0,2.0,3.0,2.0,-0.2489999999999993,-0.2489999999999993,-0.2449999999999993,-0.2469999999999993,38.0,0.0,293.0,198.0,0.0,0.0,0.0,0.0,-11.772000044584274,200.12400150299072,53.51499938964844,53.790000915527344,55.86000061035156,55.29999923706055,-1.7400000259280204,25.0,38.0,0.0,0.0,53.51499938964844,0.0,0.0,0.0,0.0,-1111.702,-1111.702,0.0,38.0,-18.500137329101545,0.0,0.0,-28.50036621093747,2.0,25.0,64.0,0.0,0.00014879166815016018,0.007951118040084838,0.0,0.0,0.0,0.0,0.0,0.0,0.0,0.0,0.5499999999999999,0.007951118040084838,0.0,0.0,0.0,0.0,0.0,0.006218222802554,0.0,0.0,50.34000015258789,0.0,59.105440064577145,63.99734666717213,0.0,63.99734666717213,0.0
56,56,0.5562182228025541,2.0,2.0,2.0,2.0,64.0,64.0,64.0,64.0,32868.0,28171.0,32848.0,28258.0,32948.0,28187.0,32788.0,28202.0,14.72642842693452,-0.9253623246295803,0.2671497661727738,0.4596618569751279,2.0,2.0,3.0,2.0,-0.2489999999999993,-0.2489999999999993,-0.2449999999999993,-0.2469999999999993,38.0,0.0,293.0,198.0,0.0,0.0,0.0,0.0,-17.65799969434738,163.82700204849243,53.70000076293945,53.755001068115234,56.08000183105469,55.709999084472656,-0.8700000129640102,25.0,38.0,0.0,0.0,53.70000076293945,0.0,0.0,0.0,0.0,-1111.702,-1111.702,0.0,38.0,-11.999893188476552,0.0,0.0,6.500244140624993,2.0,25.0,64.0,0.0,0.00014890972243414998,0.008100027762518988,0.0,0.0,0.0,0.0,0.0,0.0,0.0,0.0,0.5599999999999999,0.008100027762518988,0.0,0.0,0.0,0.0,0.0,0.006218222802554,0.0,0.0,50.34000015258789,0.0,59.26475501639043,63.99733951552631,0.0,63.99733951552631,0.0
57,57,0.5662182228025541,2.0,2.0,2.0,2.0,64.0,64.0,64.0,64.0,32827.0,28172.0,32827.0,28262.0,33010.0,28161.0,32768.0,28128.0,14.74045657782375,-0.8705369401131976,0.0559144124292515,0.026451352542449,2.0,2.0,3.0,2.0,-0.2489999999999993,-0.2489999999999993,-0.2449999999999993,-0.2469999999999993,38.0,0.0,293.0,198.0,0.0,0.0,0.0,0.0,-31.39199912548065,157.9409956932068,53.81999969482422,53.77999877929688,56.20000076293945,56.35499954223633,9.570000207424163,25.0,38.0,0.0,0.0,53.81999969482422,0.0,0.0,0.0,0.0,-1111.702,-1111.702,0.0,38.0,14.500045776367335,0.0,0.0,26.499938964843885,2.0,25.0,64.0,0.0,0.00014933333396911636,0.008249361096488104,0.0,0.0,0.0,0.0,0.0,0.0,0.0,0.0,0.57,0.008249361096488104,0.0,0.0,0.0,0.0,0.0,0.006218222802554,0.0,0.0,50.34000015258789,0.0,59.368028188168324,63.997334879595876,0.0,63.997334879595876,0.0
58,58,0.576218222802554,2.0,2.0,2.0,2.0,64.0,64.0,64.0,64.0,32809.0,28196.0,32889.0,28263.0,33010.0,28186.0,32768.0,28052.0,14.757276445974334,-1.1646872954679084,-0.0175773580046565,0.0528900625367481,2.0,2.0,3.0,2.0,-0.2489999999999993,-0.2489999999999993,-0.2449999999999993,-0.2469999999999993,38.0,0.0,293.0,198.0,0.0,0.0,0.0,0.0,-34.334999322891235,163.82700204849243,53.67499923706055,53.8849983215332,56.400001525878906,56.68999862670898,0.0,25.0,38.0,0.0,0.0,53.67499923706055,0.0,0.0,0.0,0.0,-1111.702,-1111.702,0.0,38.0,-2.500152587890623,0.0,0.0,-17.000198364257958,2.0,25.0,64.0,0.0,0.0001492986096276162,0.00839865970611572,0.0,0.0,0.0,0.0,0.0,0.0,0.0,0.0,0.5799999999999998,0.00839865970611572,0.0,0.0,0.0,0.0,0.0,0.006218222802554,0.0,0.0,50.34000015258789,0.0,59.243231879651695,63.997340481699524,0.0,63.997340481699524,0.0
59,59,0.586218222802554,2.0,2.0,2.0,2.0,64.0,64.0,64.0,64.0,32868.0,28181.0,32969.0,28227.0,32969.0,28185.0,32768.0,28026.0,14.776015581041191,-0.930041820733022,0.5825104551832555,-0.4612134068586057,2.0,2.0,3.0,2.0,-0.2489999999999993,-0.2489999999999993,-0.2449999999999993,-0.2469999999999993,38.0,0.0,293.0,198.0,0.0,0.0,0.0,0.0,-17.65799969434738,190.31399488449097,53.70000076293945,54.025001525878906,56.290000915527344,56.869998931884766,2.610000103712082,25.0,38.0,0.0,0.0,53.70000076293945,0.0,0.0,0.0,0.0,-1111.702,-1111.702,0.0,38.0,-19.499969482421857,0.0,0.0,-16.999816894531236,2.0,25.0,64.0,0.0,0.0001491319444444446,0.008547791650560166,0.0,0.0,0.0,0.0,0.0,0.0,0.0,0.0,0.5899999999999999,0.008547791650560166,0.0,0.0,0.0,0.0,0.0,0.006218222802554,0.0,0.0,50.34000015258789,0.0,59.26475501639043,63.99733951552631,0.0,63.99733951552631,0.0
60,60,0.596218222802554,2.0,2.0,2.0,2.0,64.0,64.0,64.0,64.0,32829.0,28178.0,32827.0,28207.0,32969.0,28220.0,32788.0,28022.0,14.79321893277617,-0.5667459537909465,0.5083135115522633,-0.6502378613728397,2.0,2.0,3.0,2.0,-0.2489999999999993,-0.2489999999999993,-0.2449999999999993,-0.2469999999999993,38.0,0.0,293.0,198.0,0.0,0.0,0.0,0.0,-37.27799952030182,215.8200025558472,53.89500045776367,54.23500061035156,56.40499877929688,56.665000915527344,-6.9600001037120816,25.0,38.0,0.0,0.0,53.89500045776367,0.0,0.0,0.0,0.0,-1111.702,-1111.702,0.0,38.0,-12.49999999999999,0.0,0.0,6.999969482421868,2.0,25.0,64.0,0.0,0.00014943750169542114,0.008697229152255587,0.0,0.0,0.0,0.0,0.0,0.0,0.0,0.0,0.5999999999999999,0.008697229152255587,0.0,0.0,0.0,0.0,0.0,0.006218222802554,0.0,0.0,50.34000015258789,0.0,59.43254942400045,63.99733198323927,0.0,63.99733198323927,0.0
61,61,0.606218222802554,2.0,2.0,2.0,2.0,64.0,64.0,64.0,64.0,32868.0,28192.0,32827.0,28201.0,32969.0,28239.0,32788.0,28003.0,14.810985666755077,-0.4084187157993627,0.4405566946082848,-0.1584187157993627,2.0,2.0,3.0,2.0,-0.2489999999999993,-0.2489999999999993,-0.2449999999999993,-0.2469999999999993,38.0,0.0,293.0,198.0,0.0,0.0,0.0,0.0,-21.581999957561493,196.2000012397766,54.02000045776367,54.185001373291016,56.25,56.6349983215332,-13.05,25.0,38.0,0.0,0.0,54.02000045776367,0.0,0.0,0.0,0.0,-1111.702,-1111.702,0.0,38.0,4.999923706054683,0.0,0.0,17.499923706054673,2.0,25.0,64.0,0.0,0.00014988194571601034,0.008847111097971597,0.0,0.0,0.0,0.0,0.0,0.0,0.0,0.0,0.6099999999999999,0.008847111097971597,0.0,0.0,0.0,0.0,0.0,0.006218222802554,0.0,0.0,50.34000015258789,0.0,59.540039850608636,63.997327157997304,0.0,63.997327157997304,0.0
62,62,0.616218222802554,2.0,2.0,2.0,2.0,64.0,64.0,64.0,64.0,32827.0,28193.0,32827.0,28184.0,32990.0,28253.0,32768.0,27996.0,14.828174565928144,-0.397120318680813,0.0321992032979673,-0.1911867197801355,2.0,2.0,3.0,2.0,-0.2489999999999993,-0.2489999999999993,-0.2449999999999993,-0.2469999999999993,38.0,0.0,293.0,198.0,0.0,0.0,0.0,0.0,-11.772000044584274,190.31399488449097,53.970001220703125,54.2400016784668,56.244998931884766,56.78499984741211,-2.610000103712082,25.0,38.0,0.0,0.0,53.970001220703125,0.0,0.0,0.0,0.0,-1111.702,-1111.702,0.0,38.0,-5.999755859375705,0.0,0.0,-10.999679565430387,2.0,25.0,64.0,0.0,0.00014998611344231515,0.008997097211413913,0.0,0.0,0.0,0.0,0.0,0.0,0.0,0.0,0.6199999999999999,0.008997097211413913,0.0,0.0,0.0,0.0,0.0,0.006218222802554,0.0,0.0,50.34000015258789,0.0,59.49705090941708,63.99732908776949,0.0,63.99732908776949,0.0
63,63,0.626218222802554,2.0,2.0,2.0,2.0,64.0,64.0,64.0,64.0,32847.0,28180.0,32848.0,28171.0,33010.0,28204.0,32726.0,28059.0,14.84641768194467,-0.0705915288516658,0.6941158173046301,-0.0970610192344438,2.0,2.0,3.0,2.0,-0.2489999999999993,-0.2489999999999993,-0.2449999999999993,-0.2469999999999993,38.0,0.0,293.0,198.0,0.0,0.0,0.0,0.0,1.9619999453425407,180.50400018692017,54.02999877929688,54.31999969482422,56.34000015258789,56.59000015258789,-3.4800000518560408,25.0,38.0,0.0,0.0,54.02999877929688,0.0,0.0,0.0,0.0,-1111.702,-1111.702,0.0,38.0,0.4997253417975851,0.0,0.0,6.499481201173291,2.0,25.0,64.0,0.0,0.00015000000000000015,0.009147097211413914,0.0,0.0,0.0,0.0,0.0,0.0,0.0,0.0,0.6299999999999999,0.009147097211413914,0.0,0.0,0.0,0.0,0.0,0.006218222802554,0.0,0.0,50.34000015258789,0.0,59.548635276450426,63.997326772148924,0.0,63.997326772148924,0.0
64,64,0.636218222802554,2.0,2.0,2.0,2.0,64.0,64.0,64.0,64.0,32847.0,28200.0,32848.0,28196.0,32990.0,28165.0,32788.0,28113.0,14.863921877121829,0.3086784404382228,0.8826431191235543,0.1586784404382228,2.0,2.0,3.0,2.0,-0.2489999999999993,-0.2489999999999993,-0.2449999999999993,-0.2469999999999993,38.0,0.0,293.0,198.0,0.0,0.0,0.0,0.0,-31.39199912548065,190.31399488449097,54.025001525878906,54.275001525878906,56.709999084472656,56.33000183105469,-2.610000103712082,25.0,38.0,0.0,0.0,54.025001525878906,0.0,0.0,0.0,0.0,-1111.702,-1111.702,0.0,38.0,-15.999984741210923,0.0,0.0,-16.49971008300851,2.0,25.0,64.0,0.0,0.00015007638931274428,0.009297173600726658,0.0,0.0,0.0,0.0,0.0,0.0,0.0,0.0,0.6399999999999999,0.009297173600726658,0.0,0.0,0.0,0.0,0.0,0.006218222802554,0.0,0.0,50.34000015258789,0.0,59.54433924699752,63.99732696499754,0.0,63.99732696499754,0.0
65,65,0.646218222802554,2.0,2.0,2.0,2.0,64.0,64.0,64.0,64.0,32829.0,28195.0,32848.0,28201.0,32990.0,28126.0,32768.0,28162.0,14.87760792088583,0.4391475999332673,0.7594783636666967,0.2,2.0,2.0,3.0,2.0,-0.2489999999999993,-0.2489999999999993,-0.2449999999999993,-0.2469999999999993,38.0,0.0,293.0,198.0,0.0,0.0,0.0,0.0,-24.52500015497208,190.31399488449097,54.185001373291016,54.244998931884766,56.84000015258789,56.34999847412109,2.610000103712082,25.0,38.0,0.0,0.0,54.185001373291016,0.0,0.0,0.0,0.0,-1111.702,-1111.702,0.0,38.0,-3.4999847412109344,0.0,0.0,12.49999999999999,2.0,25.0,64.0,0.0,0.0001502916706932917,0.00944746527141995,0.0,0.0,0.0,0.0,0.0,0.0,0.0,0.0,0.6499999999999999,0.00944746527141995,0.0,0.0,0.0,0.0,0.0,0.006218222802554,0.0,0.0,50.34000015258789,0.0,59.68184425909524,63.99732079240264,0.0,63.99732079240264,0.0
66,66,0.656218222802554,2.0,2.0,2.0,2.0,64.0,64.0,64.0,64.0,32827.0,28219.0,32827.0,28195.0,32990.0,28123.0,32788.0,28149.0,14.89189093296562,0.874798356993475,0.5668010953376834,0.1579972616557915,2.0,2.0,3.0,2.0,-0.2489999999999993,-0.2489999999999993,-0.2449999999999993,-0.2469999999999993,38.0,0.0,293.0,198.0,0.0,0.0,0.0,0.0,4.904999956488609,144.20700073242188,54.220001220703125,54.375,56.93999862670898,56.505001068115234,3.4800000518560408,25.0,38.0,0.0,0.0,54.220001220703125,0.0,0.0,0.0,0.0,-1111.702,-1111.702,0.0,38.0,-4.4998168945312464,0.0,0.0,-0.9998321533203121,2.0,25.0,64.0,0.0,0.00015056250360276978,0.00959802777502272,0.0,0.0,0.0,0.0,0.0,0.0,0.0,0.0,0.6599999999999999,0.00959802777502272,0.0,0.0,0.0,0.0,0.0,0.006218222802554,0.0,0.0,50.34000015258789,0.0,59.71191146344476,63.99731944268708,0.0,63.99731944268708,0.0
67,67,0.666218222802554,2.0,2.0,2.0,2.0,64.0,64.0,64.0,64.0,32847.0,28211.0,32868.0,28202.0,33010.0,28095.0,32768.0,28139.0,14.907260288019067,0.688237099260369,0.5970603707946021,-0.023530185397301,2.0,2.0,3.0,2.0,-0.2489999999999993,-0.2489999999999993,-0.2449999999999993,-0.2469999999999993,38.0,0.0,293.0,198.0,0.0,0.0,0.0,0.0,-1.9619999453425407,154.01699542999268,54.26499938964844,54.40999984741211,56.85499954223633,56.76499938964844,3.4800000518560408,25.0,38.0,0.0,0.0,54.26499938964844,0.0,0.0,0.0,0.0,-1111.702,-1111.702,0.0,38.0,-4.0000915527343714,0.0,0.0,0.499725341796875,2.0,25.0,64.0,0.0,0.00015067361195882176,0.009748701386981543,0.0,0.0,0.0,0.0,0.0,0.0,0.0,0.0,0.6699999999999999,0.009748701386981543,0.0,0.0,0.0,0.0,0.0,0.006218222802554,0.0,0.0,50.34000015258789,0.0,59.75056162021115,63.99731770768321,0.0,63.99731770768321,0.0
