,Unnamed: 0,currentTime,Agp_Pos_Sp_FL,Agp_Pos_Sp_FR,Agp_Pos_Sp_RL,Agp_Pos_Sp_RR,Disc_T_Est_FL,Disc_T_Est_FR,Disc_T_Est_RL,Disc_T_Est_RR,Motor_current_FL,Wheel_Decl_FL,Motor_current_FR,Wheel_Decl_FR,Motor_current_RL,Wheel_Decl_RL,Motor_current_RR,Wheel_Decl_RR,Vehicle_speed,Gyro_Rate_Pitch,IMU_Gyro_Rate_Roll,IMU_Gyro_Rate_Yaw,RealizedClampingForce_FL,RealizedClampingForce_FR,RealizedClampingForce_RL,RealizedClampingForce_RR,Piston_position_FL,Piston_position_FR,Piston_position_RL,Piston_position_RR,CF_FL,CF_FR,CF_RL,CF_RR,ESTIMATED_PRESSURE_FL,ESTIMATED_PRESSURE_FR,ESTIMATED_PRESSURE_RL,ESTIMATED_PRESSURE_RR,LATERAL_ACCELERATION,LONGITUDINAL_ACCELERATION,Wheel_Speed_FL,Wheel_Speed_FR,Wheel_Speed_RL,Wheel_Speed_RR,Yaw_rate,Ambiant_Temperature,Init_Disc_CF_FL,POS_MEASUREREV,TMC_filtered,Vitesse_Vehicule_Roues,Pressure_Speed_FL,Position_previous_FL,POS_MEASUREREV_square,POS_MEASUREREV_cube,Estimated_CF_FL,Estimated_CF_previous_FL,Pressure_Speed_previous_FL,CF_previous_FL,Deceleration_g,PosDiff,PreDiff,DecDiff,Lookup_Table,Temp_amb_C,Initial_temp_FL,RPM,Distance_Roues_instant,Distance_Roues,Brake_apply,Brake_release,Time_since_brake_apply,Miles_since_brake_apply,Time_since_brake_release,Miles_since_brake_release,BrakingTime_2,BrakingMiles_2,TimeSinceLastBrake_2,MilesSinceLastBrake_2,Change_Position,Change_pressure,BrakingForce_2,BrakingForce_ma_2,Start_braking_time,End_braking_time,BrakeStartSpeed,LastBrakStartSpeed,LastBrakEndtSpeed,LastDeceleration,conv_heat_trans_coef,temp_change_conv_FL,disc_heating_BTM_FL,temp_change_instant_BTM_1_FL,Pressure_Speed_time_FL
0,0,-0.0005599276368002,2.0,2.0,2.0,2.0,-0.2679999999999993,-0.2749999999999993,-0.2469999999999993,-0.2469999999999993,38.0,0.0,293.0,198.0,0.0,0.0,0.0,0.0,4.904999956488609,173.63699674606323,27.09499931335449,27.14999961853028,27.549999237060547,27.52499961853028,5.220000207424164,25.0,2.0,2.0,2.0,2.0,67.0,67.0,66.0,66.0,32868.0,28406.0,32868.0,28423.0,32990.0,28334.0,32788.0,28394.0,7.492088473547437,-0.1986486875864835,-1.2729730313797254,0.0459460627594507,67.0,21.68,32868.0,32788.0,1077675984.0,21.68,470.0224,10190.085632,34873.11560947199,34873.11560947199,1077675984.0,67.0,0.0,0.0,0.0,0.0,27.549999237060547,0.0459460627594507,-0.2679999999999993,0.0,0.0,0.0,0.0,0.0,0.0,0.0,0.0,0.0,0.0,0.0,0.0,0.0,0.0,0.0,0.0,0.0,0.0,0.0,0.0,0.0,0.0,0.0,0.0,0.0,0.0,0.0,0.0
1,1,0.0094400723631997,2.0,2.0,2.0,2.0,-0.2679999999999993,-0.2749999999999993,-0.2469999999999993,-0.2469999999999993,38.0,0.0,293.0,198.0,0.0,0.0,0.0,0.0,-7.847999781370163,170.69400548934937,27.229999542236328,27.25,27.64999961853028,27.56999969482422,3.4800000518560408,25.0,2.0,2.0,2.0,2.0,67.0,67.0,66.0,66.0,32868.0,28409.0,32848.0,28425.0,32969.0,28326.0,32788.0,28387.0,7.507637805391143,-0.1246639481900267,-1.0733197409501336,-0.0493278963800534,67.0,21.68,32868.0,32788.0,1077675984.0,21.68,470.0224,10190.085632,34873.11560947199,34873.11560947199,1077675984.0,67.0,-2000.0000000000002,0.0,0.0,-2000.0000000000002,27.64999961853028,-0.0493278963800534,-0.2679999999999993,0.0,0.09107777777777687,0.09107777777777687,1.0,0.0,0.0099999999999999,0.09107777777777687,0.0,0.0,0.0099999999999999,0.09107777777777687,0.0,0.0,0.0,0.0,0.0,0.0,0.0094400723631997,0.0,32788.0,0.0,0.0,0.0,8824.176545044216,-0.26579007162586893,335.9732972582575,335.70750718663163,10776759.839999892
2,2,0.0194400723631997,2.0,2.0,2.0,2.0,-0.2679999999999993,-0.2749999999999993,-0.2469999999999993,-0.2469999999999993,38.0,106.0,293.0,198.0,0.0,0.0,0.0,0.0,-1.9619999453425407,170.69400548934937,27.299999237060547,27.31999969482422,27.59499931335449,27.64999961853028,-1.7400000259280204,25.0,2.0,2.0,2.0,2.0,67.0,67.0,66.0,66.0,32848.0,28385.0,32807.0,28429.0,32948.0,28329.0,32808.0,28394.0,7.521439554514346,-0.2038222260310901,-0.5347110958756394,-0.1297777825388626,67.0,21.68,32848.0,32808.0,1077677184.0,21.68,470.0224,10190.085632,34873.11560947199,34873.11560947199,1077675984.0,67.0,-99.99999999999999,0.0,-20.0,1900.0000000000002,27.59499931335449,-0.1297777825388626,-0.2679999999999993,0.0,0.09110555555555555,0.18218333333333242,0.0,1.0,0.0,0.0,0.009999999999999998,0.09110555555555555,0.0199999999999999,0.18218333333333242,0.0,0.0,0.0,-20.0,-359138100.0,-1095000.0000000002,0.0094400723631997,0.0,32788.0,0.0,0.0,0.0,8828.374663865496,-0.2666024473088867,671.9473427339097,671.6807402866009,21553543.67999989
3,3,0.0294400723631997,2.0,2.0,2.0,2.0,-0.2679999999999993,-0.2749999999999993,-0.2469999999999993,-0.2469999999999993,38.0,106.0,293.0,198.0,0.0,0.0,0.0,0.0,1.9619999453425407,170.69400548934937,27.5049991607666,27.424999237060547,27.739999771118164,27.655000686645508,0.0,25.0,2.0,2.0,2.0,2.0,67.0,67.0,66.0,66.0,32827.0,28373.0,32848.0,28419.0,32990.0,28328.0,32809.0,28382.0,7.535283839833176,-0.0375576575536403,-0.3861981082017236,-0.0138018917982763,67.0,21.68,32827.0,32809.0,1077021043.0,21.68,470.0224,10190.085632,34873.11560947199,34873.11560947199,1077677184.0,67.0,2100.0000000000005,0.0,-21.0,2200.0000000000005,27.739999771118164,-0.0138018917982763,-0.2679999999999993,0.0,0.09113472222222224,0.27331805555555466,0.0,1.0,0.0,0.0,0.02,0.1822402777777778,0.029999999999999902,0.27331805555555466,0.0,0.0,0.0,-21.0,-377100753.75,-54749.99999999999,0.0094400723631997,0.0,32788.0,0.0,0.0,0.0,8828.584555024665,-0.2654297644768756,1007.3073439666815,1007.0419142022047,32310631.289999895
4,4,0.0394400723631997,2.0,2.0,2.0,2.0,-0.2679999999999993,-0.2749999999999993,-0.2469999999999993,-0.2469999999999993,38.0,0.0,293.0,198.0,0.0,0.0,0.0,0.0,1.9619999453425407,173.63699674606323,27.549999237060547,27.530000686645508,27.799999237060547,27.780000686645508,-4.35,25.0,2.0,2.0,2.0,2.0,67.0,67.0,66.0,66.0,32847.0,28372.0,32848.0,28417.0,32969.0,28328.0,32788.0,28381.0,7.549674024273936,0.2,-0.2859233401552778,0.1476538900258796,67.0,21.68,32847.0,32788.0,1076987436.0,21.68,470.0224,10190.085632,34873.11560947199,34873.11560947199,1077021043.0,67.0,0.0,0.0,20.0,-2100.0000000000005,27.799999237060547,0.1476538900258796,-0.2679999999999993,0.0,0.09110694444444443,0.3644249999999991,1.0,0.0,0.009999999999999998,0.09110694444444445,0.0,0.0,0.0399999999999999,0.3644249999999991,0.0,0.0,0.0,20.0,0.0,1149750.0000000002,0.0094400723631997,0.0,32788.0,0.0,0.0,0.0,8824.176545044216,-0.263799348384271,1343.034549719127,1342.7707503707427,43079497.439999886
5,5,0.0494400723631997,2.0,2.0,2.0,2.0,-0.2679999999999993,-0.2749999999999993,-0.2469999999999993,-0.2469999999999993,38.0,106.0,293.0,198.0,0.0,0.0,0.0,0.0,4.904999956488609,180.50400018692017,27.55500030517578,27.52499961853028,27.81999969482422,27.809999465942383,3.4800000518560408,25.0,2.0,2.0,2.0,2.0,67.0,67.0,66.0,66.0,32827.0,28376.0,32848.0,28421.0,32990.0,28346.0,32788.0,28382.0,7.563397094476327,0.0953521482054609,-0.2354576665377129,0.1,67.0,21.68,32827.0,32788.0,1076331676.0,21.68,470.0224,10190.085632,34873.11560947199,34873.11560947199,1076987436.0,67.0,0.0,0.0,-20.0,0.0,27.81999969482422,0.1,-0.2679999999999993,0.0,0.0910777777777778,0.4555027777777769,0.0,1.0,0.0,0.0,0.010000000000000002,0.09107777777777781,0.0499999999999999,0.4555027777777769,0.0,0.0,0.0,-20.0,0.0,0.0,0.0094400723631997,0.0,32788.0,0.0,0.0,0.0,8824.176545044216,-0.26428094471943453,1677.7709974894894,1677.50671654477,53816583.79999989
6,6,0.0594400723631997,2.0,2.0,2.0,2.0,-0.2679999999999993,-0.2749999999999993,-0.2469999999999993,-0.2469999999999993,38.0,0.0,293.0,198.0,0.0,0.0,0.0,0.0,10.790999978780746,176.57999992370603,27.565000534057617,27.55500030517578,27.77499961853028,27.84000015258789,1.7400000259280204,25.0,2.0,2.0,2.0,2.0,67.0,67.0,66.0,66.0,32868.0,28392.0,32869.0,28424.0,32948.0,28344.0,32788.0,28380.0,7.576144612014016,0.0257791033829146,-0.6562328270633172,0.2031164135316586,67.0,21.68,32868.0,32788.0,1077675984.0,21.68,470.0224,10190.085632,34873.11560947199,34873.11560947199,1076331676.0,67.0,0.0,0.0,41.0,0.0,27.77499961853028,0.2031164135316586,-0.2679999999999993,0.0,0.0910777777777778,0.5465805555555547,1.0,0.0,0.010000000000000002,0.09107777777777781,0.0,0.0,0.0599999999999999,0.5465805555555547,0.0,0.0,0.0,41.0,0.0,0.0,0.0094400723631997,0.0,32788.0,0.0,0.0,0.0,8824.176545044216,-0.26323883699590783,2015.8397835495618,2015.576544712566,64660559.039999895
7,7,0.0694400723631997,2.0,2.0,2.0,2.0,-0.2679999999999993,-0.2749999999999993,-0.2469999999999993,-0.2469999999999993,38.0,106.0,293.0,198.0,0.0,0.0,0.0,0.0,10.790999978780746,170.69400548934937,27.540000915527344,27.64999961853028,27.825000762939453,27.905000686645508,1.7400000259280204,25.0,2.0,2.0,2.0,2.0,67.0,67.0,66.0,66.0,32869.0,28384.0,32868.0,28418.0,32990.0,28368.0,32788.0,28382.0,7.589046812548529,0.0242042728643045,-0.6436341829144364,0.1452256371858273,67.0,21.68,32869.0,32788.0,1077708772.0,21.68,470.0224,10190.085632,34873.11560947199,34873.11560947199,1077675984.0,67.0,0.0,0.0,1.0,0.0,27.825000762939453,0.1452256371858273,-0.2679999999999993,0.0,0.09107777777777773,0.6376583333333324,1.0,0.0,0.019999999999999997,0.18215555555555552,0.0,0.0,0.0699999999999999,0.6376583333333324,0.0,0.0,0.0,1.0,0.0,0.0,0.0094400723631997,0.0,32788.0,0.0,0.0,0.0,8824.176545044216,-0.26382388861945394,2351.8846340839823,2351.620810195363,75439614.03999989
8,8,0.0794400723631997,2.0,2.0,2.0,2.0,-0.2679999999999993,-0.2749999999999993,-0.2469999999999993,-0.2469999999999993,38.0,106.0,293.0,198.0,0.0,0.0,0.0,0.0,10.790999978780746,160.8839988708496,27.70499992370605,27.76000022888184,27.95499992370605,27.950000762939453,5.220000207424164,25.0,2.0,2.0,2.0,2.0,67.0,67.0,66.0,66.0,32889.0,28377.0,32848.0,28407.0,33010.0,28375.0,32788.0,28391.0,7.602555249311536,0.1308433950100521,-0.3453252839919583,0.0523373580040208,67.0,21.68,32889.0,32788.0,1078364532.0,21.68,470.0224,10190.085632,34873.11560947199,34873.11560947199,1077708772.0,67.0,-4100.000000000002,0.0,20.0,-4100.000000000002,27.95499992370605,0.0523373580040208,-0.2679999999999993,0.0,0.09107777777777787,0.7287361111111104,1.0,0.0,0.030000000000000006,0.27323333333333344,0.0,0.0,0.0799999999999999,0.7287361111111104,0.0,0.0,0.0,20.0,0.0,0.0,0.0094400723631997,0.0,32788.0,0.0,0.0,0.0,8824.176545044216,-0.2647626295031324,2689.5036566939093,2689.2388940644064,86269162.5599999
9,9,0.0894400723631997,2.0,2.0,2.0,2.0,-0.2679999999999993,-0.2749999999999993,-0.2469999999999993,-0.2469999999999993,38.0,0.0,293.0,198.0,0.0,0.0,0.0,0.0,17.65799969434738,163.82700204849243,27.770000457763672,27.81999969482422,27.8700008392334,27.95499992370605,0.0,25.0,2.0,2.0,2.0,2.0,67.0,67.0,66.0,66.0,32848.0,28358.0,32848.0,28398.0,32948.0,28391.0,32829.0,28407.0,7.617325371142619,0.3809701889892892,-0.3285821133935735,-0.0047761511914313,67.0,21.68,32848.0,32829.0,1078366992.0,21.68,470.0224,10190.085632,34873.11560947199,34873.11560947199,1078364532.0,67.0,4100.000000000002,0.0,-41.0,8200.000000000004,27.8700008392334,-0.0047761511914313,-0.2679999999999993,0.0,0.09113472222222217,0.8198708333333325,0.0,1.0,0.0,0.0,0.009999999999999995,0.09113472222222219,0.0899999999999999,0.8198708333333325,0.0,0.0,0.0,-41.0,-736468803.75,-2244750.000000001,0.0094400723631997,0.0,32788.0,0.0,0.0,0.0,8832.782082720327,-0.26533724486891047,3025.6985160860836,3025.4331788412146,97053029.2799999
10,10,0.0994400723631997,2.0,2.0,2.0,2.0,-0.2679999999999993,-0.2749999999999993,-0.2469999999999993,-0.2469999999999993,38.0,106.0,293.0,198.0,0.0,0.0,0.0,0.0,14.714999496936798,176.57999992370603,27.905000686645508,27.88500022888184,28.075000762939453,27.96500015258789,1.7400000259280204,25.0,2.0,2.0,2.0,2.0,67.0,67.0,66.0,66.0,32868.0,28359.0,32848.0,28396.0,32969.0,28394.0,32788.0,28417.0,7.631376148787635,0.3467695451458644,-0.1956927268611525,-0.1,67.0,21.68,32868.0,32788.0,1077675984.0,21.68,470.0224,10190.085632,34873.11560947199,34873.11560947199,1078366992.0,67.0,1999.9999999999982,0.0,20.0,-2100.0000000000036,28.075000762939453,-0.1,-0.2679999999999993,0.0,0.09113472222222217,0.9110055555555547,1.0,0.0,0.009999999999999995,0.09113472222222219,0.0,0.0,0.0999999999999999,0.9110055555555547,0.0,0.0,0.0,20.0,0.0,2244750.000000001,0.0094400723631997,0.0,32788.0,0.0,0.0,0.0,8824.176545044216,-0.2663021704153936,3359.7329725826053,3359.46667041219,107767598.39999989
11,11,0.1094400723631997,2.0,2.0,2.0,2.0,-0.2679999999999993,-0.2749999999999993,-0.2469999999999993,-0.2469999999999993,38.0,106.0,293.0,198.0,0.0,0.0,0.0,0.0,14.714999496936798,176.57999992370603,27.895000457763672,27.875,28.02499961853028,28.02499961853028,-1.7400000259280204,25.0,2.0,2.0,2.0,2.0,67.0,67.0,66.0,66.0,32848.0,28372.0,32848.0,28408.0,32948.0,28403.0,32768.0,28426.0,7.645377272658971,0.0512488023620791,-0.0991674650919472,-0.0752081337270132,67.0,21.68,32848.0,32768.0,1076363264.0,21.68,470.0224,10190.085632,34873.11560947199,34873.11560947199,1077675984.0,67.0,2100.000000000001,0.0,-20.0,100.00000000000273,28.02499961853028,-0.0752081337270132,-0.2679999999999993,0.0,0.09105000000000009,1.0020555555555548,0.0,1.0,0.0,0.0,0.010000000000000009,0.09105000000000008,0.1099999999999999,1.0020555555555548,0.0,0.0,0.0,-20.0,358919100.0,1094999.999999999,0.0094400723631997,0.0,32788.0,0.0,0.0,0.0,8819.977862816706,-0.2660525430010123,3691.204520143765,3690.938467600764,118399959.0399999
12,12,0.1194400723631997,2.0,2.0,2.0,2.0,-0.2679999999999993,-0.2749999999999993,-0.2469999999999993,-0.2469999999999993,38.0,106.0,293.0,198.0,0.0,0.0,0.0,0.0,14.714999496936798,167.75100231170654,27.864999771118164,27.8700008392334,28.11000061035156,28.07999992370605,-1.7400000259280204,25.0,2.0,2.0,2.0,2.0,67.0,67.0,66.0,66.0,32807.0,28377.0,32848.0,28410.0,32969.0,28406.0,32747.0,28439.0,7.660231154080371,0.0273058387139676,-0.3018446709711742,-0.1773058387139677,67.0,21.68,32807.0,32747.0,1074330829.0,21.68,470.0224,10190.085632,34873.11560947199,34873.11560947199,1076363264.0,67.0,-4099.999999999996,0.0,-41.0,-6199.999999999997,28.11000061035156,-0.1773058387139677,-0.2679999999999993,0.0,0.09099305555555551,1.0930486111111104,0.0,1.0,0.0,0.0,0.020000000000000004,0.18204305555555567,0.1199999999999999,1.0930486111111104,0.0,0.0,0.0,-41.0,735548456.25,1149750.0000000005,0.0094400723631997,0.0,32788.0,0.0,0.0,0.0,8815.568639652778,-0.26708432272759747,4019.165051361084,4018.8979670383565,128919699.47999988
13,13,0.1294400723631997,2.0,2.0,2.0,2.0,-0.2679999999999993,-0.2749999999999993,-0.2469999999999993,-0.2469999999999993,38.0,269.0,293.0,198.0,0.0,0.0,0.0,0.0,7.847999781370163,160.8839988708496,27.915000915527344,27.8799991607666,28.13500022888184,28.1200008392334,-0.8700000129640102,25.0,2.0,2.0,2.0,2.0,67.0,67.0,66.0,66.0,32807.0,28387.0,32848.0,28429.0,33071.0,28438.0,32788.0,28443.0,7.67497688963138,-0.0596393306071938,-0.3213852510223023,-0.3524098326517985,67.0,21.68,32807.0,32788.0,1075675916.0,21.68,470.0224,10190.085632,34873.11560947199,34873.11560947199,1074330829.0,67.0,0.0,0.0,0.0,4099.999999999996,28.13500022888184,-0.3524098326517985,-0.2679999999999993,0.0,0.09102083333333343,1.1840694444444437,1.0,0.0,0.010000000000000009,0.09102083333333333,0.0,0.0,0.1299999999999999,1.1840694444444437,0.0,0.0,0.0,0.0,0.0,-2244749.999999998,0.0094400723631997,0.0,32788.0,0.0,0.0,0.0,8824.176545044216,-0.26885305661373643,4359.546900358184,4359.27804730157,139837869.0799999
14,14,0.1394400723631997,2.0,2.0,2.0,2.0,-0.2679999999999993,-0.2749999999999993,-0.2469999999999993,-0.2469999999999993,38.0,106.0,293.0,198.0,0.0,0.0,0.0,0.0,10.790999978780746,163.82700204849243,27.95499992370605,27.96999931335449,28.1200008392334,28.20499992370605,-5.220000207424164,25.0,2.0,2.0,2.0,2.0,67.0,67.0,66.0,66.0,32807.0,28402.0,32848.0,28427.0,32948.0,28458.0,32788.0,28456.0,7.689750624930689,-0.1714177786679707,-0.0404474097812552,-0.2952237048906276,67.0,21.68,32807.0,32788.0,1075675916.0,21.68,470.0224,10190.085632,34873.11560947199,34873.11560947199,1075675916.0,67.0,-1999.9999999999982,0.0,0.0,-1999.9999999999982,28.1200008392334,-0.2952237048906276,-0.2679999999999993,0.0,0.0910777777777776,1.2751472222222213,1.0,0.0,0.01999999999999999,0.18209861111111092,0.0,0.0,0.13999999999999987,1.2751472222222213,0.0,0.0,0.0,0.0,0.0,0.0,0.0094400723631997,0.0,32788.0,0.0,0.0,0.0,8824.176545044216,-0.26827512625932004,4694.896661924198,4694.628386797939,150594628.23999986
15,15,0.1494400723631997,2.0,2.0,2.0,2.0,-0.2679999999999993,-0.2749999999999993,-0.2469999999999993,-0.2469999999999993,38.0,269.0,293.0,198.0,0.0,0.0,0.0,0.0,20.600999891757965,163.82700204849243,27.98500061035156,28.09499931335449,28.15999984741211,28.229999542236328,-6.9600001037120816,25.0,2.0,2.0,2.0,2.0,67.0,67.0,66.0,66.0,32868.0,28391.0,32868.0,28421.0,32969.0,28465.0,32808.0,28461.0,7.704565921704297,-0.1259229378368873,-0.0314605648582113,-0.122231186489338,67.0,21.68,32868.0,32808.0,1078333344.0,21.68,470.0224,10190.085632,34873.11560947199,34873.11560947199,1075675916.0,67.0,-99.99999999999991,0.0,61.0,1899.9999999999982,28.15999984741211,-0.122231186489338,-0.2679999999999993,0.0,0.09110555555555565,1.3662527777777769,1.0,0.0,0.03,0.27320416666666647,0.0,0.0,0.14999999999999988,1.3662527777777769,0.0,0.0,0.0,61.0,-359138100.0,-1094999.999999999,0.0094400723631997,0.0,32788.0,0.0,0.0,0.0,8828.374663865496,-0.26652614433957056,5042.673510026082,5042.406983881742,161750001.59999987
16,16,0.1594400723631997,2.0,2.0,2.0,2.0,-0.2679999999999993,-0.2749999999999993,-0.2469999999999993,-0.2469999999999993,38.0,0.0,293.0,198.0,0.0,0.0,0.0,0.0,17.65799969434738,163.82700204849243,28.125,28.15999984741211,28.270000457763672,28.30500030517578,-3.4800000518560408,25.0,2.0,2.0,2.0,2.0,67.0,67.0,66.0,66.0,32868.0,28387.0,32869.0,28421.0,32990.0,28491.0,32809.0,28465.0,7.720054613834235,-0.1243185437944846,-0.0459112627669077,0.0784072810275768,67.0,21.68,32868.0,32809.0,1078366212.0,21.68,470.0224,10190.085632,34873.11560947199,34873.11560947199,1078333344.0,67.0,2100.000000000004,0.0,0.0,2200.000000000004,28.270000457763672,0.0784072810275768,-0.2679999999999993,0.0,0.09113472222222231,1.4573874999999992,1.0,0.0,0.04000000000000001,0.36433888888888877,0.0,0.0,0.1599999999999999,1.4573874999999992,0.0,0.0,0.0,0.0,-377100753.75,-54749.999999999956,0.0094400723631997,0.0,32788.0,0.0,0.0,0.0,8828.584555024665,-0.2644974235824785,5379.015693422604,5378.751195999022,172538593.9199999
17,17,0.1694400723631997,2.0,2.0,2.0,2.0,-0.2679999999999993,-0.2749999999999993,-0.2469999999999993,-0.2469999999999993,38.0,0.0,293.0,198.0,0.0,0.0,0.0,0.0,7.847999781370163,170.69400548934937,28.21500015258789,28.170000076293945,28.3700008392334,28.3700008392334,-0.8700000129640102,25.0,2.0,2.0,2.0,2.0,67.0,67.0,66.0,66.0,32868.0,28408.0,32848.0,28433.0,33051.0,28470.0,32788.0,28475.0,7.735628078363456,-0.203807024514927,0.2816622929011223,0.4335658051585859,67.0,21.68,32868.0,32788.0,1077675984.0,21.68,470.0224,10190.085632,34873.11560947199,34873.11560947199,1078366212.0,67.0,-4099.999999999996,0.0,0.0,-6200.0,28.3700008392334,0.4335658051585859,-0.2679999999999993,0.0,0.09110694444444427,1.5484944444444435,1.0,0.0,0.04999999999999999,0.4554458333333331,0.0,0.0,0.16999999999999987,1.5484944444444435,0.0,0.0,0.0,0.0,0.0,1149750.0000000023,0.0094400723631997,0.0,32788.0,0.0,0.0,0.0,8824.176545044216,-0.26090988583603525,5711.546053390431,5711.285143504595,183204917.27999985
18,18,0.1794400723631997,2.0,2.0,2.0,2.0,-0.2679999999999993,-0.2749999999999993,-0.2469999999999993,-0.2469999999999993,38.0,0.0,293.0,198.0,0.0,0.0,0.0,0.0,27.46799886226654,173.63699674606323,28.13500022888184,28.14999961853028,28.38999938964844,28.39999961853028,3.4800000518560408,25.0,2.0,2.0,2.0,2.0,67.0,67.0,66.0,66.0,32848.0,28410.0,32848.0,28453.0,32948.0,28507.0,32829.0,28479.0,7.750624372931332,-0.195237302285242,0.397618651142621,0.3095212324270366,67.0,21.68,32848.0,32829.0,1078366992.0,21.68,470.0224,10190.085632,34873.11560947199,34873.11560947199,1077675984.0,67.0,4099.999999999996,0.0,-20.0,8199.999999999993,28.38999938964844,0.3095212324270366,-0.2679999999999993,0.0,0.09113472222222231,1.6396291666666658,0.0,1.0,0.0,0.0,0.010000000000000009,0.0911347222222223,0.17999999999999988,1.6396291666666658,0.0,0.0,0.0,-20.0,-736468803.75,-2244749.999999998,0.0094400723631997,0.0,32788.0,0.0,0.0,0.0,8832.782082720327,-0.26215783322096936,6051.39703217217,6051.134874338949,194106058.55999988
19,19,0.1894400723631997,2.0,2.0,2.0,2.0,-0.2679999999999993,-0.2749999999999993,-0.2469999999999993,-0.2469999999999993,38.0,0.0,293.0,198.0,0.0,0.0,0.0,0.0,7.847999781370163,176.57999992370603,28.23500061035156,28.155000686645508,28.43000030517578,28.46999931335449,11.30999958515167,25.0,2.0,2.0,2.0,2.0,67.0,67.0,66.0,66.0,32848.0,28427.0,32848.0,28473.0,32969.0,28518.0,32788.0,28494.0,7.764768160884828,-0.0476108251563705,0.35,-0.1833621119527029,67.0,21.68,32848.0,32788.0,1077020224.0,21.68,470.0224,10190.085632,34873.11560947199,34873.11560947199,1078366992.0,67.0,0.0,0.0,0.0,-4099.999999999996,28.43000030517578,-0.1833621119527029,-0.2679999999999993,0.0,0.09113472222222231,1.730763888888888,1.0,0.0,0.010000000000000009,0.0911347222222223,0.0,0.0,0.1899999999999999,1.730763888888888,0.0,0.0,0.0,0.0,0.0,2244749.999999998,0.0094400723631997,0.0,32788.0,0.0,0.0,0.0,8824.176545044216,-0.26714463862913473,6379.608327201156,6379.341182562526,204633842.55999988
20,20,0.1994400723631997,2.0,2.0,2.0,2.0,-0.2679999999999993,-0.2749999999999993,-0.2469999999999993,-0.2469999999999993,38.0,106.0,293.0,198.0,0.0,0.0,0.0,0.0,-1.9619999453425407,163.82700204849243,28.229999542236328,28.190000534057617,28.395000457763672,28.475000381469727,0.0,25.0,2.0,2.0,2.0,2.0,67.0,67.0,66.0,66.0,32868.0,28438.0,32827.0,28491.0,32948.0,28523.0,32788.0,28507.0,7.778604427983913,0.0766168343375319,0.3244610552208227,-0.0690716074290495,67.0,21.68,32868.0,32788.0,1077675984.0,21.68,470.0224,10190.085632,34873.11560947199,34873.11560947199,1077020224.0,67.0,0.0,0.0,20.0,0.0,28.395000457763672,-0.0690716074290495,-0.2679999999999993,0.0,0.0910777777777776,1.8218416666666657,1.0,0.0,0.01999999999999999,0.1822124999999999,0.0,0.0,0.19999999999999987,1.8218416666666657,0.0,0.0,0.0,20.0,0.0,0.0,0.0094400723631997,0.0,32788.0,0.0,0.0,0.0,8824.176545044216,-0.26598960410639805,6719.465945165212,6719.1999555611055,215535196.79999986
21,21,0.2094400723631997,2.0,2.0,2.0,2.0,-0.2679999999999993,-0.2749999999999993,-0.2469999999999993,-0.2469999999999993,38.0,106.0,293.0,198.0,0.0,0.0,0.0,0.0,7.847999781370163,163.82700204849243,28.28499984741211,28.290000915527344,28.6200008392334,28.51499938964844,-6.089999896287917,25.0,2.0,2.0,2.0,2.0,67.0,67.0,66.0,66.0,32848.0,28454.0,32827.0,28494.0,32948.0,28529.0,32788.0,28518.0,7.791672832475568,0.15,0.5519366617980372,0.2755809985394112,67.0,21.68,32848.0,32788.0,1077020224.0,21.68,470.0224,10190.085632,34873.11560947199,34873.11560947199,1077675984.0,67.0,0.0,0.0,-20.0,0.0,28.6200008392334,0.2755809985394112,-0.2679999999999993,0.0,0.09107777777777787,1.9129194444444435,0.0,1.0,0.0,0.0,0.010000000000000009,0.09107777777777781,0.20999999999999988,1.9129194444444435,0.0,0.0,0.0,-20.0,0.0,0.0,0.0094400723631997,0.0,32788.0,0.0,0.0,0.0,8824.176545044216,-0.26250650058958436,7051.146045853909,7050.883539353319,226174247.03999987
22,22,0.2194400723631997,2.0,2.0,2.0,2.0,-0.2679999999999993,-0.2749999999999993,-0.2469999999999993,-0.2469999999999993,38.0,106.0,293.0,198.0,0.0,0.0,0.0,0.0,20.600999891757965,157.9409956932068,28.325000762939453,28.395000457763672,28.530000686645508,28.56999969482422,3.4800000518560408,25.0,2.0,2.0,2.0,2.0,67.0,67.0,66.0,66.0,32868.0,28456.0,32848.0,28496.0,32990.0,28533.0,32788.0,28530.0,7.805387911582339,-0.0567141044204944,0.7224822108423147,0.1432858955795056,67.0,21.68,32868.0,32788.0,1077675984.0,21.68,470.0224,10190.085632,34873.11560947199,34873.11560947199,1077020224.0,67.0,-4100.000000000008,0.0,20.0,-4100.000000000008,28.530000686645508,0.1432858955795056,-0.2679999999999993,0.0,0.09107777777777787,2.0039972222222215,1.0,0.0,0.010000000000000009,0.09107777777777804,0.0,0.0,0.2199999999999999,2.0039972222222215,0.0,0.0,0.0,20.0,0.0,0.0,0.0094400723631997,0.0,32788.0,0.0,0.0,0.0,8824.176545044216,-0.263843491897345,7391.412539681735,7391.148696189838,237088716.47999987
23,23,0.2294400723631997,2.0,2.0,2.0,2.0,-0.2679999999999993,-0.2749999999999993,-0.2469999999999993,-0.2469999999999993,38.0,106.0,293.0,198.0,0.0,0.0,0.0,0.0,10.790999978780746,163.82700204849243,28.424999237060547,28.459999084472656,28.77499961853028,28.6200008392334,6.089999896287917,25.0,2.0,2.0,2.0,2.0,67.0,67.0,66.0,66.0,32848.0,28464.0,32848.0,28499.0,32948.0,28531.0,32829.0,28537.0,7.818827262195897,-0.3548400812281717,0.8072601218422575,0.1072601218422574,67.0,21.68,32848.0,32829.0,1078366992.0,21.68,470.0224,10190.085632,34873.11560947199,34873.11560947199,1077675984.0,67.0,4099.999999999996,0.0,-20.0,8200.000000000004,28.77499961853028,0.1072601218422574,-0.2679999999999993,0.0,0.09113472222222205,2.0951319444444434,0.0,1.0,0.0,0.0,0.009999999999999981,0.09113472222222185,0.22999999999999987,2.0951319444444434,0.0,0.0,0.0,-20.0,-736468803.75,-2244750.0000000047,0.0094400723631997,0.0,32788.0,0.0,0.0,0.0,8832.782082720327,-0.2642038933043056,7732.340652219996,7732.076448326691,248024408.15999985
24,24,0.2394400723631997,2.0,2.0,2.0,2.0,-0.2679999999999993,-0.2749999999999993,-0.2469999999999993,-0.2469999999999993,38.0,0.0,293.0,198.0,0.0,0.0,0.0,0.0,10.790999978780746,167.75100231170654,28.46500015258789,28.489999771118164,28.665000915527344,28.690000534057617,-0.8700000129640102,25.0,2.0,2.0,2.0,2.0,67.0,67.0,66.0,66.0,32848.0,28470.0,32848.0,28508.0,32948.0,28541.0,32788.0,28535.0,7.832742797055813,-0.2925150150769164,0.9762474974871806,0.25,67.0,21.68,32848.0,32788.0,1077020224.0,21.68,470.0224,10190.085632,34873.11560947199,34873.11560947199,1078366992.0,67.0,0.0,0.0,0.0,-4099.999999999996,28.665000915527344,0.25,-0.2679999999999993,0.0,0.09113472222222231,2.1862666666666657,1.0,0.0,0.010000000000000009,0.0911347222222223,0.0,0.0,0.23999999999999988,2.1862666666666657,0.0,0.0,0.0,0.0,0.0,2244749.999999998,0.0094400723631997,0.0,32788.0,0.0,0.0,0.0,8824.176545044216,-0.26276502544746516,8058.452623833039,8058.189858807592,258484853.75999987
25,25,0.2494400723631997,2.0,2.0,2.0,2.0,-0.2679999999999993,-0.2749999999999993,-0.2469999999999993,-0.2469999999999993,38.0,0.0,293.0,198.0,0.0,0.0,0.0,0.0,20.600999891757965,167.75100231170654,28.53499984741211,28.5,28.8799991607666,28.790000915527344,4.35,25.0,2.0,2.0,2.0,2.0,67.0,67.0,66.0,66.0,32868.0,28491.0,32848.0,28522.0,32969.0,28531.0,32788.0,28540.0,7.846824049429173,-0.1762451801250821,0.842528919249507,0.3549807205003287,67.0,21.68,32868.0,32788.0,1077675984.0,21.68,470.0224,10190.085632,34873.11560947199,34873.11560947199,1077020224.0,67.0,0.0,0.0,20.0,0.0,28.8799991607666,0.3549807205003287,-0.2679999999999993,0.0,0.09107777777777787,2.2773444444444437,1.0,0.0,0.020000000000000018,0.18221250000000033,0.0,0.0,0.2499999999999999,2.2773444444444437,0.0,0.0,0.0,20.0,0.0,0.0,0.0094400723631997,0.0,32788.0,0.0,0.0,0.0,8824.176545044216,-0.2617040767981873,8399.332431456518,8399.07072737972,269418995.9999999
26,26,0.2594400723631997,2.0,2.0,2.0,2.0,-0.2679999999999993,-0.2749999999999993,-0.2469999999999993,-0.2469999999999993,38.0,0.0,293.0,198.0,0.0,0.0,0.0,0.0,7.847999781370163,170.69400548934937,28.5,28.53499984741211,28.895000457763672,28.834999084472656,4.35,25.0,2.0,2.0,2.0,2.0,67.0,67.0,66.0,66.0,32827.0,28502.0,32848.0,28538.0,32909.0,28520.0,32788.0,28540.0,7.860135218529329,-0.0965326504931446,0.3637311141027201,0.3982663252465723,67.0,21.68,32827.0,32788.0,1076331676.0,21.68,470.0224,10190.085632,34873.11560947199,34873.11560947199,1077675984.0,67.0,-2099.9999999999864,0.0,-41.0,-2099.9999999999864,28.895000457763672,0.3982663252465723,-0.2679999999999993,0.0,0.09107777777777787,2.3684222222222218,0.0,1.0,0.0,0.0,0.010000000000000009,0.09107777777777804,0.2599999999999999,2.3684222222222218,0.0,0.0,0.0,-41.0,0.0,0.0,0.0094400723631997,0.0,32788.0,0.0,0.0,0.0,8824.176545044216,-0.2612666269152962,8724.409186945359,8724.147920318443,279846235.7599999
27,27,0.2694400723631998,2.0,2.0,2.0,2.0,-0.2679999999999993,-0.2749999999999993,-0.2469999999999993,-0.2469999999999993,38.0,106.0,293.0,198.0,0.0,0.0,0.0,0.0,7.847999781370163,170.69400548934937,28.59499931335449,28.59499931335449,28.98500061035156,28.89999961853028,7.829999792575835,25.0,2.0,2.0,2.0,2.0,67.0,67.0,66.0,66.0,32868.0,28512.0,32848.0,28544.0,32948.0,28519.0,32809.0,28538.0,7.873046875828789,0.1554214237209998,0.2831321355814997,0.35,67.0,21.68,32868.0,32809.0,1078366212.0,21.68,470.0224,10190.085632,34873.11560947199,34873.11560947199,1076331676.0,67.0,0.0,0.0,41.0,2099.9999999999864,28.98500061035156,0.35,-0.2679999999999993,0.0,0.09110694444444503,2.459529166666667,1.0,0.0,0.010000000000000064,0.09110694444444523,0.0,0.0,0.26999999999999996,2.459529166666667,0.0,0.0,0.0,41.0,-377100753.75,-1149749.9999999925,0.0094400723631997,0.0,32788.0,0.0,0.0,0.0,8828.584555024665,-0.2617513085186688,9077.08898265065,9076.827231342131,291158877.23999995
28,28,0.2794400723631998,2.0,2.0,2.0,2.0,-0.2679999999999993,-0.2749999999999993,-0.2469999999999993,-0.2469999999999993,38.0,106.0,293.0,198.0,0.0,0.0,0.0,0.0,10.790999978780746,163.82700204849243,28.63500022888184,28.69499969482422,29.01000022888184,28.975000381469727,6.089999896287917,25.0,2.0,2.0,2.0,2.0,67.0,67.0,66.0,66.0,32868.0,28520.0,32827.0,28540.0,32990.0,28510.0,32809.0,28530.0,7.885757855814901,0.1162799585490007,0.5,0.1662799585490008,67.0,21.68,32868.0,32809.0,1078366212.0,21.68,470.0224,10190.085632,34873.11560947199,34873.11560947199,1078366212.0,67.0,4100.000000000042,0.0,0.0,4100.000000000042,29.01000022888184,0.1662799585490008,-0.2679999999999993,0.0,0.0911361111111112,2.550665277777778,1.0,0.0,0.020000000000000073,0.1822430555555563,0.0,0.0,0.27999999999999997,2.550665277777778,0.0,0.0,0.0,0.0,-377100753.75,0.0,0.0094400723631997,0.0,32788.0,0.0,0.0,0.0,8828.584555024665,-0.26360892964806126,9413.277463489565,9413.013854559917,301942539.35999995
29,29,0.2894400723631997,2.0,2.0,2.0,2.0,-0.2679999999999993,-0.2749999999999993,-0.2469999999999993,-0.2469999999999993,38.0,106.0,293.0,198.0,0.0,0.0,0.0,0.0,4.904999956488609,160.8839988708496,28.69499969482422,28.825000762939453,29.09499931335449,29.05500030517578,6.089999896287917,25.0,2.0,2.0,2.0,2.0,67.0,67.0,66.0,66.0,32889.0,28515.0,32848.0,28532.0,32948.0,28505.0,32768.0,28535.0,7.899591067760581,0.1862557300132515,0.3949974533274437,-0.1050025466725562,67.0,21.68,32889.0,32768.0,1077706752.0,21.68,470.0224,10190.085632,34873.11560947199,34873.11560947199,1078366212.0,67.0,-1999.9999999999982,0.0,21.0,-6100.00000000004,29.09499931335449,-0.1050025466725562,-0.2679999999999993,0.0,0.09107916666666574,2.641744444444444,1.0,0.0,0.02999999999999997,0.27332222222222224,0.0,0.0,0.28999999999999987,2.641744444444444,0.0,0.0,0.0,21.0,358919100.0,2244750.000000023,0.0094400723631997,0.0,32788.0,0.0,0.0,0.0,8819.977862816706,-0.26635350662122714,9743.5037927513,9743.23743924468,312534958.07999986
30,30,0.2994400723631997,2.0,2.0,2.0,2.0,-0.2679999999999993,-0.2749999999999993,-0.2469999999999993,-0.2469999999999993,38.0,106.0,293.0,198.0,0.0,0.0,0.0,0.0,4.904999956488609,167.75100231170654,28.82999992370605,28.864999771118164,29.15999984741211,29.075000762939453,0.0,25.0,2.0,2.0,2.0,2.0,67.0,67.0,66.0,66.0,32848.0,28526.0,32848.0,28531.0,32969.0,28485.0,32788.0,28519.0,7.913207426350483,0.2712959845374553,0.5316672278325804,-0.2,67.0,21.68,32848.0,32788.0,1077020224.0,21.68,470.0224,10190.085632,34873.11560947199,34873.11560947199,1077706752.0,67.0,-1999.9999999999982,0.0,-41.0,0.0,29.15999984741211,-0.2,-0.2679999999999993,0.0,0.09105000000000009,2.732794444444444,0.0,1.0,0.0,0.0,0.010000000000000009,0.09105000000000008,0.2999999999999999,2.732794444444444,0.0,0.0,0.0,-41.0,0.0,-1094999.999999999,0.0094400723631997,0.0,32788.0,0.0,0.0,0.0,8824.176545044216,-0.2673127832633732,10073.065779791299,10072.798467008035,323106067.19999987
31,31,0.3094400723631997,2.0,2.0,2.0,2.0,-0.2679999999999993,-0.2749999999999993,-0.2469999999999993,-0.2469999999999993,38.0,106.0,293.0,198.0,0.0,0.0,0.0,0.0,10.790999978780746,170.69400548934937,28.81999969482422,28.88999938964844,29.3700008392334,29.200000762939453,-3.4800000518560408,25.0,2.0,2.0,2.0,2.0,67.0,67.0,66.0,66.0,32807.0,28541.0,32869.0,28538.0,32990.0,28459.0,32808.0,28519.0,7.926870298905914,0.15,0.824687727716956,-0.1502081815220294,67.0,21.68,32807.0,32808.0,1076332056.0,21.68,470.0224,10190.085632,34873.11560947199,34873.11560947199,1077020224.0,67.0,1999.9999999999982,0.0,-41.0,3999.9999999999964,29.3700008392334,-0.1502081815220294,-0.2679999999999993,0.0,0.09110555555555565,2.8238999999999996,0.0,1.0,0.0,0.0,0.020000000000000018,0.18215555555555563,0.3099999999999999,2.8238999999999996,0.0,0.0,0.0,-41.0,-359138100.0,-1094999.999999999,0.0094400723631997,0.0,32788.0,0.0,0.0,0.0,8828.374663865496,-0.26680901727718764,10402.183856935215,10401.917047917937,333662937.3599999
32,32,0.3194400723631997,2.0,2.0,2.0,2.0,-0.2679999999999993,-0.2749999999999993,-0.2469999999999993,-0.2469999999999993,38.0,106.0,293.0,198.0,0.0,0.0,0.0,0.0,17.65799969434738,173.63699674606323,28.850000381469727,28.88999938964844,29.26499938964844,29.21999931335449,-3.4800000518560408,25.0,2.0,2.0,2.0,2.0,67.0,67.0,66.0,66.0,32827.0,28554.0,32848.0,28553.0,32948.0,28458.0,32788.0,28505.0,7.940498767248381,0.1245905708157488,0.493449133051981,-0.0491811416314976,67.0,21.68,32827.0,32788.0,1076331676.0,21.68,470.0224,10190.085632,34873.11560947199,34873.11560947199,1076332056.0,67.0,0.0,0.0,20.0,-1999.9999999999982,29.26499938964844,-0.0491811416314976,-0.2679999999999993,0.0,0.09110555555555565,2.915005555555555,1.0,0.0,0.010000000000000009,0.09110555555555555,0.0,0.0,0.3199999999999999,2.915005555555555,0.0,0.0,0.0,20.0,0.0,1094999.999999999,0.0094400723631997,0.0,32788.0,0.0,0.0,0.0,8824.176545044216,-0.265788588503525,10737.73438393275,10737.468595344246,344426136.3199999
33,33,0.3294400723631998,2.0,2.0,2.0,2.0,-0.2679999999999993,-0.2749999999999993,-0.2469999999999993,-0.2469999999999993,38.0,0.0,293.0,198.0,0.0,0.0,0.0,0.0,-4.904999956488609,173.63699674606323,28.8700008392334,28.924999237060547,29.415000915527344,29.31999969482422,-1.7400000259280204,25.0,2.0,2.0,2.0,2.0,67.0,67.0,66.0,66.0,32827.0,28563.0,32848.0,28559.0,32948.0,28443.0,32788.0,28495.0,7.953792989437883,-0.0837797117536635,0.1787627336087129,0.0,67.0,21.68,32827.0,32788.0,1076331676.0,21.68,470.0224,10190.085632,34873.11560947199,34873.11560947199,1076331676.0,67.0,0.0,0.0,0.0,0.0,29.415000915527344,0.0,-0.2679999999999993,0.0,0.09107777777777837,3.0060833333333337,1.0,0.0,0.020000000000000073,0.18218333333333403,0.0,0.0,0.32999999999999996,3.0060833333333337,0.0,0.0,0.0,0.0,0.0,0.0,0.0094400723631997,0.0,32788.0,0.0,0.0,0.0,8824.176545044216,-0.26529155756741407,11073.288583430653,11073.023291873085,355189453.08
34,34,0.3394400723631998,2.0,2.0,2.0,2.0,-0.2679999999999993,-0.2749999999999993,-0.2469999999999993,-0.2469999999999993,38.0,106.0,293.0,198.0,0.0,0.0,0.0,0.0,4.904999956488609,173.63699674606323,28.950000762939453,29.01000022888184,29.315000534057617,29.38500022888184,0.0,25.0,2.0,2.0,2.0,2.0,67.0,67.0,66.0,66.0,32909.0,28563.0,32848.0,28560.0,32948.0,28462.0,32788.0,28499.0,7.966275771725942,-0.171227817922545,0.4863165462323648,-0.2363165462323649,67.0,21.68,32909.0,32788.0,1079020292.0,21.68,470.0224,10190.085632,34873.11560947199,34873.11560947199,1076331676.0,67.0,0.0,0.0,82.0,0.0,29.315000534057617,-0.2363165462323649,-0.2679999999999993,0.0,0.09107777777777787,3.0971611111111117,1.0,0.0,0.030000000000000082,0.27326111111111206,0.0,0.0,0.33999999999999997,3.0971611111111117,0.0,0.0,0.0,82.0,0.0,0.0,0.0094400723631997,0.0,32788.0,0.0,0.0,0.0,8824.176545044216,-0.26767980294553995,11437.341430633187,11437.07375083024,366866899.28
35,35,0.3494400723631998,2.0,2.0,2.0,2.0,-0.2679999999999993,-0.2749999999999993,-0.2469999999999993,-0.2469999999999993,38.0,106.0,293.0,198.0,0.0,0.0,0.0,0.0,14.714999496936798,167.75100231170654,29.03499984741211,29.09000015258789,29.395000457763672,29.3700008392334,0.0,25.0,2.0,2.0,2.0,2.0,67.0,67.0,66.0,66.0,32847.0,28550.0,32869.0,28557.0,32969.0,28467.0,32788.0,28502.0,7.978630915166956,0.1338721421760548,0.8559147614507032,-0.2421136513990623,67.0,21.68,32847.0,32788.0,1076987436.0,21.68,470.0224,10190.085632,34873.11560947199,34873.11560947199,1079020292.0,67.0,0.0,0.0,-62.0,0.0,29.395000457763672,-0.2421136513990623,-0.2679999999999993,0.0,0.09107777777777787,3.1882388888888897,0.0,1.0,0.0,0.0,0.010000000000000009,0.09107777777777804,0.35,3.1882388888888897,0.0,0.0,0.0,-62.0,0.0,0.0,0.0094400723631997,0.0,32788.0,0.0,0.0,0.0,8824.176545044216,-0.26773838923516546,11751.552310042389,11751.284571653154,376945602.59999996
36,36,0.3594400723631997,2.0,2.0,2.0,2.0,-0.2679999999999993,-0.2749999999999993,-0.2469999999999993,-0.2469999999999993,38.0,106.0,293.0,198.0,0.0,0.0,0.0,0.0,7.847999781370163,160.8839988708496,29.184999465942383,29.25,29.32999992370605,29.39999961853028,-7.829999792575835,25.0,2.0,2.0,2.0,2.0,67.0,67.0,66.0,66.0,32827.0,28551.0,32848.0,28531.0,32929.0,28470.0,32788.0,28510.0,7.990853545161602,0.2218783756978162,1.102497299441747,0.1549945988834941,67.0,21.68,32827.0,32788.0,1076331676.0,21.68,470.0224,10190.085632,34873.11560947199,34873.11560947199,1076987436.0,67.0,-2099.999999999998,0.0,-20.0,-2099.999999999998,29.32999992370605,0.1549945988834941,-0.2679999999999993,0.0,0.09107777777777686,3.2793166666666664,0.0,1.0,0.0,0.0,0.019999999999999907,0.18215555555555474,0.3599999999999999,3.2793166666666664,0.0,0.0,0.0,-20.0,0.0,0.0,0.0094400723631997,0.0,32788.0,0.0,0.0,0.0,8824.176545044216,-0.2637251622374231,12079.951181924343,12079.687456762105,387479403.3599999
37,37,0.3694400723631997,2.0,2.0,2.0,2.0,-0.2679999999999993,-0.2749999999999993,-0.2469999999999993,-0.2469999999999993,38.0,106.0,293.0,198.0,0.0,0.0,0.0,0.0,7.847999781370163,160.8839988708496,29.20499992370605,29.34499931335449,29.53499984741211,29.424999237060547,-0.8700000129640102,25.0,2.0,2.0,2.0,2.0,67.0,67.0,66.0,66.0,32868.0,28540.0,32848.0,28516.0,32969.0,28480.0,32809.0,28511.0,8.003516496364945,-0.0554401907233542,1.4590669845389237,0.2722799046383229,67.0,21.68,32868.0,32809.0,1078366212.0,21.68,470.0224,10190.085632,34873.11560947199,34873.11560947199,1076331676.0,67.0,-3799.999999999997,0.0,41.0,-1699.9999999999986,29.53499984741211,0.2722799046383229,-0.2679999999999993,0.0,0.09110694444444453,3.3704236111111108,1.0,0.0,0.010000000000000009,0.09110694444444434,0.0,0.0,0.3699999999999999,3.3704236111111108,0.0,0.0,0.0,41.0,-377100753.75,-1149749.999999999,0.0094400723631997,0.0,32788.0,0.0,0.0,0.0,8828.584555024665,-0.2625371481591457,12438.973791039778,12438.711253891619,398995498.4399999
38,38,0.3794400723631997,2.0,2.0,2.0,2.0,-0.2679999999999993,-0.2749999999999993,-0.2469999999999993,-0.2469999999999993,38.0,106.0,293.0,198.0,0.0,0.0,0.0,0.0,7.847999781370163,160.8839988708496,29.295000076293945,29.315000534057617,29.38999938964844,29.489999771118164,6.089999896287917,25.0,2.0,2.0,2.0,2.0,67.0,67.0,66.0,66.0,32868.0,28549.0,32848.0,28525.0,32948.0,28492.0,32847.0,28522.0,8.017137902172479,-0.3839022581806312,1.7262717511686616,0.1474564976626768,67.0,21.68,32868.0,32847.0,1079615196.0,21.68,470.0224,10190.085632,34873.11560947199,34873.11560947199,1078366212.0,67.0,5899.999999999962,0.0,0.0,9699.999999999958,29.38999938964844,0.1474564976626768,-0.2679999999999993,0.0,0.09118888888888897,3.4616124999999998,1.0,0.0,0.020000000000000018,0.18229583333333332,0.0,0.0,0.3799999999999999,3.4616124999999998,0.0,0.0,0.0,0.0,-1060087293.75,-2080499.9999999984,0.0094400723631997,0.0,32788.0,0.0,0.0,0.0,8836.559376656043,-0.26379548126102526,12789.958704757824,12789.694909276563,410253774.4799999
39,39,0.3894400723631998,2.0,2.0,2.0,2.0,-0.2679999999999993,-0.2749999999999993,-0.2469999999999993,-0.2469999999999993,38.0,106.0,293.0,198.0,0.0,0.0,0.0,0.0,20.600999891757965,170.69400548934937,29.270000457763672,29.290000915527344,29.6200008392334,29.51000022888184,3.4800000518560408,25.0,2.0,2.0,2.0,2.0,67.0,67.0,66.0,66.0,32827.0,28557.0,32869.0,28539.0,32929.0,28481.0,32788.0,28537.0,8.030211814650693,-0.6025292883790766,1.881323220947692,-0.0050585767581531,67.0,21.68,32827.0,32788.0,1076331676.0,21.68,470.0224,10190.085632,34873.11560947199,34873.11560947199,1079615196.0,67.0,0.0,0.0,-41.0,-5899.999999999962,29.6200008392334,-0.0050585767581531,-0.2679999999999993,0.0,0.09115972222222281,3.5527722222222224,0.0,1.0,0.0,0.0,0.010000000000000064,0.09115972222222268,0.38999999999999996,3.5527722222222224,0.0,0.0,0.0,-41.0,0.0,3230249.999999979,0.0094400723631997,0.0,32788.0,0.0,0.0,0.0,8824.176545044216,-0.2653426801940569,13086.613780418042,13086.348437737848,419769353.6399999
40,40,0.3994400723631998,2.0,2.0,2.0,2.0,-0.2679999999999993,-0.2749999999999993,-0.2469999999999993,-0.2469999999999993,38.0,106.0,293.0,198.0,0.0,0.0,0.0,0.0,4.904999956488609,173.63699674606323,29.30500030517578,29.27499961853028,29.51000022888184,29.520000457763672,1.7400000259280204,25.0,2.0,2.0,2.0,2.0,67.0,67.0,66.0,66.0,32868.0,28564.0,32807.0,28557.0,32990.0,28524.0,32788.0,28556.0,8.041956325316336,-0.3673716236328868,2.2569348876064663,-0.1256934887606466,67.0,21.68,32868.0,32788.0,1077675984.0,21.68,470.0224,10190.085632,34873.11560947199,34873.11560947199,1076331676.0,67.0,-2099.999999999998,0.0,41.0,-2099.999999999998,29.51000022888184,-0.1256934887606466,-0.2679999999999993,0.0,0.09107777777777787,3.6438500000000005,1.0,0.0,0.010000000000000009,0.09107777777777804,0.0,0.0,0.39999999999999997,3.6438500000000005,0.0,0.0,0.0,41.0,0.0,0.0,0.0094400723631997,0.0,32788.0,0.0,0.0,0.0,8824.176545044216,-0.26656183211390294,13438.931890330434,13438.66532849832,431070393.59999996
41,41,0.4094400723631998,2.0,2.0,2.0,2.0,-0.2679999999999993,-0.2749999999999993,-0.2469999999999993,-0.2469999999999993,38.0,106.0,293.0,198.0,0.0,0.0,0.0,0.0,14.714999496936798,160.8839988708496,29.34000015258789,29.325000762939453,29.59000015258789,29.530000686645508,-1.7400000259280204,25.0,2.0,2.0,2.0,2.0,67.0,67.0,66.0,66.0,32848.0,28560.0,32869.0,28555.0,32990.0,28523.0,32809.0,28571.0,8.053689849504192,-0.1768546188676007,2.166963318240397,0.0549456503136018,67.0,21.68,32848.0,32809.0,1077710032.0,21.68,470.0224,10190.085632,34873.11560947199,34873.11560947199,1077675984.0,67.0,2100.0000000000214,0.0,-20.0,4200.00000000002,29.59000015258789,0.0549456503136018,-0.2679999999999993,0.0,0.09110694444444453,3.734956944444445,0.0,1.0,0.0,0.0,0.010000000000000009,0.09110694444444434,0.41,3.734956944444445,0.0,0.0,0.0,-20.0,-377100753.75,-1149749.999999999,0.0094400723631997,0.0,32788.0,0.0,0.0,0.0,8828.584555024665,-0.26473464767953436,13775.340390728406,13775.075656080728,441861113.11999995
42,42,0.4194400723631997,2.0,2.0,2.0,2.0,-0.2679999999999993,-0.2749999999999993,-0.2469999999999993,-0.2469999999999993,38.0,0.0,293.0,198.0,0.0,0.0,0.0,0.0,24.52500015497208,148.131000995636,29.44499969482422,29.420000076293945,29.545000076293945,29.584999084472656,-2.610000103712082,25.0,2.0,2.0,2.0,2.0,67.0,67.0,66.0,66.0,32848.0,28544.0,32909.0,28560.0,32969.0,28564.0,32788.0,28579.0,8.06703037214723,-0.4069629174340436,1.5883951376099272,0.1715185412829781,67.0,21.68,32848.0,32788.0,1077020224.0,21.68,470.0224,10190.085632,34873.11560947199,34873.11560947199,1077710032.0,67.0,-4099.999999999996,0.0,0.0,-6200.000000000018,29.545000076293945,0.1715185412829781,-0.2679999999999993,0.0,0.09110694444444352,3.8260638888888883,1.0,0.0,0.009999999999999898,0.09110694444444345,0.0,0.0,0.4199999999999999,3.8260638888888883,0.0,0.0,0.0,0.0,0.0,1149750.0000000116,0.0094400723631997,0.0,32788.0,0.0,0.0,0.0,8824.176545044216,-0.26355816915254116,14102.29209170782,14102.028533538669,452348494.07999986
43,43,0.4294400723631997,2.0,2.0,2.0,2.0,-0.2679999999999993,-0.2749999999999993,-0.2469999999999993,-0.2469999999999993,38.0,269.0,293.0,198.0,0.0,0.0,0.0,0.0,10.790999978780746,154.01699542999268,29.584999084472656,29.559999465942383,29.700000762939453,29.670000076293945,4.35,25.0,2.0,2.0,2.0,2.0,67.0,67.0,66.0,66.0,32848.0,28550.0,32848.0,28550.0,33011.0,28553.0,32829.0,28586.0,8.080975678452988,-0.4712143583908456,1.638880685900233,-0.0575712832183087,67.0,21.68,32848.0,32829.0,1078366992.0,21.68,470.0224,10190.085632,34873.11560947199,34873.11560947199,1077020224.0,67.0,6099.9999999999945,0.0,0.0,10199.99999999999,29.700000762939453,-0.0575712832183087,-0.2679999999999993,0.0,0.09113472222222231,3.9171986111111106,1.0,0.0,0.019999999999999907,0.18224166666666575,0.0,0.0,0.4299999999999999,3.9171986111111106,0.0,0.0,0.0,0.0,-736468803.75,-2244749.999999998,0.0094400723631997,0.0,32788.0,0.0,0.0,0.0,8832.782082720327,-0.2658713169499069,14456.115132411302,14455.849261094352,463697806.5599999
44,44,0.4394400723631997,2.0,2.0,2.0,2.0,-0.2679999999999993,-0.2749999999999993,-0.2469999999999993,-0.2469999999999993,38.0,0.0,293.0,198.0,0.0,0.0,0.0,0.0,20.600999891757965,160.8839988708496,29.559999465942383,29.614999771118164,29.795000076293945,29.73500061035156,1.7400000259280204,25.0,2.0,2.0,2.0,2.0,67.0,67.0,66.0,66.0,32827.0,28548.0,32848.0,28550.0,32948.0,28571.0,32768.0,28601.0,8.095799505103864,-0.3474641856009629,2.005071628798074,-0.2,67.0,21.68,32827.0,32768.0,1075675136.0,21.68,470.0224,10190.085632,34873.11560947199,34873.11560947199,1078366992.0,67.0,-1999.9999999999982,0.0,-21.0,-8099.999999999993,29.795000076293945,-0.2,-0.2679999999999993,0.0,0.09110694444444453,4.008305555555555,0.0,1.0,0.0,0.0,0.010000000000000009,0.09110694444444478,0.4399999999999999,4.008305555555555,0.0,0.0,0.0,-21.0,358919100.0,3339749.999999997,0.0094400723631997,0.0,32788.0,0.0,0.0,0.0,8819.977862816706,-0.2673131085948214,14755.37880939594,14755.111496287345,473297059.83999985
45,45,0.4494400723631997,2.0,2.0,2.0,2.0,-0.2679999999999993,-0.2749999999999993,-0.2469999999999993,-0.2469999999999993,38.0,106.0,293.0,198.0,0.0,0.0,0.0,0.0,27.46799886226654,170.69400548934937,29.625,29.559999465942383,29.75,29.7549991607666,-3.4800000518560408,25.0,2.0,2.0,2.0,2.0,67.0,67.0,66.0,66.0,32848.0,28560.0,32868.0,28575.0,32990.0,28579.0,32788.0,28614.0,8.10980605673333,-0.3788060386917313,2.0737313204360897,0.0364181160751941,67.0,21.68,32848.0,32788.0,1077020224.0,21.68,470.0224,10190.085632,34873.11560947199,34873.11560947199,1075675136.0,67.0,-2099.9999999999864,0.0,21.0,-99.99999999998818,29.75,0.0364181160751941,-0.2679999999999993,0.0,0.09105000000000009,4.099355555555555,1.0,0.0,0.010000000000000009,0.09105000000000008,0.0,0.0,0.4499999999999999,4.099355555555555,0.0,0.0,0.0,21.0,0.0,-1094999.999999999,0.0094400723631997,0.0,32788.0,0.0,0.0,0.0,8824.176545044216,-0.26492351140736603,15109.598669686951,15109.333746175544,484659100.7999999
46,46,0.4594400723631998,2.0,2.0,2.0,2.0,-0.2679999999999993,-0.2749999999999993,-0.2469999999999993,-0.2469999999999993,38.0,0.0,293.0,198.0,0.0,0.0,0.0,0.0,17.65799969434738,170.69400548934937,29.600000381469727,29.530000686645508,29.8700008392334,29.799999237060547,-3.4800000518560408,25.0,2.0,2.0,2.0,2.0,67.0,67.0,66.0,66.0,32827.0,28583.0,32848.0,28599.0,32948.0,28580.0,32809.0,28625.0,8.123229903560636,-0.4241132034184321,1.7911320341843209,0.2758867965815679,67.0,21.68,32827.0,32809.0,1077021043.0,21.68,470.0224,10190.085632,34873.11560947199,34873.11560947199,1077020224.0,67.0,-4099.999999999996,0.0,-21.0,-2000.00000000001,29.8700008392334,0.2758867965815679,-0.2679999999999993,0.0,0.09110694444444503,4.190462500000001,0.0,1.0,0.0,0.0,0.010000000000000064,0.09110694444444523,0.45999999999999996,4.190462500000001,0.0,0.0,0.0,-21.0,-377100753.75,-1149749.9999999925,0.0094400723631997,0.0,32788.0,0.0,0.0,0.0,8828.584555024665,-0.2625006783291136,15445.379274155834,15445.116773477504,495429679.78
47,47,0.4694400723631998,2.0,2.0,2.0,2.0,-0.2679999999999993,-0.2749999999999993,-0.2469999999999993,-0.2469999999999993,38.0,106.0,293.0,198.0,0.0,0.0,0.0,0.0,10.790999978780746,160.8839988708496,29.584999084472656,29.549999237060547,29.93000030517578,29.854999542236328,4.35,25.0,2.0,2.0,2.0,2.0,67.0,67.0,66.0,66.0,32868.0,28587.0,32889.0,28621.0,32990.0,28600.0,32850.0,28638.0,8.137645236712247,-0.3741983037940343,1.3951898227642057,0.196793215176137,67.0,21.68,32868.0,32850.0,1079713800.0,21.68,470.0224,10190.085632,34873.11560947199,34873.11560947199,1077021043.0,67.0,2100.0000000000214,0.0,41.0,6200.000000000018,29.93000030517578,0.196793215176137,-0.2679999999999993,0.0,0.09119305555555564,4.281655555555556,1.0,0.0,0.010000000000000009,0.09119305555555535,0.0,0.0,0.47,4.281655555555556,0.0,0.0,0.0,41.0,-1114040955.0,-2244749.999999998,0.0094400723631997,0.0,32788.0,0.0,0.0,0.0,8837.188881366075,-0.2632958485330572,15820.604254663043,15820.34095881451,507465486.0
48,48,0.4794400723631997,2.0,2.0,2.0,2.0,-0.2679999999999993,-0.2749999999999993,-0.2469999999999993,-0.2469999999999993,38.0,106.0,293.0,198.0,0.0,0.0,0.0,0.0,14.714999496936798,154.01699542999268,29.68000030517578,29.645000457763672,29.93000030517578,29.89999961853028,5.220000207424164,25.0,2.0,2.0,2.0,2.0,67.0,67.0,66.0,66.0,32827.0,28589.0,32869.0,28628.0,32990.0,28600.0,32829.0,28651.0,8.152354207157567,-0.2191392030926901,1.197655681237076,0.1261721593814619,67.0,21.68,32827.0,32829.0,1077677583.0,21.68,470.0224,10190.085632,34873.11560947199,34873.11560947199,1079713800.0,67.0,1999.9999999999982,0.0,-41.0,-100.00000000002319,29.93000030517578,0.1261721593814619,-0.2679999999999993,0.0,0.0912208333333324,4.372876388888888,0.0,1.0,0.0,0.0,0.009999999999999898,0.09122083333333197,0.47999999999999987,4.372876388888888,0.0,0.0,0.0,-41.0,-736468803.75,1149750.0000000116,0.0094400723631997,0.0,32788.0,0.0,0.0,0.0,8832.782082720327,-0.2640125803772103,16126.742196388692,16126.478183808314,517285239.83999985
49,49,0.4894400723631997,2.0,2.0,2.0,2.0,-0.2679999999999993,-0.2749999999999993,-0.2469999999999993,-0.2469999999999993,38.0,106.0,293.0,198.0,0.0,0.0,0.0,0.0,7.847999781370163,151.0740041732788,29.76499938964844,29.76499938964844,30.020000457763672,29.940000534057617,1.7400000259280204,25.0,2.0,2.0,2.0,2.0,67.0,67.0,66.0,66.0,32868.0,28591.0,32827.0,28624.0,32948.0,28606.0,32809.0,28670.0,8.168222063456472,-0.3102643122237409,1.1237169609720326,-0.0076982341678056,67.0,21.68,32868.0,32809.0,1078366212.0,21.68,470.0224,10190.085632,34873.11560947199,34873.11560947199,1077677583.0,67.0,0.0,0.0,41.0,-1999.9999999999982,30.020000457763672,-0.0076982341678056,-0.2679999999999993,0.0,0.09116388888888897,4.464040277777777,1.0,0.0,0.010000000000000009,0.0911638888888886,0.0,0.0,0.4899999999999999,4.464040277777777,0.0,0.0,0.0,41.0,-377100753.75,1094999.999999999,0.0094400723631997,0.0,32788.0,0.0,0.0,0.0,8828.584555024665,-0.2653680494713085,16473.235561106736,16472.970193057266,528399443.8799999
50,50,0.4994400723631997,2.0,2.0,2.0,2.0,-0.2679999999999993,-0.2749999999999993,-0.2469999999999993,-0.2469999999999993,38.0,0.0,293.0,198.0,0.0,0.0,0.0,0.0,-4.904999956488609,163.82700204849243,29.82999992370605,29.86000061035156,30.15999984741211,29.950000762939453,2.610000103712082,25.0,2.0,2.0,2.0,2.0,67.0,67.0,66.0,66.0,32848.0,28598.0,32869.0,28625.0,32948.0,28596.0,32809.0,28681.0,8.184032130717775,-0.3459327725668188,1.1256778712388635,0.0040672274331811,67.0,21.68,32848.0,32809.0,1077710032.0,21.68,470.0224,10190.085632,34873.11560947199,34873.11560947199,1078366212.0,67.0,0.0,0.0,-20.0,0.0,30.15999984741211,0.0040672274331811,-0.2679999999999993,0.0,0.0911361111111112,4.555176388888888,0.0,1.0,0.0,0.0,0.010000000000000009,0.09113611111111108,0.4999999999999999,4.555176388888888,0.0,0.0,0.0,-20.0,-377100753.75,0.0,0.0094400723631997,0.0,32788.0,0.0,0.0,0.0,8828.584555024665,-0.26524908710936673,16799.195598449274,16798.930349362166,538855015.9999999
51,51,0.5094400723631998,2.0,2.0,2.0,2.0,-0.2679999999999993,-0.2749999999999993,-0.2469999999999993,-0.2469999999999993,38.0,0.0,293.0,198.0,0.0,0.0,0.0,0.0,-7.847999781370163,167.75100231170654,29.86000061035156,29.86000061035156,30.065000534057617,30.02499961853028,-2.610000103712082,25.0,2.0,2.0,2.0,2.0,67.0,67.0,66.0,66.0,32827.0,28625.0,32848.0,28641.0,32990.0,28621.0,32809.0,28690.0,8.199951312288649,-0.2978272130286421,1.2478272130286423,-0.1190248358287658,67.0,21.68,32827.0,32809.0,1077021043.0,21.68,470.0224,10190.085632,34873.11560947199,34873.11560947199,1077710032.0,67.0,2099.999999999998,0.0,-21.0,2099.999999999998,30.065000534057617,-0.1190248358287658,-0.2679999999999993,0.0,0.0911361111111117,4.6463125,0.0,1.0,0.0,0.0,0.020000000000000073,0.18227222222222306,0.51,4.6463125,0.0,0.0,0.0,-21.0,-377100753.75,0.0,0.0094400723631997,0.0,32788.0,0.0,0.0,0.0,8828.584555024665,-0.26649368958044173,17124.224847433645,17123.958353744063,549280731.9300001
52,52,0.5194400723631998,2.0,2.0,2.0,2.0,-0.2679999999999993,-0.2749999999999993,-0.2469999999999993,-0.2469999999999993,38.0,106.0,293.0,198.0,0.0,0.0,0.0,0.0,-4.904999956488609,167.75100231170654,29.799999237060547,29.834999084472656,30.21500015258789,30.09499931335449,2.610000103712082,25.0,2.0,2.0,2.0,2.0,67.0,67.0,66.0,66.0,32847.0,28635.0,32827.0,28664.0,32948.0,28603.0,32788.0,28692.0,8.216126426795874,-0.7002965776037722,1.274925855599057,-0.1998022815974851,67.0,21.68,32847.0,32788.0,1076987436.0,21.68,470.0224,10190.085632,34873.11560947199,34873.11560947199,1077021043.0,67.0,0.0,0.0,20.0,-2099.999999999998,30.21500015258789,-0.1998022815974851,-0.2679999999999993,0.0,0.09110694444444453,4.737419444444444,1.0,0.0,0.010000000000000009,0.09110694444444434,0.0,0.0,0.52,4.737419444444444,0.0,0.0,0.0,20.0,0.0,1149749.999999999,0.0094400723631997,0.0,32788.0,0.0,0.0,0.0,8824.176545044216,-0.26731078509579453,17459.449146348692,17459.181835563595,560033466.72
53,53,0.5294400723631998,2.0,2.0,2.0,2.0,-0.2679999999999993,-0.2749999999999993,-0.2469999999999993,-0.2469999999999993,38.0,0.0,293.0,198.0,0.0,0.0,0.0,0.0,1.9619999453425407,170.69400548934937,29.88500022888184,29.84499931335449,30.20499992370605,30.18000030517578,-6.9600001037120816,25.0,2.0,2.0,2.0,2.0,67.0,67.0,66.0,66.0,32909.0,28666.0,32827.0,28687.0,32969.0,28629.0,32788.0,28699.0,8.230903528017844,-0.7374073680979609,1.2262592631902038,-0.0525185263804078,67.0,21.68,32909.0,32788.0,1079020292.0,21.68,470.0224,10190.085632,34873.11560947199,34873.11560947199,1076987436.0,67.0,-2099.999999999998,0.0,62.0,-2099.999999999998,30.20499992370605,-0.0525185263804078,-0.2679999999999993,0.0,0.09107777777777787,4.8284972222222216,1.0,0.0,0.020000000000000018,0.18218472222222193,0.0,0.0,0.53,4.8284972222222216,0.0,0.0,0.0,62.0,0.0,0.0,0.0094400723631997,0.0,32788.0,0.0,0.0,0.0,8824.176545044216,-0.26582231654258404,17828.79693598703,17828.531113670488,571880754.76
54,54,0.5394400723631998,2.0,2.0,2.0,2.0,-0.2679999999999993,-0.2749999999999993,-0.2469999999999993,-0.2469999999999993,38.0,0.0,293.0,198.0,0.0,0.0,0.0,0.0,-1.9619999453425407,157.9409956932068,29.850000381469727,29.905000686645508,30.25,30.225000381469727,0.0,25.0,2.0,2.0,2.0,2.0,67.0,67.0,66.0,66.0,32827.0,28667.0,32848.0,28699.0,32969.0,28613.0,32809.0,28693.0,8.24537391666687,-0.5787430004415451,1.2762476668138485,-0.1262476668138483,67.0,21.68,32827.0,32809.0,1077021043.0,21.68,470.0224,10190.085632,34873.11560947199,34873.11560947199,1079020292.0,67.0,2099.999999999998,0.0,-82.0,4199.999999999996,30.25,-0.1262476668138483,-0.2679999999999993,0.0,0.09110694444444453,4.919604166666666,0.0,1.0,0.0,0.0,0.010000000000000009,0.09110694444444434,0.54,4.919604166666666,0.0,0.0,0.0,-82.0,-377100753.75,-1149749.999999999,0.0094400723631997,0.0,32788.0,0.0,0.0,0.0,8828.584555024665,-0.26656672071708826,18131.53219140033,18131.26562467961,581591363.22
55,55,0.5494400723631998,2.0,2.0,2.0,2.0,-0.2679999999999993,-0.2749999999999993,-0.2469999999999993,-0.2469999999999993,38.0,0.0,293.0,198.0,0.0,0.0,0.0,0.0,1.9619999453425407,154.01699542999268,30.020000457763672,30.045000076293945,30.434999465942383,30.32999992370605,-1.7400000259280204,25.0,2.0,2.0,2.0,2.0,67.0,67.0,66.0,66.0,32868.0,28659.0,32869.0,28692.0,32948.0,28609.0,32788.0,28697.0,8.260170016229315,-0.3900795643461162,1.222023869303835,-0.15,67.0,21.68,32868.0,32788.0,1077675984.0,21.68,470.0224,10190.085632,34873.11560947199,34873.11560947199,1077021043.0,67.0,-2099.999999999998,0.0,41.0,-4199.999999999996,30.434999465942383,-0.15,-0.2679999999999993,0.0,0.09110694444444453,5.01071111111111,1.0,0.0,0.010000000000000009,0.09110694444444434,0.0,0.0,0.55,5.01071111111111,0.0,0.0,0.0,41.0,0.0,1149749.999999999,0.0094400723631997,0.0,32788.0,0.0,0.0,0.0,8824.176545044216,-0.26680747683938344,18478.531349204346,18478.264541727505,592721791.2
56,56,0.5594400723631998,2.0,2.0,2.0,2.0,-0.2679999999999993,-0.2749999999999993,-0.2469999999999993,-0.2469999999999993,38.0,106.0,293.0,198.0,0.0,0.0,0.0,0.0,-14.714999496936798,151.0740041732788,30.155000686645508,30.174999237060547,30.44499969482422,30.364999771118164,-2.610000103712082,25.0,2.0,2.0,2.0,2.0,67.0,67.0,66.0,66.0,32847.0,28658.0,32889.0,28685.0,32969.0,28614.0,32809.0,28693.0,8.275646356532295,-0.0473806285393847,1.2013096857303076,-0.1243451571348461,67.0,21.68,32847.0,32809.0,1077677223.0,21.68,470.0224,10190.085632,34873.11560947199,34873.11560947199,1077675984.0,67.0,-1999.9999999999982,0.0,-21.0,100.0,30.44499969482422,-0.1243451571348461,-0.2679999999999993,0.0,0.09110694444444453,5.101818055555555,0.0,1.0,0.0,0.0,0.010000000000000009,0.09110694444444434,0.56,5.101818055555555,0.0,0.0,0.0,-21.0,-377100753.75,-1149749.999999999,0.0094400723631997,0.0,32788.0,0.0,0.0,0.0,8828.584555024665,-0.2665474841539421,18814.526277427394,18814.259729943242,603499244.8800001
57,57,0.5694400723631998,2.0,2.0,2.0,2.0,-0.2679999999999993,-0.2749999999999993,-0.2469999999999993,-0.2469999999999993,38.0,106.0,293.0,198.0,0.0,0.0,0.0,0.0,-4.904999956488609,160.8839988708496,30.19499969482422,30.23500061035156,30.51499938964844,30.434999465942383,-2.610000103712082,25.0,2.0,2.0,2.0,2.0,67.0,67.0,66.0,66.0,32848.0,28663.0,32889.0,28683.0,32948.0,28616.0,32829.0,28687.0,8.291679985500835,0.1018591968840789,0.8610560233694078,-0.0222112046738815,67.0,21.68,32848.0,32829.0,1078366992.0,21.68,470.0224,10190.085632,34873.11560947199,34873.11560947199,1077677223.0,67.0,4100.000000000042,0.0,1.0,6100.00000000004,30.51499938964844,-0.0222112046738815,-0.2679999999999993,0.0,0.09116388888888897,5.192981944444443,1.0,0.0,0.010000000000000009,0.0911638888888886,0.0,0.0,0.5700000000000001,5.192981944444443,0.0,0.0,0.0,1.0,-736468803.75,-1094999.999999999,0.0094400723631997,0.0,32788.0,0.0,0.0,0.0,8832.782082720327,-0.2655136167224919,19162.75726854522,19162.4917549285,614669185.44
58,58,0.5794400723631997,2.0,2.0,2.0,2.0,-0.2679999999999993,-0.2749999999999993,-0.2469999999999993,-0.2469999999999993,38.0,0.0,293.0,198.0,0.0,0.0,0.0,0.0,-4.904999956488609,167.75100231170654,30.225000381469727,30.239999771118164,30.44499969482422,30.51000022888184,-1.7400000259280204,25.0,2.0,2.0,2.0,2.0,67.0,67.0,66.0,66.0,32827.0,28678.0,32869.0,28697.0,32948.0,28615.0,32788.0,28681.0,8.306943543110677,-0.0339943160852421,0.394860390808433,-0.0814245114894586,67.0,21.68,32827.0,32788.0,1076331676.0,21.68,470.0224,10190.085632,34873.11560947199,34873.11560947199,1078366992.0,67.0,-1999.9999999999982,0.0,-21.0,-6100.00000000004,30.44499969482422,-0.0814245114894586,-0.2679999999999993,0.0,0.0911347222222213,5.284116666666664,0.0,1.0,0.0,0.0,0.009999999999999898,0.09113472222222097,0.58,5.284116666666664,0.0,0.0,0.0,-21.0,0.0,2244750.000000023,0.0094400723631997,0.0,32788.0,0.0,0.0,0.0,8824.176545044216,-0.26611444414193114,19462.143570878114,19461.877456433973,624272372.0799999
