,Unnamed: 0,currentTime,Agp_Pos_Sp_FL,Agp_Pos_Sp_FR,Agp_Pos_Sp_RL,Agp_Pos_Sp_RR,Disc_T_Est_FL,Disc_T_Est_FR,Disc_T_Est_RL,Disc_T_Est_RR,Motor_current_FL,Wheel_Decl_FL,Motor_current_FR,Wheel_Decl_FR,Motor_current_RL,Wheel_Decl_RL,Motor_current_RR,Wheel_Decl_RR,Vehicle_speed,Gyro_Rate_Pitch,IMU_Gyro_Rate_Roll,IMU_Gyro_Rate_Yaw,RealizedClampingForce_FL,RealizedClampingForce_FR,RealizedClampingForce_RL,RealizedClampingForce_RR,Piston_position_FL,Piston_position_FR,Piston_position_RL,Piston_position_RR,CF_FL,CF_FR,CF_RL,CF_RR,ESTIMATED_PRESSURE_FL,ESTIMATED_PRESSURE_FR,ESTIMATED_PRESSURE_RL,ESTIMATED_PRESSURE_RR,LATERAL_ACCELERATION,LONGITUDINAL_ACCELERATION,Wheel_Speed_FL,Wheel_Speed_FR,Wheel_Speed_RL,Wheel_Speed_RR,Yaw_rate,Ambiant_Temperature,Init_Disc_CF_FL,POS_MEASUREREV,TMC_filtered,Vitesse_Vehicule_Roues,Pressure_Speed_FL,Position_previous_FL,POS_MEASUREREV_square,POS_MEASUREREV_cube,Estimated_CF_FL,Estimated_CF_previous_FL,Pressure_Speed_previous_FL,CF_previous_FL,Deceleration_g,PosDiff,PreDiff,DecDiff,Lookup_Table,Temp_amb_C,Initial_temp_FL,RPM,Distance_Roues_instant,Distance_Roues,Brake_apply,Brake_release,Time_since_brake_apply,Miles_since_brake_apply,Time_since_brake_release,Miles_since_brake_release,BrakingTime_2,BrakingMiles_2,TimeSinceLastBrake_2,MilesSinceLastBrake_2,Change_Position,Change_pressure,BrakingForce_2,BrakingForce_ma_2,Start_braking_time,End_braking_time,BrakeStartSpeed,LastBrakStartSpeed,LastBrakEndtSpeed,LastDeceleration,conv_heat_trans_coef,temp_change_conv_FL,disc_heating_BTM_FL,temp_change_instant_BTM_1_FL,Pressure_Speed_time_FL
0,0,-0.005341693115227,2.0,2.0,2.0,2.0,108.0,108.0,108.0,108.0,32848.0,32768.0,32848.0,32768.0,32990.0,32768.0,32809.0,32768.0,0.0,-0.1,-0.05,0.3,0.0,0.0,0.0,0.0,-0.3489999999999993,-0.3489999999999993,-0.3499999999999993,-0.3509999999999993,38.0,0.0,293.0,198.0,0.0,0.0,0.0,0.0,-4.904999956488609,4.904999956488609,2.0816681711721685e-15,2.0816681711721685e-15,2.0816681711721685e-15,2.0816681711721685e-15,5.220000207424164,25.0,38.0,0.0,0.0,2.0816681711721685e-15,0.0,0.0,0.0,0.0,-1111.702,-1111.702,0.0,38.0,0.0,0.0,0.0,0.0,0.0,25.0,108.0,0.0,0.0,0.0,0.0,0.0,0.0,0.0,0.0,0.0,0.0,0.0,0.0,0.0,0.0,0.0,0.0,0.0,0.0,0.0,0.0,0.0,0.0,0.0,0.0,0.0,0.0,0.0,0.0
1,1,0.0046583068847729,2.0,2.0,2.0,2.0,108.0,108.0,108.0,108.0,32848.0,32768.0,32869.0,32768.0,32990.0,32768.0,32809.0,32768.0,0.0,-0.0052335699679502,0.2816825051121742,0.2052335699679502,0.0,0.0,0.0,0.0,-0.3489999999999993,-0.3489999999999993,-0.3499999999999993,-0.3509999999999993,38.0,0.0,293.0,198.0,0.0,0.0,0.0,0.0,-4.904999956488609,4.904999956488609,2.0816681711721685e-15,2.0816681711721685e-15,2.0816681711721685e-15,2.0816681711721685e-15,5.220000207424164,25.0,38.0,0.0,0.0,2.0816681711721685e-15,0.0,0.0,0.0,0.0,-1111.702,-1111.702,0.0,38.0,0.0,0.0,0.0,0.0,0.0,25.0,108.0,0.0,5.7824115865892994e-21,5.7824115865892994e-21,0.0,0.0,0.0,0.0,0.0,0.0,0.0,0.0,0.0099999999999999,5.7824115865892994e-21,0.0,0.0,0.0,0.0,0.0,0.0046583068847729,0.0,0.0,2.0816681711721685e-15,4.468722698319291e-13,5.600000000000002,107.99946496873449,0.0,107.99946496873449,0.0
2,2,0.0146583068847729,2.0,2.0,2.0,2.0,108.0,108.0,108.0,108.0,32848.0,32768.0,32827.0,32768.0,32990.0,32768.0,32809.0,32768.0,0.0,0.2371698630384612,0.3948679452153845,0.0576980821769232,0.0,0.0,0.0,0.0,-0.3489999999999993,-0.3489999999999993,-0.3499999999999993,-0.3509999999999993,38.0,0.0,293.0,198.0,0.0,0.0,0.0,0.0,-1.9619999453425407,11.772000044584274,2.0816681711721685e-15,2.0816681711721685e-15,2.0816681711721685e-15,2.0816681711721685e-15,3.4800000518560408,25.0,38.0,0.0,0.0,2.0816681711721685e-15,0.0,0.0,0.0,0.0,-1111.702,-1111.702,0.0,38.0,0.0,0.0,0.0,0.0,0.0,25.0,108.0,0.0,5.782411586589357e-21,1.1564823173178656e-20,0.0,0.0,0.0,0.0,0.0,0.0,0.0,0.0,0.0199999999999999,1.1564823173178656e-20,0.0,0.0,0.0,0.0,0.0,0.0046583068847729,0.0,0.0,2.0816681711721685e-15,0.0,5.600000000000002,107.99946496873449,0.0,107.99946496873449,0.0
3,3,0.0246583068847729,2.0,2.0,2.0,2.0,108.0,108.0,108.0,108.0,32848.0,32768.0,32827.0,32768.0,32929.0,32768.0,32788.0,32768.0,0.0,0.3924312109089798,0.4949541406059865,0.05,0.0,0.0,0.0,0.0,-0.3489999999999993,-0.3489999999999993,-0.3499999999999993,-0.3509999999999993,38.0,0.0,293.0,198.0,0.0,0.0,0.0,0.0,-7.847999781370163,7.847999781370163,2.0816681711721685e-15,2.0816681711721685e-15,2.0816681711721685e-15,2.0816681711721685e-15,0.8700000129640102,25.0,38.0,0.0,0.0,2.0816681711721685e-15,0.0,0.0,0.0,0.0,-1111.702,-1111.702,0.0,38.0,0.0,0.0,0.0,0.0,0.0,25.0,108.0,0.0,5.7824115865893566e-21,1.7347234759768014e-20,0.0,0.0,0.0,0.0,0.0,0.0,0.0,0.0,0.0299999999999999,1.7347234759768014e-20,0.0,0.0,0.0,0.0,0.0,0.0046583068847729,0.0,0.0,2.0816681711721685e-15,0.0,5.600000000000002,107.99946496873449,0.0,107.99946496873449,0.0
4,4,0.0346583068847729,2.0,2.0,2.0,2.0,108.0,108.0,108.0,108.0,32889.0,32768.0,32848.0,32768.0,32969.0,32768.0,32747.0,32768.0,0.0,0.1748032673788899,0.2297639208546679,0.095039346524222,0.0,0.0,0.0,0.0,-0.3489999999999993,-0.3489999999999993,-0.3499999999999993,-0.3509999999999993,38.0,0.0,293.0,198.0,0.0,0.0,0.0,0.0,1.9619999453425407,4.904999956488609,2.0816681711721685e-15,2.0816681711721685e-15,2.0816681711721685e-15,2.0816681711721685e-15,0.8700000129640102,25.0,38.0,0.0,0.0,2.0816681711721685e-15,0.0,0.0,0.0,0.0,-1111.702,-1111.702,0.0,38.0,0.0,0.0,0.0,0.0,0.0,25.0,108.0,0.0,5.782411586589358e-21,2.3129646346357372e-20,0.0,0.0,0.0,0.0,0.0,0.0,0.0,0.0,0.0399999999999999,2.3129646346357372e-20,0.0,0.0,0.0,0.0,0.0,0.0046583068847729,0.0,0.0,2.0816681711721685e-15,0.0,5.600000000000002,107.99946496873449,0.0,107.99946496873449,0.0
5,5,0.0446583068847729,2.0,2.0,2.0,2.0,108.0,108.0,108.0,108.0,32848.0,32768.0,32827.0,32768.0,32990.0,32768.0,32788.0,32768.0,0.0,-0.0386113419486781,0.3886113419486782,-0.1357641774358476,0.0,0.0,0.0,0.0,-0.3489999999999993,-0.3489999999999993,-0.3499999999999993,-0.3509999999999993,38.0,0.0,293.0,198.0,0.0,0.0,0.0,0.0,1.9619999453425407,4.904999956488609,2.0816681711721685e-15,2.0816681711721685e-15,2.0816681711721685e-15,2.0816681711721685e-15,1.7400000259280204,25.0,38.0,0.0,0.0,2.0816681711721685e-15,0.0,0.0,0.0,0.0,-1111.702,-1111.702,0.0,38.0,0.0,0.0,0.0,0.0,0.0,25.0,108.0,0.0,5.782411586589358e-21,2.891205793294673e-20,0.0,0.0,0.0,0.0,0.0,0.0,0.0,0.0,0.0499999999999999,2.891205793294673e-20,0.0,0.0,0.0,0.0,0.0,0.0046583068847729,0.0,0.0,2.0816681711721685e-15,0.0,5.600000000000002,107.99946496873449,0.0,107.99946496873449,0.0
6,6,0.0546583068847729,2.0,2.0,2.0,2.0,108.0,108.0,108.0,108.0,32827.0,32768.0,32848.0,32768.0,32948.0,32768.0,32768.0,32768.0,0.0,-0.1898238728528146,-0.1592954914112583,-0.15,0.0,0.0,0.0,0.0,-0.3489999999999993,-0.3489999999999993,-0.3499999999999993,-0.3509999999999993,38.0,0.0,293.0,198.0,0.0,0.0,0.0,0.0,-1.9619999453425407,7.847999781370163,2.0816681711721685e-15,2.0816681711721685e-15,2.0816681711721685e-15,2.0816681711721685e-15,-2.610000103712082,25.0,38.0,0.0,0.0,2.0816681711721685e-15,0.0,0.0,0.0,0.0,-1111.702,-1111.702,0.0,38.0,0.0,0.0,0.0,0.0,0.0,25.0,108.0,0.0,5.7824115865893536e-21,3.469446951953608e-20,0.0,0.0,0.0,0.0,0.0,0.0,0.0,0.0,0.059999999999999894,3.469446951953608e-20,0.0,0.0,0.0,0.0,0.0,0.0046583068847729,0.0,0.0,2.0816681711721685e-15,0.0,5.600000000000002,107.99946496873449,0.0,107.99946496873449,0.0
7,7,0.0646583068847729,2.0,2.0,2.0,2.0,108.0,108.0,108.0,108.0,32889.0,32768.0,32869.0,32768.0,32948.0,32768.0,32768.0,32768.0,0.0,-0.2,0.0839534067735426,0.2286045423647236,0.0,0.0,0.0,0.0,-0.3489999999999993,-0.3489999999999993,-0.3499999999999993,-0.3509999999999993,38.0,0.0,293.0,198.0,0.0,0.0,0.0,0.0,-4.904999956488609,7.847999781370163,2.0816681711721685e-15,2.0816681711721685e-15,2.0816681711721685e-15,2.0816681711721685e-15,-2.610000103712082,25.0,38.0,0.0,0.0,2.0816681711721685e-15,0.0,0.0,0.0,0.0,-1111.702,-1111.702,0.0,38.0,0.0,0.0,0.0,0.0,0.0,25.0,108.0,0.0,5.7824115865893626e-21,4.0476881106125447e-20,0.0,0.0,0.0,0.0,0.0,0.0,0.0,0.0,0.0699999999999999,4.0476881106125447e-20,0.0,0.0,0.0,0.0,0.0,0.0046583068847729,0.0,0.0,2.0816681711721685e-15,0.0,5.600000000000002,107.99946496873449,0.0,107.99946496873449,0.0
8,8,0.0746583068847729,2.0,2.0,2.0,2.0,108.0,108.0,108.0,108.0,32889.0,32768.0,32869.0,32768.0,33031.0,32768.0,32788.0,32768.0,0.0,0.1237553428462927,-0.0850030530550244,0.4350030530550244,0.0,0.0,0.0,0.0,-0.3489999999999993,-0.3489999999999993,-0.3499999999999993,-0.3509999999999993,38.0,0.0,293.0,198.0,0.0,0.0,0.0,0.0,1.9619999453425407,7.847999781370163,2.0816681711721685e-15,2.0816681711721685e-15,2.0816681711721685e-15,2.0816681711721685e-15,4.35,25.0,38.0,0.0,0.0,2.0816681711721685e-15,0.0,0.0,0.0,0.0,-1111.702,-1111.702,0.0,38.0,0.0,0.0,0.0,0.0,0.0,25.0,108.0,0.0,5.7824115865893536e-21,4.62592926927148e-20,0.0,0.0,0.0,0.0,0.0,0.0,0.0,0.0,0.07999999999999989,4.62592926927148e-20,0.0,0.0,0.0,0.0,0.0,0.0046583068847729,0.0,0.0,2.0816681711721685e-15,0.0,5.600000000000002,107.99946496873449,0.0,107.99946496873449,0.0
9,9,0.0846583068847729,2.0,2.0,2.0,2.0,108.0,108.0,108.0,108.0,32869.0,32768.0,32848.0,32768.0,32948.0,32768.0,32768.0,32768.0,0.0,0.15,-0.1892865956221298,0.0928536175114808,0.0,0.0,0.0,0.0,-0.3489999999999993,-0.3489999999999993,-0.3499999999999993,-0.3509999999999993,38.0,0.0,293.0,198.0,0.0,0.0,0.0,0.0,-4.904999956488609,4.904999956488609,2.0816681711721685e-15,2.0816681711721685e-15,2.0816681711721685e-15,2.0816681711721685e-15,7.829999792575835,25.0,38.0,0.0,0.0,2.0816681711721685e-15,0.0,0.0,0.0,0.0,-1111.702,-1111.702,0.0,38.0,0.0,0.0,0.0,0.0,0.0,25.0,108.0,0.0,5.7824115865893536e-21,5.204170427930415e-20,0.0,0.0,0.0,0.0,0.0,0.0,0.0,0.0,0.08999999999999989,5.204170427930415e-20,0.0,0.0,0.0,0.0,0.0,0.0046583068847729,0.0,0.0,2.0816681711721685e-15,0.0,5.600000000000002,107.99946496873449,0.0,107.99946496873449,0.0
10,10,0.0946583068847729,2.0,2.0,2.0,2.0,108.0,108.0,108.0,108.0,32827.0,32768.0,32848.0,32768.0,32990.0,32768.0,32768.0,32768.0,0.0,0.1027649972725066,0.319585030002427,-0.1389400109099735,0.0,0.0,0.0,0.0,-0.3489999999999993,-0.3489999999999993,-0.3499999999999993,-0.3509999999999993,38.0,0.0,293.0,198.0,0.0,0.0,0.0,0.0,-1.9619999453425407,4.904999956488609,2.0816681711721685e-15,2.0816681711721685e-15,2.0816681711721685e-15,2.0816681711721685e-15,0.8700000129640102,25.0,38.0,0.0,0.0,2.0816681711721685e-15,0.0,0.0,0.0,0.0,-1111.702,-1111.702,0.0,38.0,0.0,0.0,0.0,0.0,0.0,25.0,108.0,0.0,5.7824115865893626e-21,5.782411586589351e-20,0.0,0.0,0.0,0.0,0.0,0.0,0.0,0.0,0.0999999999999999,5.782411586589351e-20,0.0,0.0,0.0,0.0,0.0,0.0046583068847729,0.0,0.0,2.0816681711721685e-15,0.0,5.600000000000002,107.99946496873449,0.0,107.99946496873449,0.0
11,11,0.1046583068847729,2.0,2.0,2.0,2.0,108.0,108.0,108.0,108.0,32848.0,32768.0,32848.0,32768.0,32990.0,32768.0,32788.0,32768.0,0.0,0.1473936532254317,0.1604253870982732,-0.1973936532254317,0.0,0.0,0.0,0.0,-0.3489999999999993,-0.3489999999999993,-0.3499999999999993,-0.3509999999999993,38.0,0.0,293.0,198.0,0.0,0.0,0.0,0.0,-4.904999956488609,4.904999956488609,2.0816681711721685e-15,2.0816681711721685e-15,2.0816681711721685e-15,2.0816681711721685e-15,-2.610000103712082,25.0,38.0,0.0,0.0,2.0816681711721685e-15,0.0,0.0,0.0,0.0,-1111.702,-1111.702,0.0,38.0,0.0,0.0,0.0,0.0,0.0,25.0,108.0,0.0,5.7824115865893536e-21,6.360652745248287e-20,0.0,0.0,0.0,0.0,0.0,0.0,0.0,0.0,0.10999999999999989,6.360652745248287e-20,0.0,0.0,0.0,0.0,0.0,0.0046583068847729,0.0,0.0,2.0816681711721685e-15,0.0,5.600000000000002,107.99946496873449,0.0,107.99946496873449,0.0
12,12,0.1146583068847729,2.0,2.0,2.0,2.0,108.0,108.0,108.0,108.0,32848.0,32768.0,32869.0,32768.0,32969.0,32768.0,32768.0,32768.0,0.0,0.2921406058540356,-0.086901009756726,-0.0104791921946191,0.0,0.0,0.0,0.0,-0.3489999999999993,-0.3489999999999993,-0.3499999999999993,-0.3509999999999993,38.0,0.0,293.0,198.0,0.0,0.0,0.0,0.0,-7.847999781370163,11.772000044584274,2.0816681711721685e-15,2.0816681711721685e-15,2.0816681711721685e-15,2.0816681711721685e-15,-3.4800000518560408,25.0,38.0,0.0,0.0,2.0816681711721685e-15,0.0,0.0,0.0,0.0,-1111.702,-1111.702,0.0,38.0,0.0,0.0,0.0,0.0,0.0,25.0,108.0,0.0,5.7824115865893536e-21,6.938893903907223e-20,0.0,0.0,0.0,0.0,0.0,0.0,0.0,0.0,0.11999999999999988,6.938893903907223e-20,0.0,0.0,0.0,0.0,0.0,0.0046583068847729,0.0,0.0,2.0816681711721685e-15,0.0,5.600000000000002,107.99946496873449,0.0,107.99946496873449,0.0
13,13,0.1246583068847729,2.0,2.0,2.0,2.0,108.0,108.0,108.0,108.0,32868.0,32768.0,32869.0,32768.0,32948.0,32768.0,32768.0,32768.0,0.0,0.1107432141892057,0.1838851787161914,0.2838851787161914,0.0,0.0,0.0,0.0,-0.3489999999999993,-0.3489999999999993,-0.3499999999999993,-0.3509999999999993,38.0,0.0,293.0,198.0,0.0,0.0,0.0,0.0,-1.9619999453425407,7.847999781370163,2.0816681711721685e-15,2.0816681711721685e-15,2.0816681711721685e-15,2.0816681711721685e-15,0.0,25.0,38.0,0.0,0.0,2.0816681711721685e-15,0.0,0.0,0.0,0.0,-1111.702,-1111.702,0.0,38.0,0.0,0.0,0.0,0.0,0.0,25.0,108.0,0.0,5.7824115865893626e-21,7.517135062566158e-20,0.0,0.0,0.0,0.0,0.0,0.0,0.0,0.0,0.1299999999999999,7.517135062566158e-20,0.0,0.0,0.0,0.0,0.0,0.0046583068847729,0.0,0.0,2.0816681711721685e-15,0.0,5.600000000000002,107.99946496873449,0.0,107.99946496873449,0.0
14,14,0.1346583068847729,2.0,2.0,2.0,2.0,108.0,108.0,108.0,108.0,32909.0,32768.0,32827.0,32768.0,32969.0,32768.0,32809.0,32768.0,0.0,0.1,0.4330613629847213,0.6728981807755541,0.0,0.0,0.0,0.0,-0.3489999999999993,-0.3489999999999993,-0.3499999999999993,-0.3509999999999993,38.0,0.0,293.0,198.0,0.0,0.0,0.0,0.0,-1.9619999453425407,7.847999781370163,2.0816681711721685e-15,2.0816681711721685e-15,2.0816681711721685e-15,2.0816681711721685e-15,5.220000207424164,25.0,38.0,0.0,0.0,2.0816681711721685e-15,0.0,0.0,0.0,0.0,-1111.702,-1111.702,0.0,38.0,0.0,0.0,0.0,0.0,0.0,25.0,108.0,0.0,5.7824115865893536e-21,8.095376221225094e-20,0.0,0.0,0.0,0.0,0.0,0.0,0.0,0.0,0.1399999999999999,8.095376221225094e-20,0.0,0.0,0.0,0.0,0.0,0.0046583068847729,0.0,0.0,2.0816681711721685e-15,0.0,5.600000000000002,107.99946496873449,0.0,107.99946496873449,0.0
15,15,0.1446583068847729,2.0,2.0,2.0,2.0,108.0,108.0,108.0,108.0,32889.0,32768.0,32869.0,32768.0,32948.0,32768.0,32747.0,32768.0,0.0,0.0054760920500891,0.3554760920500891,0.1328565523005346,0.0,0.0,0.0,0.0,-0.3489999999999993,-0.3489999999999993,-0.3499999999999993,-0.3509999999999993,38.0,0.0,293.0,198.0,0.0,0.0,0.0,0.0,-1.9619999453425407,7.847999781370163,2.0816681711721685e-15,2.0816681711721685e-15,2.0816681711721685e-15,2.0816681711721685e-15,12.179999792575837,25.0,38.0,0.0,0.0,2.0816681711721685e-15,0.0,0.0,0.0,0.0,-1111.702,-1111.702,0.0,38.0,0.0,0.0,0.0,0.0,0.0,25.0,108.0,0.0,5.7824115865893626e-21,8.67361737988403e-20,0.0,0.0,0.0,0.0,0.0,0.0,0.0,0.0,0.1499999999999999,8.67361737988403e-20,0.0,0.0,0.0,0.0,0.0,0.0046583068847729,0.0,0.0,2.0816681711721685e-15,0.0,5.600000000000002,107.99946496873449,0.0,107.99946496873449,0.0
16,16,0.1546583068847729,2.0,2.0,2.0,2.0,108.0,108.0,108.0,108.0,32827.0,32768.0,32827.0,32768.0,32990.0,32768.0,32809.0,32768.0,0.0,0.2356221227976616,-0.074119821035791,0.1,0.0,0.0,0.0,0.0,-0.3489999999999993,-0.3489999999999993,-0.3499999999999993,-0.3509999999999993,38.0,0.0,293.0,198.0,0.0,0.0,0.0,0.0,1.9619999453425407,7.847999781370163,2.0816681711721685e-15,2.0816681711721685e-15,2.0816681711721685e-15,2.0816681711721685e-15,1.7400000259280204,25.0,38.0,0.0,0.0,2.0816681711721685e-15,0.0,0.0,0.0,0.0,-1111.702,-1111.702,0.0,38.0,0.0,0.0,0.0,0.0,0.0,25.0,108.0,0.0,5.782411586589346e-21,9.251858538542965e-20,0.0,0.0,0.0,0.0,0.0,0.0,0.0,0.0,0.1599999999999999,9.251858538542965e-20,0.0,0.0,0.0,0.0,0.0,0.0046583068847729,0.0,0.0,2.0816681711721685e-15,0.0,5.600000000000002,107.99946496873449,0.0,107.99946496873449,0.0
17,17,0.1646583068847729,2.0,2.0,2.0,2.0,108.0,108.0,108.0,108.0,32827.0,32768.0,32827.0,32768.0,32969.0,32768.0,32768.0,32768.0,0.0,0.0134813368024423,-0.1946074652790231,-0.0419111979185346,0.0,0.0,0.0,0.0,-0.3489999999999993,-0.3489999999999993,-0.3499999999999993,-0.3509999999999993,38.0,0.0,293.0,198.0,0.0,0.0,0.0,0.0,-1.9619999453425407,4.904999956488609,2.0816681711721685e-15,2.0816681711721685e-15,2.0816681711721685e-15,2.0816681711721685e-15,1.7400000259280204,25.0,38.0,0.0,0.0,2.0816681711721685e-15,0.0,0.0,0.0,0.0,-1111.702,-1111.702,0.0,38.0,0.0,0.0,0.0,0.0,0.0,25.0,108.0,0.0,5.7824115865893626e-21,9.8300996972019e-20,0.0,0.0,0.0,0.0,0.0,0.0,0.0,0.0,0.1699999999999999,9.8300996972019e-20,0.0,0.0,0.0,0.0,0.0,0.0046583068847729,0.0,0.0,2.0816681711721685e-15,0.0,5.600000000000002,107.99946496873449,0.0,107.99946496873449,0.0
18,18,0.1746583068847729,2.0,2.0,2.0,2.0,108.0,108.0,108.0,108.0,32848.0,32768.0,32848.0,32768.0,32969.0,32768.0,32788.0,32768.0,0.0,0.2365776899814415,0.273155379962883,0.7543641459369012,0.0,0.0,0.0,0.0,-0.3489999999999993,-0.3489999999999993,-0.3499999999999993,-0.3509999999999993,38.0,0.0,293.0,198.0,0.0,0.0,0.0,0.0,-4.904999956488609,7.847999781370163,2.0816681711721685e-15,2.0816681711721685e-15,2.0816681711721685e-15,2.0816681711721685e-15,-0.8700000129640102,25.0,38.0,0.0,0.0,2.0816681711721685e-15,0.0,0.0,0.0,0.0,-1111.702,-1111.702,0.0,38.0,0.0,0.0,0.0,0.0,0.0,25.0,108.0,0.0,5.7824115865893626e-21,1.0408340855860836e-19,0.0,0.0,0.0,0.0,0.0,0.0,0.0,0.0,0.1799999999999999,1.0408340855860836e-19,0.0,0.0,0.0,0.0,0.0,0.0046583068847729,0.0,0.0,2.0816681711721685e-15,0.0,5.600000000000002,107.99946496873449,0.0,107.99946496873449,0.0
19,19,0.1846583068847729,2.0,2.0,2.0,2.0,108.0,108.0,108.0,108.0,32848.0,32768.0,32869.0,32768.0,32948.0,32768.0,32788.0,32768.0,0.0,0.3395129744084195,0.4342694616126292,0.1734091791410638,0.0,0.0,0.0,0.0,-0.3489999999999993,-0.3489999999999993,-0.3499999999999993,-0.3509999999999993,38.0,0.0,293.0,198.0,0.0,0.0,0.0,0.0,1.9619999453425407,11.772000044584274,2.0816681711721685e-15,2.0816681711721685e-15,2.0816681711721685e-15,2.0816681711721685e-15,13.920000207424165,25.0,38.0,0.0,0.0,2.0816681711721685e-15,0.0,0.0,0.0,0.0,-1111.702,-1111.702,0.0,38.0,0.0,0.0,0.0,0.0,0.0,25.0,108.0,0.0,5.782411586589346e-21,1.0986582014519772e-19,0.0,0.0,0.0,0.0,0.0,0.0,0.0,0.0,0.1899999999999999,1.0986582014519772e-19,0.0,0.0,0.0,0.0,0.0,0.0046583068847729,0.0,0.0,2.0816681711721685e-15,0.0,5.600000000000002,107.99946496873449,0.0,107.99946496873449,0.0
20,20,0.1946583068847729,2.0,2.0,2.0,2.0,108.0,108.0,108.0,108.0,32909.0,32768.0,32827.0,32768.0,32990.0,32768.0,32788.0,32768.0,0.0,0.4444298612646717,0.3083552081029923,-0.2777194450586872,0.0,0.0,0.0,0.0,-0.3489999999999993,-0.3489999999999993,-0.3499999999999993,-0.3509999999999993,38.0,0.0,293.0,198.0,0.0,0.0,0.0,0.0,1.9619999453425407,7.847999781370163,2.0816681711721685e-15,2.0816681711721685e-15,2.0816681711721685e-15,2.0816681711721685e-15,1.7400000259280204,25.0,38.0,0.0,0.0,2.0816681711721685e-15,0.0,0.0,0.0,0.0,-1111.702,-1111.702,0.0,38.0,0.0,0.0,0.0,0.0,0.0,25.0,108.0,0.0,5.7824115865893626e-21,1.156482317317871e-19,0.0,0.0,0.0,0.0,0.0,0.0,0.0,0.0,0.1999999999999999,1.156482317317871e-19,0.0,0.0,0.0,0.0,0.0,0.0046583068847729,0.0,0.0,2.0816681711721685e-15,0.0,5.600000000000002,107.99946496873449,0.0,107.99946496873449,0.0
21,21,0.2046583068847729,2.0,2.0,2.0,2.0,108.0,108.0,108.0,108.0,32827.0,32768.0,32869.0,32768.0,32990.0,32768.0,32788.0,32768.0,0.0,0.072217889696734,0.488891055151633,0.0305593465153576,0.0,0.0,0.0,0.0,-0.3489999999999993,-0.3489999999999993,-0.3499999999999993,-0.3509999999999993,38.0,0.0,293.0,198.0,0.0,0.0,0.0,0.0,-4.904999956488609,4.904999956488609,2.0816681711721685e-15,2.0816681711721685e-15,2.0816681711721685e-15,2.0816681711721685e-15,-5.220000207424164,25.0,38.0,0.0,0.0,2.0816681711721685e-15,0.0,0.0,0.0,0.0,-1111.702,-1111.702,0.0,38.0,0.0,0.0,0.0,0.0,0.0,25.0,108.0,0.0,5.7824115865893626e-21,1.2143064331837646e-19,0.0,0.0,0.0,0.0,0.0,0.0,0.0,0.0,0.2099999999999999,1.2143064331837646e-19,0.0,0.0,0.0,0.0,0.0,0.0046583068847729,0.0,0.0,2.0816681711721685e-15,0.0,5.600000000000002,107.99946496873449,0.0,107.99946496873449,0.0
22,22,0.2146583068847729,2.0,2.0,2.0,2.0,108.0,108.0,108.0,108.0,32848.0,32768.0,32827.0,32768.0,32990.0,32768.0,32768.0,32768.0,0.0,0.002375812698081,0.2618790634904051,0.0976241873019189,0.0,0.0,0.0,0.0,-0.3489999999999993,-0.3489999999999993,-0.3499999999999993,-0.3509999999999993,38.0,0.0,293.0,198.0,0.0,0.0,0.0,0.0,-1.9619999453425407,7.847999781370163,2.0816681711721685e-15,2.0816681711721685e-15,2.0816681711721685e-15,2.0816681711721685e-15,0.8700000129640102,25.0,38.0,0.0,0.0,2.0816681711721685e-15,0.0,0.0,0.0,0.0,-1111.702,-1111.702,0.0,38.0,0.0,0.0,0.0,0.0,0.0,25.0,108.0,0.0,5.782411586589346e-21,1.272130549049658e-19,0.0,0.0,0.0,0.0,0.0,0.0,0.0,0.0,0.2199999999999999,1.272130549049658e-19,0.0,0.0,0.0,0.0,0.0,0.0046583068847729,0.0,0.0,2.0816681711721685e-15,0.0,5.600000000000002,107.99946496873449,0.0,107.99946496873449,0.0
23,23,0.2246583068847729,2.0,2.0,2.0,2.0,108.0,108.0,108.0,108.0,32889.0,32768.0,32848.0,32768.0,33010.0,32768.0,32726.0,32768.0,0.0,0.1887516671184083,0.0612483328815916,0.0056241664407958,0.0,0.0,0.0,0.0,-0.3489999999999993,-0.3489999999999993,-0.3499999999999993,-0.3509999999999993,38.0,0.0,293.0,198.0,0.0,0.0,0.0,0.0,-4.904999956488609,11.772000044584274,2.0816681711721685e-15,2.0816681711721685e-15,2.0816681711721685e-15,2.0816681711721685e-15,1.7400000259280204,25.0,38.0,0.0,0.0,2.0816681711721685e-15,0.0,0.0,0.0,0.0,-1111.702,-1111.702,0.0,38.0,0.0,0.0,0.0,0.0,0.0,25.0,108.0,0.0,5.7824115865893626e-21,1.3299546649155518e-19,0.0,0.0,0.0,0.0,0.0,0.0,0.0,0.0,0.2299999999999999,1.3299546649155518e-19,0.0,0.0,0.0,0.0,0.0,0.0046583068847729,0.0,0.0,2.0816681711721685e-15,0.0,5.600000000000002,107.99946496873449,0.0,107.99946496873449,0.0
24,24,0.2346583068847729,2.0,2.0,2.0,2.0,108.0,108.0,108.0,108.0,32869.0,32768.0,32889.0,32768.0,32969.0,32768.0,32768.0,32768.0,0.0,0.4258483856997652,0.05,0.045169677139953,0.0,0.0,0.0,0.0,-0.3489999999999993,-0.3489999999999993,-0.3499999999999993,-0.3509999999999993,38.0,0.0,293.0,198.0,0.0,0.0,0.0,0.0,-11.772000044584274,11.772000044584274,2.0816681711721685e-15,2.0816681711721685e-15,2.0816681711721685e-15,2.0816681711721685e-15,0.0,25.0,38.0,0.0,0.0,2.0816681711721685e-15,0.0,0.0,0.0,0.0,-1111.702,-1111.702,0.0,38.0,0.0,0.0,0.0,0.0,0.0,25.0,108.0,0.0,5.7824115865893626e-21,1.3877787807814455e-19,0.0,0.0,0.0,0.0,0.0,0.0,0.0,0.0,0.2399999999999999,1.3877787807814455e-19,0.0,0.0,0.0,0.0,0.0,0.0046583068847729,0.0,0.0,2.0816681711721685e-15,0.0,5.600000000000002,107.99946496873449,0.0,107.99946496873449,0.0
25,25,0.2446583068847729,2.0,2.0,2.0,2.0,108.0,108.0,108.0,108.0,32788.0,32768.0,32848.0,32768.0,32948.0,32768.0,32809.0,32768.0,0.0,0.2621479983587265,0.1439260008206367,0.1908890012309552,0.0,0.0,0.0,0.0,-0.3489999999999993,-0.3489999999999993,-0.3499999999999993,-0.3509999999999993,38.0,0.0,293.0,198.0,0.0,0.0,0.0,0.0,-4.904999956488609,11.772000044584274,2.0816681711721685e-15,2.0816681711721685e-15,2.0816681711721685e-15,2.0816681711721685e-15,0.8700000129640102,25.0,38.0,0.0,0.0,2.0816681711721685e-15,0.0,0.0,0.0,0.0,-1111.702,-1111.702,0.0,38.0,0.0,0.0,0.0,0.0,0.0,25.0,108.0,0.0,5.7824115865893626e-21,1.4456028966473392e-19,0.0,0.0,0.0,0.0,0.0,0.0,0.0,0.0,0.24999999999999992,1.4456028966473392e-19,0.0,0.0,0.0,0.0,0.0,0.0046583068847729,0.0,0.0,2.0816681711721685e-15,0.0,5.600000000000002,107.99946496873449,0.0,107.99946496873449,0.0
26,26,0.254658306884773,2.0,2.0,2.0,2.0,108.0,108.0,108.0,108.0,32848.0,32768.0,32827.0,32768.0,32990.0,32768.0,32788.0,32768.0,0.0,-0.0322517264705156,-0.4145034529410313,-0.2233775897057735,0.0,0.0,0.0,0.0,-0.3489999999999993,-0.3489999999999993,-0.3499999999999993,-0.3509999999999993,38.0,0.0,293.0,198.0,0.0,0.0,0.0,0.0,1.9619999453425407,7.847999781370163,2.0816681711721685e-15,2.0816681711721685e-15,2.0816681711721685e-15,2.0816681711721685e-15,3.4800000518560408,25.0,38.0,0.0,0.0,2.0816681711721685e-15,0.0,0.0,0.0,0.0,-1111.702,-1111.702,0.0,38.0,0.0,0.0,0.0,0.0,0.0,25.0,108.0,0.0,5.782411586589394e-21,1.503427012513233e-19,0.0,0.0,0.0,0.0,0.0,0.0,0.0,0.0,0.26,1.503427012513233e-19,0.0,0.0,0.0,0.0,0.0,0.0046583068847729,0.0,0.0,2.0816681711721685e-15,0.0,5.600000000000002,107.99946496873449,0.0,107.99946496873449,0.0
27,27,0.264658306884773,2.0,2.0,2.0,2.0,108.0,108.0,108.0,108.0,32889.0,32768.0,32869.0,32768.0,32969.0,32768.0,32768.0,32768.0,0.0,-0.2382530099660518,0.1147590298981556,-0.4853162624575649,0.0,0.0,0.0,0.0,-0.3489999999999993,-0.3489999999999993,-0.3499999999999993,-0.3509999999999993,38.0,0.0,293.0,198.0,0.0,0.0,0.0,0.0,1.9619999453425407,7.847999781370163,2.0816681711721685e-15,2.0816681711721685e-15,2.0816681711721685e-15,2.0816681711721685e-15,-4.35,25.0,38.0,0.0,0.0,2.0816681711721685e-15,0.0,0.0,0.0,0.0,-1111.702,-1111.702,0.0,38.0,0.0,0.0,0.0,0.0,0.0,25.0,108.0,0.0,5.7824115865893626e-21,1.5612511283791268e-19,0.0,0.0,0.0,0.0,0.0,0.0,0.0,0.0,0.27,1.5612511283791268e-19,0.0,0.0,0.0,0.0,0.0,0.0046583068847729,0.0,0.0,2.0816681711721685e-15,0.0,5.600000000000002,107.99946496873449,0.0,107.99946496873449,0.0
28,28,0.274658306884773,2.0,2.0,2.0,2.0,108.0,108.0,108.0,108.0,32848.0,32768.0,32827.0,32768.0,32969.0,32768.0,32768.0,32768.0,0.0,-0.1070588947248442,0.1976470350917186,-0.1188237192662512,0.0,0.0,0.0,0.0,-0.3489999999999993,-0.3489999999999993,-0.3499999999999993,-0.3509999999999993,38.0,0.0,293.0,198.0,0.0,0.0,0.0,0.0,-4.904999956488609,7.847999781370163,2.0816681711721685e-15,2.0816681711721685e-15,2.0816681711721685e-15,2.0816681711721685e-15,-8.7,25.0,38.0,0.0,0.0,2.0816681711721685e-15,0.0,0.0,0.0,0.0,-1111.702,-1111.702,0.0,38.0,0.0,0.0,0.0,0.0,0.0,25.0,108.0,0.0,5.7824115865893626e-21,1.6190752442450205e-19,0.0,0.0,0.0,0.0,0.0,0.0,0.0,0.0,0.28,1.6190752442450205e-19,0.0,0.0,0.0,0.0,0.0,0.0046583068847729,0.0,0.0,2.0816681711721685e-15,0.0,5.600000000000002,107.99946496873449,0.0,107.99946496873449,0.0
29,29,0.2846583068847729,2.0,2.0,2.0,2.0,108.0,108.0,108.0,108.0,32848.0,32768.0,32869.0,32768.0,32990.0,32768.0,32788.0,32768.0,0.0,0.2133683856049031,0.3343007366878157,0.1238345611463594,0.0,0.0,0.0,0.0,-0.3489999999999993,-0.3489999999999993,-0.3499999999999993,-0.3509999999999993,38.0,0.0,293.0,198.0,0.0,0.0,0.0,0.0,1.9619999453425407,7.847999781370163,2.0816681711721685e-15,2.0816681711721685e-15,2.0816681711721685e-15,2.0816681711721685e-15,-1.7400000259280204,25.0,38.0,0.0,0.0,2.0816681711721685e-15,0.0,0.0,0.0,0.0,-1111.702,-1111.702,0.0,38.0,0.0,0.0,0.0,0.0,0.0,25.0,108.0,0.0,5.782411586589298e-21,1.6768993601109135e-19,0.0,0.0,0.0,0.0,0.0,0.0,0.0,0.0,0.2899999999999999,1.6768993601109135e-19,0.0,0.0,0.0,0.0,0.0,0.0046583068847729,0.0,0.0,2.0816681711721685e-15,0.0,5.600000000000002,107.99946496873449,0.0,107.99946496873449,0.0
30,30,0.2946583068847729,2.0,2.0,2.0,2.0,108.0,108.0,108.0,108.0,32827.0,32768.0,32848.0,32768.0,32909.0,32768.0,32768.0,32768.0,0.0,0.2969886640548447,0.1620453437806211,0.0090340078354658,0.0,0.0,0.0,0.0,-0.3489999999999993,-0.3489999999999993,-0.3499999999999993,-0.3509999999999993,38.0,0.0,293.0,198.0,0.0,0.0,0.0,0.0,4.904999956488609,7.847999781370163,2.0816681711721685e-15,2.0816681711721685e-15,2.0816681711721685e-15,2.0816681711721685e-15,2.610000103712082,25.0,38.0,0.0,0.0,2.0816681711721685e-15,0.0,0.0,0.0,0.0,-1111.702,-1111.702,0.0,38.0,0.0,0.0,0.0,0.0,0.0,25.0,108.0,0.0,5.7824115865893626e-21,1.7347234759768072e-19,0.0,0.0,0.0,0.0,0.0,0.0,0.0,0.0,0.29999999999999993,1.7347234759768072e-19,0.0,0.0,0.0,0.0,0.0,0.0046583068847729,0.0,0.0,2.0816681711721685e-15,0.0,5.600000000000002,107.99946496873449,0.0,107.99946496873449,0.0
31,31,0.3046583068847729,2.0,2.0,2.0,2.0,108.0,108.0,108.0,108.0,32848.0,32768.0,32827.0,32768.0,32948.0,32768.0,32768.0,32768.0,0.0,0.1119676915065503,0.2910242313700872,0.0470080771233624,0.0,0.0,0.0,0.0,-0.3489999999999993,-0.3489999999999993,-0.3499999999999993,-0.3509999999999993,38.0,0.0,293.0,198.0,0.0,0.0,0.0,0.0,-1.9619999453425407,11.772000044584274,2.0816681711721685e-15,2.0816681711721685e-15,2.0816681711721685e-15,2.0816681711721685e-15,0.0,25.0,38.0,0.0,0.0,2.0816681711721685e-15,0.0,0.0,0.0,0.0,-1111.702,-1111.702,0.0,38.0,0.0,0.0,0.0,0.0,0.0,25.0,108.0,0.0,5.7824115865893626e-21,1.792547591842701e-19,0.0,0.0,0.0,0.0,0.0,0.0,0.0,0.0,0.30999999999999994,1.792547591842701e-19,0.0,0.0,0.0,0.0,0.0,0.0046583068847729,0.0,0.0,2.0816681711721685e-15,0.0,5.600000000000002,107.99946496873449,0.0,107.99946496873449,0.0
32,32,0.314658306884773,2.0,2.0,2.0,2.0,108.0,108.0,108.0,108.0,32848.0,32768.0,32827.0,32768.0,32948.0,32768.0,32768.0,32768.0,0.0,0.4285388030483847,0.3,0.4724070324907805,0.0,0.0,0.0,0.0,-0.3489999999999993,-0.3489999999999993,-0.3499999999999993,-0.3509999999999993,38.0,0.0,293.0,198.0,0.0,0.0,0.0,0.0,-4.904999956488609,7.847999781370163,2.0816681711721685e-15,2.0816681711721685e-15,2.0816681711721685e-15,2.0816681711721685e-15,0.8700000129640102,25.0,38.0,0.0,0.0,2.0816681711721685e-15,0.0,0.0,0.0,0.0,-1111.702,-1111.702,0.0,38.0,0.0,0.0,0.0,0.0,0.0,25.0,108.0,0.0,5.782411586589394e-21,1.8503717077085948e-19,0.0,0.0,0.0,0.0,0.0,0.0,0.0,0.0,0.32,1.8503717077085948e-19,0.0,0.0,0.0,0.0,0.0,0.0046583068847729,0.0,0.0,2.0816681711721685e-15,0.0,5.600000000000002,107.99946496873449,0.0,107.99946496873449,0.0
33,33,0.324658306884773,2.0,2.0,2.0,2.0,108.0,108.0,108.0,108.0,32889.0,32768.0,32827.0,32768.0,32929.0,32768.0,32768.0,32768.0,0.0,0.5439086398980609,0.0652284002548478,0.0304568005096957,0.0,0.0,0.0,0.0,-0.3489999999999993,-0.3489999999999993,-0.3499999999999993,-0.3509999999999993,38.0,0.0,293.0,198.0,0.0,0.0,0.0,0.0,-1.9619999453425407,4.904999956488609,2.0816681711721685e-15,2.0816681711721685e-15,2.0816681711721685e-15,2.0816681711721685e-15,8.7,25.0,38.0,0.0,0.0,2.0816681711721685e-15,0.0,0.0,0.0,0.0,-1111.702,-1111.702,0.0,38.0,0.0,0.0,0.0,0.0,0.0,25.0,108.0,0.0,5.7824115865893626e-21,1.9081958235744885e-19,0.0,0.0,0.0,0.0,0.0,0.0,0.0,0.0,0.33,1.9081958235744885e-19,0.0,0.0,0.0,0.0,0.0,0.0046583068847729,0.0,0.0,2.0816681711721685e-15,0.0,5.600000000000002,107.99946496873449,0.0,107.99946496873449,0.0
34,34,0.334658306884773,2.0,2.0,2.0,2.0,108.0,108.0,108.0,108.0,32868.0,32768.0,32827.0,32768.0,32990.0,32768.0,32768.0,32768.0,0.0,-0.0583620984277328,-0.0803633068059427,0.2607266136118855,0.0,0.0,0.0,0.0,-0.3489999999999993,-0.3489999999999993,-0.3499999999999993,-0.3509999999999993,38.0,0.0,293.0,198.0,0.0,0.0,0.0,0.0,-1.9619999453425407,7.847999781370163,2.0816681711721685e-15,2.0816681711721685e-15,2.0816681711721685e-15,2.0816681711721685e-15,0.0,25.0,38.0,0.0,0.0,2.0816681711721685e-15,0.0,0.0,0.0,0.0,-1111.702,-1111.702,0.0,38.0,0.0,0.0,0.0,0.0,0.0,25.0,108.0,0.0,5.7824115865893626e-21,1.9660199394403822e-19,0.0,0.0,0.0,0.0,0.0,0.0,0.0,0.0,0.34,1.9660199394403822e-19,0.0,0.0,0.0,0.0,0.0,0.0046583068847729,0.0,0.0,2.0816681711721685e-15,0.0,5.600000000000002,107.99946496873449,0.0,107.99946496873449,0.0
35,35,0.344658306884773,2.0,2.0,2.0,2.0,108.0,108.0,108.0,108.0,32848.0,32768.0,32827.0,32768.0,32990.0,32768.0,32706.0,32768.0,0.0,-0.2898606109144964,-0.0533797963618345,0.4864808145526619,0.0,0.0,0.0,0.0,-0.3489999999999993,-0.3489999999999993,-0.3499999999999993,-0.3509999999999993,38.0,0.0,293.0,198.0,0.0,0.0,0.0,0.0,1.9619999453425407,4.904999956488609,2.0816681711721685e-15,2.0816681711721685e-15,2.0816681711721685e-15,2.0816681711721685e-15,5.220000207424164,25.0,38.0,0.0,0.0,2.0816681711721685e-15,0.0,0.0,0.0,0.0,-1111.702,-1111.702,0.0,38.0,0.0,0.0,0.0,0.0,0.0,25.0,108.0,0.0,5.7824115865893626e-21,2.023844055306276e-19,0.0,0.0,0.0,0.0,0.0,0.0,0.0,0.0,0.35000000000000003,2.023844055306276e-19,0.0,0.0,0.0,0.0,0.0,0.0046583068847729,0.0,0.0,2.0816681711721685e-15,0.0,5.600000000000002,107.99946496873449,0.0,107.99946496873449,0.0
36,36,0.3546583068847729,2.0,2.0,2.0,2.0,108.0,108.0,108.0,108.0,32848.0,32768.0,32848.0,32768.0,32948.0,32768.0,32809.0,32768.0,0.0,-0.3,0.4166026849200165,0.5933205369840033,0.0,0.0,0.0,0.0,-0.3489999999999993,-0.3489999999999993,-0.3499999999999993,-0.3509999999999993,38.0,0.0,293.0,198.0,0.0,0.0,0.0,0.0,1.9619999453425407,7.847999781370163,2.0816681711721685e-15,2.0816681711721685e-15,2.0816681711721685e-15,2.0816681711721685e-15,8.7,25.0,38.0,0.0,0.0,2.0816681711721685e-15,0.0,0.0,0.0,0.0,-1111.702,-1111.702,0.0,38.0,0.0,0.0,0.0,0.0,0.0,25.0,108.0,0.0,5.782411586589298e-21,2.081668171172169e-19,0.0,0.0,0.0,0.0,0.0,0.0,0.0,0.0,0.35999999999999993,2.081668171172169e-19,0.0,0.0,0.0,0.0,0.0,0.0046583068847729,0.0,0.0,2.0816681711721685e-15,0.0,5.600000000000002,107.99946496873449,0.0,107.99946496873449,0.0
37,37,0.3646583068847729,2.0,2.0,2.0,2.0,108.0,108.0,108.0,108.0,32848.0,32768.0,32827.0,32768.0,32948.0,32768.0,32768.0,32768.0,0.0,0.1217867146823929,0.1688088568784046,-0.0561126672837223,0.0,0.0,0.0,0.0,-0.3489999999999993,-0.3489999999999993,-0.3499999999999993,-0.3509999999999993,38.0,0.0,293.0,198.0,0.0,0.0,0.0,0.0,-4.904999956488609,4.904999956488609,2.0816681711721685e-15,2.0816681711721685e-15,2.0816681711721685e-15,2.0816681711721685e-15,10.440000414848328,25.0,38.0,0.0,0.0,2.0816681711721685e-15,0.0,0.0,0.0,0.0,-1111.702,-1111.702,0.0,38.0,0.0,0.0,0.0,0.0,0.0,25.0,108.0,0.0,5.7824115865893626e-21,2.1394922870380626e-19,0.0,0.0,0.0,0.0,0.0,0.0,0.0,0.0,0.36999999999999994,2.1394922870380626e-19,0.0,0.0,0.0,0.0,0.0,0.0046583068847729,0.0,0.0,2.0816681711721685e-15,0.0,5.600000000000002,107.99946496873449,0.0,107.99946496873449,0.0
38,38,0.374658306884773,2.0,2.0,2.0,2.0,108.0,108.0,108.0,108.0,32848.0,32768.0,32848.0,32768.0,32990.0,32768.0,32768.0,32768.0,0.0,0.2905023311235014,0.1968341103745005,0.1341705518725024,0.0,0.0,0.0,0.0,-0.3489999999999993,-0.3489999999999993,-0.3499999999999993,-0.3509999999999993,38.0,0.0,293.0,198.0,0.0,0.0,0.0,0.0,-1.9619999453425407,4.904999956488609,2.0816681711721685e-15,2.0816681711721685e-15,2.0816681711721685e-15,2.0816681711721685e-15,-1.7400000259280204,25.0,38.0,0.0,0.0,2.0816681711721685e-15,0.0,0.0,0.0,0.0,-1111.702,-1111.702,0.0,38.0,0.0,0.0,0.0,0.0,0.0,25.0,108.0,0.0,5.782411586589394e-21,2.1973164029039563e-19,0.0,0.0,0.0,0.0,0.0,0.0,0.0,0.0,0.38,2.1973164029039563e-19,0.0,0.0,0.0,0.0,0.0,0.0046583068847729,0.0,0.0,2.0816681711721685e-15,0.0,5.600000000000002,107.99946496873449,0.0,107.99946496873449,0.0
39,39,0.384658306884773,2.0,2.0,2.0,2.0,108.0,108.0,108.0,108.0,32868.0,32768.0,32848.0,32768.0,32948.0,32768.0,32726.0,32768.0,0.0,-0.1027593724954132,0.1552489586116207,-0.1632572897186548,0.0,0.0,0.0,0.0,-0.3489999999999993,-0.3489999999999993,-0.3499999999999993,-0.3509999999999993,38.0,0.0,293.0,198.0,0.0,0.0,0.0,0.0,-1.9619999453425407,4.904999956488609,2.0816681711721685e-15,2.0816681711721685e-15,2.0816681711721685e-15,2.0816681711721685e-15,2.610000103712082,25.0,38.0,0.0,0.0,2.0816681711721685e-15,0.0,0.0,0.0,0.0,-1111.702,-1111.702,0.0,38.0,0.0,0.0,0.0,0.0,0.0,25.0,108.0,0.0,5.7824115865893626e-21,2.25514051876985e-19,0.0,0.0,0.0,0.0,0.0,0.0,0.0,0.0,0.39,2.25514051876985e-19,0.0,0.0,0.0,0.0,0.0,0.0046583068847729,0.0,0.0,2.0816681711721685e-15,0.0,5.600000000000002,107.99946496873449,0.0,107.99946496873449,0.0
40,40,0.394658306884773,2.0,2.0,2.0,2.0,108.0,108.0,108.0,108.0,32827.0,32768.0,32848.0,32768.0,32969.0,32768.0,32768.0,32768.0,0.0,0.4095556014852335,0.4297778007426168,-0.0134814661715888,0.0,0.0,0.0,0.0,-0.3489999999999993,-0.3489999999999993,-0.3499999999999993,-0.3509999999999993,38.0,0.0,293.0,198.0,0.0,0.0,0.0,0.0,-1.9619999453425407,4.904999956488609,2.0816681711721685e-15,2.0816681711721685e-15,2.0816681711721685e-15,2.0816681711721685e-15,-3.4800000518560408,25.0,38.0,0.0,0.0,2.0816681711721685e-15,0.0,0.0,0.0,0.0,-1111.702,-1111.702,0.0,38.0,0.0,0.0,0.0,0.0,0.0,25.0,108.0,0.0,5.7824115865893626e-21,2.3129646346357432e-19,0.0,0.0,0.0,0.0,0.0,0.0,0.0,0.0,0.4,2.3129646346357432e-19,0.0,0.0,0.0,0.0,0.0,0.0046583068847729,0.0,0.0,2.0816681711721685e-15,0.0,5.600000000000002,107.99946496873449,0.0,107.99946496873449,0.0
41,41,0.404658306884773,2.0,2.0,2.0,2.0,108.0,108.0,108.0,108.0,32868.0,32768.0,32827.0,32768.0,32948.0,32768.0,32809.0,32768.0,0.0,0.3564319891566636,0.6371360216866728,-0.2807040325300092,0.0,0.0,0.0,0.0,-0.3489999999999993,-0.3489999999999993,-0.3499999999999993,-0.3509999999999993,38.0,0.0,293.0,198.0,0.0,0.0,0.0,0.0,-1.9619999453425407,4.904999956488609,2.0816681711721685e-15,2.0816681711721685e-15,2.0816681711721685e-15,2.0816681711721685e-15,0.0,25.0,38.0,0.0,0.0,2.0816681711721685e-15,0.0,0.0,0.0,0.0,-1111.702,-1111.702,0.0,38.0,0.0,0.0,0.0,0.0,0.0,25.0,108.0,0.0,5.7824115865893626e-21,2.3707887505016367e-19,0.0,0.0,0.0,0.0,0.0,0.0,0.0,0.0,0.41000000000000003,2.3707887505016367e-19,0.0,0.0,0.0,0.0,0.0,0.0046583068847729,0.0,0.0,2.0816681711721685e-15,0.0,5.600000000000002,107.99946496873449,0.0,107.99946496873449,0.0
42,42,0.4146583068847729,2.0,2.0,2.0,2.0,108.0,108.0,108.0,108.0,32807.0,32768.0,32869.0,32768.0,32969.0,32768.0,32768.0,32768.0,0.0,0.2561578061709355,0.462315612341871,0.1222898722307902,0.0,0.0,0.0,0.0,-0.3489999999999993,-0.3489999999999993,-0.3499999999999993,-0.3509999999999993,38.0,0.0,293.0,198.0,0.0,0.0,0.0,0.0,1.9619999453425407,7.847999781370163,2.0816681711721685e-15,2.0816681711721685e-15,2.0816681711721685e-15,2.0816681711721685e-15,-5.220000207424164,25.0,38.0,0.0,0.0,2.0816681711721685e-15,0.0,0.0,0.0,0.0,-1111.702,-1111.702,0.0,38.0,0.0,0.0,0.0,0.0,0.0,25.0,108.0,0.0,5.782411586589298e-21,2.4286128663675297e-19,0.0,0.0,0.0,0.0,0.0,0.0,0.0,0.0,0.41999999999999993,2.4286128663675297e-19,0.0,0.0,0.0,0.0,0.0,0.0046583068847729,0.0,0.0,2.0816681711721685e-15,0.0,5.600000000000002,107.99946496873449,0.0,107.99946496873449,0.0
43,43,0.4246583068847729,2.0,2.0,2.0,2.0,108.0,108.0,108.0,108.0,32868.0,32768.0,32869.0,32768.0,32990.0,32768.0,32827.0,32768.0,0.0,0.2967254540476176,0.0761963676190587,0.2901763621428529,0.0,0.0,0.0,0.0,-0.3489999999999993,-0.3489999999999993,-0.3499999999999993,-0.3509999999999993,38.0,0.0,293.0,198.0,0.0,0.0,0.0,0.0,-1.9619999453425407,4.904999956488609,2.0816681711721685e-15,2.0816681711721685e-15,2.0816681711721685e-15,2.0816681711721685e-15,2.610000103712082,25.0,38.0,0.0,0.0,2.0816681711721685e-15,0.0,0.0,0.0,0.0,-1111.702,-1111.702,0.0,38.0,0.0,0.0,0.0,0.0,0.0,25.0,108.0,0.0,5.7824115865893626e-21,2.486436982233423e-19,0.0,0.0,0.0,0.0,0.0,0.0,0.0,0.0,0.42999999999999994,2.486436982233423e-19,0.0,0.0,0.0,0.0,0.0,0.0046583068847729,0.0,0.0,2.0816681711721685e-15,0.0,5.600000000000002,107.99946496873449,0.0,107.99946496873449,0.0
44,44,0.4346583068847729,2.0,2.0,2.0,2.0,108.0,108.0,108.0,108.0,32848.0,32768.0,32827.0,32768.0,32989.0,32768.0,32788.0,32768.0,0.0,0.120441797406913,0.4988955064827173,-0.1040059558344456,0.0,0.0,0.0,0.0,-0.3489999999999993,-0.3489999999999993,-0.3499999999999993,-0.3509999999999993,38.0,0.0,293.0,198.0,0.0,0.0,0.0,0.0,-7.847999781370163,11.772000044584274,2.0816681711721685e-15,2.0816681711721685e-15,2.0816681711721685e-15,2.0816681711721685e-15,5.220000207424164,25.0,38.0,0.0,0.0,2.0816681711721685e-15,0.0,0.0,0.0,0.0,-1111.702,-1111.702,0.0,38.0,0.0,0.0,0.0,0.0,0.0,25.0,108.0,0.0,5.7824115865893626e-21,2.5442610980993166e-19,0.0,0.0,0.0,0.0,0.0,0.0,0.0,0.0,0.43999999999999995,2.5442610980993166e-19,0.0,0.0,0.0,0.0,0.0,0.0046583068847729,0.0,0.0,2.0816681711721685e-15,0.0,5.600000000000002,107.99946496873449,0.0,107.99946496873449,0.0
45,45,0.444658306884773,2.0,2.0,2.0,2.0,108.0,108.0,108.0,108.0,32868.0,32768.0,32848.0,32768.0,32990.0,32768.0,32768.0,32768.0,0.0,0.2861601359806374,0.3638398640193626,0.3154003399515935,0.0,0.0,0.0,0.0,-0.3489999999999993,-0.3489999999999993,-0.3499999999999993,-0.3509999999999993,38.0,0.0,293.0,198.0,0.0,0.0,0.0,0.0,-4.904999956488609,7.847999781370163,2.0816681711721685e-15,2.0816681711721685e-15,2.0816681711721685e-15,2.0816681711721685e-15,-2.610000103712082,25.0,38.0,0.0,0.0,2.0816681711721685e-15,0.0,0.0,0.0,0.0,-1111.702,-1111.702,0.0,38.0,0.0,0.0,0.0,0.0,0.0,25.0,108.0,0.0,5.782411586589394e-21,2.6020852139652105e-19,0.0,0.0,0.0,0.0,0.0,0.0,0.0,0.0,0.45,2.6020852139652105e-19,0.0,0.0,0.0,0.0,0.0,0.0046583068847729,0.0,0.0,2.0816681711721685e-15,0.0,5.600000000000002,107.99946496873449,0.0,107.99946496873449,0.0
46,46,0.454658306884773,2.0,2.0,2.0,2.0,108.0,108.0,108.0,108.0,32827.0,32768.0,32848.0,32768.0,32990.0,32768.0,32768.0,32768.0,0.0,0.206874599412371,0.4896881008814434,0.256874599412371,0.0,0.0,0.0,0.0,-0.3489999999999993,-0.3489999999999993,-0.3499999999999993,-0.3509999999999993,38.0,0.0,293.0,198.0,0.0,0.0,0.0,0.0,-1.9619999453425407,4.904999956488609,2.0816681711721685e-15,2.0816681711721685e-15,2.0816681711721685e-15,2.0816681711721685e-15,6.089999896287917,25.0,38.0,0.0,0.0,2.0816681711721685e-15,0.0,0.0,0.0,0.0,-1111.702,-1111.702,0.0,38.0,0.0,0.0,0.0,0.0,0.0,25.0,108.0,0.0,5.7824115865893626e-21,2.659909329831104e-19,0.0,0.0,0.0,0.0,0.0,0.0,0.0,0.0,0.46,2.659909329831104e-19,0.0,0.0,0.0,0.0,0.0,0.0046583068847729,0.0,0.0,2.0816681711721685e-15,0.0,5.600000000000002,107.99946496873449,0.0,107.99946496873449,0.0
47,47,0.464658306884773,2.0,2.0,2.0,2.0,108.0,108.0,108.0,108.0,32848.0,32768.0,32827.0,32768.0,32990.0,32768.0,32788.0,32768.0,0.0,0.0602227963292388,0.2204455926584778,0.1102227963292389,0.0,0.0,0.0,0.0,-0.3489999999999993,-0.3489999999999993,-0.3499999999999993,-0.3509999999999993,38.0,0.0,293.0,198.0,0.0,0.0,0.0,0.0,-1.9619999453425407,4.904999956488609,2.0816681711721685e-15,2.0816681711721685e-15,2.0816681711721685e-15,2.0816681711721685e-15,4.35,25.0,38.0,0.0,0.0,2.0816681711721685e-15,0.0,0.0,0.0,0.0,-1111.702,-1111.702,0.0,38.0,0.0,0.0,0.0,0.0,0.0,25.0,108.0,0.0,5.7824115865893626e-21,2.7177334456969975e-19,0.0,0.0,0.0,0.0,0.0,0.0,0.0,0.0,0.47000000000000003,2.7177334456969975e-19,0.0,0.0,0.0,0.0,0.0,0.0046583068847729,0.0,0.0,2.0816681711721685e-15,0.0,5.600000000000002,107.99946496873449,0.0,107.99946496873449,0.0
48,48,0.4746583068847729,2.0,2.0,2.0,2.0,108.0,108.0,108.0,108.0,32848.0,32768.0,32869.0,32768.0,32990.0,32768.0,32768.0,32768.0,0.0,0.2829108649432483,-0.0329108649432483,-0.2260752109205476,0.0,0.0,0.0,0.0,-0.3489999999999993,-0.3489999999999993,-0.3499999999999993,-0.3509999999999993,38.0,0.0,293.0,198.0,0.0,0.0,0.0,0.0,1.9619999453425407,7.847999781370163,2.0816681711721685e-15,2.0816681711721685e-15,2.0816681711721685e-15,2.0816681711721685e-15,1.7400000259280204,25.0,38.0,0.0,0.0,2.0816681711721685e-15,0.0,0.0,0.0,0.0,-1111.702,-1111.702,0.0,38.0,0.0,0.0,0.0,0.0,0.0,25.0,108.0,0.0,5.782411586589298e-21,2.7755575615628904e-19,0.0,0.0,0.0,0.0,0.0,0.0,0.0,0.0,0.4799999999999999,2.7755575615628904e-19,0.0,0.0,0.0,0.0,0.0,0.0046583068847729,0.0,0.0,2.0816681711721685e-15,0.0,5.600000000000002,107.99946496873449,0.0,107.99946496873449,0.0
49,49,0.4846583068847729,2.0,2.0,2.0,2.0,108.0,108.0,108.0,108.0,32827.0,32768.0,32848.0,32768.0,32909.0,32768.0,32768.0,32768.0,0.0,0.3896500538284123,-0.05,-0.1603499461715876,0.0,0.0,0.0,0.0,-0.3489999999999993,-0.3489999999999993,-0.3499999999999993,-0.3509999999999993,38.0,0.0,293.0,198.0,0.0,0.0,0.0,0.0,-4.904999956488609,7.847999781370163,2.0816681711721685e-15,2.0816681711721685e-15,2.0816681711721685e-15,2.0816681711721685e-15,-4.35,25.0,38.0,0.0,0.0,2.0816681711721685e-15,0.0,0.0,0.0,0.0,-1111.702,-1111.702,0.0,38.0,0.0,0.0,0.0,0.0,0.0,25.0,108.0,0.0,5.7824115865893626e-21,2.833381677428784e-19,0.0,0.0,0.0,0.0,0.0,0.0,0.0,0.0,0.48999999999999994,2.833381677428784e-19,0.0,0.0,0.0,0.0,0.0,0.0046583068847729,0.0,0.0,2.0816681711721685e-15,0.0,5.600000000000002,107.99946496873449,0.0,107.99946496873449,0.0
50,50,0.4946583068847729,2.0,2.0,2.0,2.0,108.0,108.0,108.0,108.0,32848.0,32768.0,32869.0,32768.0,32990.0,32768.0,32747.0,32768.0,0.0,0.0751301940412979,0.4140997227981458,0.0356398891192583,0.0,0.0,0.0,0.0,-0.3489999999999993,-0.3489999999999993,-0.3499999999999993,-0.3509999999999993,38.0,0.0,293.0,198.0,0.0,0.0,0.0,0.0,-4.904999956488609,4.904999956488609,2.0816681711721685e-15,2.0816681711721685e-15,2.0816681711721685e-15,2.0816681711721685e-15,-2.610000103712082,25.0,38.0,0.0,0.0,2.0816681711721685e-15,0.0,0.0,0.0,0.0,-1111.702,-1111.702,0.0,38.0,0.0,0.0,0.0,0.0,0.0,25.0,108.0,0.0,5.7824115865893626e-21,2.8912057932946774e-19,0.0,0.0,0.0,0.0,0.0,0.0,0.0,0.0,0.49999999999999994,2.8912057932946774e-19,0.0,0.0,0.0,0.0,0.0,0.0046583068847729,0.0,0.0,2.0816681711721685e-15,0.0,5.600000000000002,107.99946496873449,0.0,107.99946496873449,0.0
51,51,0.504658306884773,2.0,2.0,2.0,2.0,108.0,108.0,108.0,108.0,32848.0,32768.0,32869.0,32768.0,32990.0,32768.0,32726.0,32768.0,0.0,0.2361409920255137,0.3569295039872432,0.0965352480063784,0.0,0.0,0.0,0.0,-0.3489999999999993,-0.3489999999999993,-0.3499999999999993,-0.3509999999999993,38.0,0.0,293.0,198.0,0.0,0.0,0.0,0.0,1.9619999453425407,4.904999956488609,2.0816681711721685e-15,2.0816681711721685e-15,2.0816681711721685e-15,2.0816681711721685e-15,0.8700000129640102,25.0,38.0,0.0,0.0,2.0816681711721685e-15,0.0,0.0,0.0,0.0,-1111.702,-1111.702,0.0,38.0,0.0,0.0,0.0,0.0,0.0,25.0,108.0,0.0,5.782411586589394e-21,2.9490299091605713e-19,0.0,0.0,0.0,0.0,0.0,0.0,0.0,0.0,0.51,2.9490299091605713e-19,0.0,0.0,0.0,0.0,0.0,0.0046583068847729,0.0,0.0,2.0816681711721685e-15,0.0,5.600000000000002,107.99946496873449,0.0,107.99946496873449,0.0
52,52,0.514658306884773,2.0,2.0,2.0,2.0,108.0,108.0,108.0,108.0,32868.0,32768.0,32848.0,32768.0,32990.0,32768.0,32768.0,32768.0,0.0,0.0639707016875673,0.2104780262656755,0.3325366228905408,0.0,0.0,0.0,0.0,-0.3489999999999993,-0.3489999999999993,-0.3499999999999993,-0.3509999999999993,38.0,0.0,293.0,198.0,0.0,0.0,0.0,0.0,-1.9619999453425407,7.847999781370163,2.0816681711721685e-15,2.0816681711721685e-15,2.0816681711721685e-15,2.0816681711721685e-15,1.7400000259280204,25.0,38.0,0.0,0.0,2.0816681711721685e-15,0.0,0.0,0.0,0.0,-1111.702,-1111.702,0.0,38.0,0.0,0.0,0.0,0.0,0.0,25.0,108.0,0.0,5.7824115865893626e-21,3.006854025026465e-19,0.0,0.0,0.0,0.0,0.0,0.0,0.0,0.0,0.52,3.006854025026465e-19,0.0,0.0,0.0,0.0,0.0,0.0046583068847729,0.0,0.0,2.0816681711721685e-15,0.0,5.600000000000002,107.99946496873449,0.0,107.99946496873449,0.0
53,53,0.524658306884773,2.0,2.0,2.0,2.0,108.0,108.0,108.0,108.0,32827.0,32768.0,32869.0,32768.0,32990.0,32768.0,32768.0,32768.0,0.0,0.0966508669430061,0.3866034677720246,0.35,0.0,0.0,0.0,0.0,-0.3489999999999993,-0.3489999999999993,-0.3499999999999993,-0.3509999999999993,38.0,0.0,293.0,198.0,0.0,0.0,0.0,0.0,-7.847999781370163,7.847999781370163,2.0816681711721685e-15,2.0816681711721685e-15,2.0816681711721685e-15,2.0816681711721685e-15,6.089999896287917,25.0,38.0,0.0,0.0,2.0816681711721685e-15,0.0,0.0,0.0,0.0,-1111.702,-1111.702,0.0,38.0,0.0,0.0,0.0,0.0,0.0,25.0,108.0,0.0,5.7824115865893626e-21,3.064678140892358e-19,0.0,0.0,0.0,0.0,0.0,0.0,0.0,0.0,0.53,3.064678140892358e-19,0.0,0.0,0.0,0.0,0.0,0.0046583068847729,0.0,0.0,2.0816681711721685e-15,0.0,5.600000000000002,107.99946496873449,0.0,107.99946496873449,0.0
54,54,0.534658306884773,2.0,2.0,2.0,2.0,108.0,108.0,108.0,108.0,32827.0,32768.0,32869.0,32768.0,32969.0,32768.0,32768.0,32768.0,0.0,0.4070463314004371,0.0929536685995628,0.2184087151140983,0.0,0.0,0.0,0.0,-0.3489999999999993,-0.3489999999999993,-0.3499999999999993,-0.3509999999999993,38.0,0.0,293.0,198.0,0.0,0.0,0.0,0.0,-1.9619999453425407,4.904999956488609,2.0816681711721685e-15,2.0816681711721685e-15,2.0816681711721685e-15,2.0816681711721685e-15,6.089999896287917,25.0,38.0,0.0,0.0,2.0816681711721685e-15,0.0,0.0,0.0,0.0,-1111.702,-1111.702,0.0,38.0,0.0,0.0,0.0,0.0,0.0,25.0,108.0,0.0,5.7824115865893626e-21,3.1225022567582517e-19,0.0,0.0,0.0,0.0,0.0,0.0,0.0,0.0,0.54,3.1225022567582517e-19,0.0,0.0,0.0,0.0,0.0,0.0046583068847729,0.0,0.0,2.0816681711721685e-15,0.0,5.600000000000002,107.99946496873449,0.0,107.99946496873449,0.0
55,55,0.544658306884773,2.0,2.0,2.0,2.0,108.0,108.0,108.0,108.0,32827.0,32768.0,32869.0,32768.0,32990.0,32768.0,32788.0,32768.0,0.0,0.2180187307049338,0.05,-0.0783775231540794,0.0,0.0,0.0,0.0,-0.3489999999999993,-0.3489999999999993,-0.3499999999999993,-0.3509999999999993,38.0,0.0,293.0,198.0,0.0,0.0,0.0,0.0,-4.904999956488609,4.904999956488609,2.0816681711721685e-15,2.0816681711721685e-15,2.0816681711721685e-15,2.0816681711721685e-15,3.4800000518560408,25.0,38.0,0.0,0.0,2.0816681711721685e-15,0.0,0.0,0.0,0.0,-1111.702,-1111.702,0.0,38.0,0.0,0.0,0.0,0.0,0.0,25.0,108.0,0.0,5.7824115865893626e-21,3.180326372624145e-19,0.0,0.0,0.0,0.0,0.0,0.0,0.0,0.0,0.55,3.180326372624145e-19,0.0,0.0,0.0,0.0,0.0,0.0046583068847729,0.0,0.0,2.0816681711721685e-15,0.0,5.600000000000002,107.99946496873449,0.0,107.99946496873449,0.0
56,56,0.554658306884773,2.0,2.0,2.0,2.0,108.0,108.0,108.0,108.0,32827.0,32768.0,32848.0,32768.0,32969.0,32768.0,32788.0,32768.0,0.0,0.1076472016420033,0.1423527983579966,-0.0538236008210016,0.0,0.0,0.0,0.0,-0.3489999999999993,-0.3489999999999993,-0.3499999999999993,-0.3509999999999993,38.0,0.0,293.0,198.0,0.0,0.0,0.0,0.0,-1.9619999453425407,7.847999781370163,2.0816681711721685e-15,2.0816681711721685e-15,2.0816681711721685e-15,2.0816681711721685e-15,-1.7400000259280204,25.0,38.0,0.0,0.0,2.0816681711721685e-15,0.0,0.0,0.0,0.0,-1111.702,-1111.702,0.0,38.0,0.0,0.0,0.0,0.0,0.0,25.0,108.0,0.0,5.7824115865893626e-21,3.2381504884900386e-19,0.0,0.0,0.0,0.0,0.0,0.0,0.0,0.0,0.56,3.2381504884900386e-19,0.0,0.0,0.0,0.0,0.0,0.0046583068847729,0.0,0.0,2.0816681711721685e-15,0.0,5.600000000000002,107.99946496873449,0.0,107.99946496873449,0.0
57,57,0.564658306884773,2.0,2.0,2.0,2.0,108.0,108.0,108.0,108.0,32848.0,32768.0,32869.0,32768.0,32969.0,32768.0,32788.0,32768.0,0.0,0.3781213417406226,0.0572928860864591,-0.05,0.0,0.0,0.0,0.0,-0.3489999999999993,-0.3489999999999993,-0.3499999999999993,-0.3509999999999993,38.0,0.0,293.0,198.0,0.0,0.0,0.0,0.0,1.9619999453425407,7.847999781370163,2.0816681711721685e-15,2.0816681711721685e-15,2.0816681711721685e-15,2.0816681711721685e-15,-0.8700000129640102,25.0,38.0,0.0,0.0,2.0816681711721685e-15,0.0,0.0,0.0,0.0,-1111.702,-1111.702,0.0,38.0,0.0,0.0,0.0,0.0,0.0,25.0,108.0,0.0,5.7824115865893626e-21,3.295974604355932e-19,0.0,0.0,0.0,0.0,0.0,0.0,0.0,0.0,0.5700000000000001,3.295974604355932e-19,0.0,0.0,0.0,0.0,0.0,0.0046583068847729,0.0,0.0,2.0816681711721685e-15,0.0,5.600000000000002,107.99946496873449,0.0,107.99946496873449,0.0
58,58,0.5746583068847729,2.0,2.0,2.0,2.0,108.0,108.0,108.0,108.0,32827.0,32768.0,32869.0,32768.0,32990.0,32768.0,32768.0,32768.0,0.0,0.4,-0.3688079861590315,-0.0965342206843368,0.0,0.0,0.0,0.0,-0.3489999999999993,-0.3489999999999993,-0.3499999999999993,-0.3509999999999993,38.0,0.0,293.0,198.0,0.0,0.0,0.0,0.0,-1.9619999453425407,4.904999956488609,2.0816681711721685e-15,2.0816681711721685e-15,2.0816681711721685e-15,2.0816681711721685e-15,-0.8700000129640102,25.0,38.0,0.0,0.0,2.0816681711721685e-15,0.0,0.0,0.0,0.0,-1111.702,-1111.702,0.0,38.0,0.0,0.0,0.0,0.0,0.0,25.0,108.0,0.0,5.782411586589298e-21,3.353798720221825e-19,0.0,0.0,0.0,0.0,0.0,0.0,0.0,0.0,0.58,3.353798720221825e-19,0.0,0.0,0.0,0.0,0.0,0.0046583068847729,0.0,0.0,2.0816681711721685e-15,0.0,5.600000000000002,107.99946496873449,0.0,107.99946496873449,0.0
59,59,0.5846583068847729,2.0,2.0,2.0,2.0,108.0,108.0,108.0,108.0,32827.0,32768.0,32869.0,32768.0,32969.0,32768.0,32768.0,32768.0,0.0,0.5354959379747388,-0.4,-0.0548346873417537,0.0,0.0,0.0,0.0,-0.3489999999999993,-0.3489999999999993,-0.3499999999999993,-0.3509999999999993,38.0,0.0,293.0,198.0,0.0,0.0,0.0,0.0,1.9619999453425407,7.847999781370163,2.0816681711721685e-15,2.0816681711721685e-15,2.0816681711721685e-15,2.0816681711721685e-15,-1.7400000259280204,25.0,38.0,0.0,0.0,2.0816681711721685e-15,0.0,0.0,0.0,0.0,-1111.702,-1111.702,0.0,38.0,0.0,0.0,0.0,0.0,0.0,25.0,108.0,0.0,5.7824115865893626e-21,3.4116228360877185e-19,0.0,0.0,0.0,0.0,0.0,0.0,0.0,0.0,0.59,3.4116228360877185e-19,0.0,0.0,0.0,0.0,0.0,0.0046583068847729,0.0,0.0,2.0816681711721685e-15,0.0,5.600000000000002,107.99946496873449,0.0,107.99946496873449,0.0
60,60,0.594658306884773,2.0,2.0,2.0,2.0,108.0,108.0,108.0,108.0,32827.0,32768.0,32848.0,32768.0,32990.0,32768.0,32788.0,32768.0,0.0,0.0877988547461577,0.4781821759823005,0.0424402290507684,0.0,0.0,0.0,0.0,-0.3489999999999993,-0.3489999999999993,-0.3499999999999993,-0.3509999999999993,38.0,0.0,293.0,198.0,0.0,0.0,0.0,0.0,-1.9619999453425407,4.904999956488609,2.0816681711721685e-15,2.0816681711721685e-15,2.0816681711721685e-15,2.0816681711721685e-15,-0.8700000129640102,25.0,38.0,0.0,0.0,2.0816681711721685e-15,0.0,0.0,0.0,0.0,-1111.702,-1111.702,0.0,38.0,0.0,0.0,0.0,0.0,0.0,25.0,108.0,0.0,5.7824115865893626e-21,3.469446951953612e-19,0.0,0.0,0.0,0.0,0.0,0.0,0.0,0.0,0.6,3.469446951953612e-19,0.0,0.0,0.0,0.0,0.0,0.0046583068847729,0.0,0.0,2.0816681711721685e-15,0.0,5.600000000000002,107.99946496873449,0.0,107.99946496873449,0.0
61,61,0.604658306884773,2.0,2.0,2.0,2.0,108.0,108.0,108.0,108.0,32869.0,32768.0,32848.0,32768.0,32990.0,32768.0,32768.0,32768.0,0.0,-0.0927848700198393,-0.2115193067724765,0.2879747833663989,0.0,0.0,0.0,0.0,-0.3489999999999993,-0.3489999999999993,-0.3499999999999993,-0.3509999999999993,38.0,0.0,293.0,198.0,0.0,0.0,0.0,0.0,-4.904999956488609,4.904999956488609,2.0816681711721685e-15,2.0816681711721685e-15,2.0816681711721685e-15,2.0816681711721685e-15,0.8700000129640102,25.0,38.0,0.0,0.0,2.0816681711721685e-15,0.0,0.0,0.0,0.0,-1111.702,-1111.702,0.0,38.0,0.0,0.0,0.0,0.0,0.0,25.0,108.0,0.0,5.7824115865893626e-21,3.5272710678195054e-19,0.0,0.0,0.0,0.0,0.0,0.0,0.0,0.0,0.61,3.5272710678195054e-19,0.0,0.0,0.0,0.0,0.0,0.0046583068847729,0.0,0.0,2.0816681711721685e-15,0.0,5.600000000000002,107.99946496873449,0.0,107.99946496873449,0.0
62,62,0.614658306884773,2.0,2.0,2.0,2.0,108.0,108.0,108.0,108.0,32868.0,32768.0,32889.0,32768.0,32948.0,32768.0,32768.0,32768.0,0.0,-0.2429812963566818,-0.0593582715244241,0.3953208642377879,0.0,0.0,0.0,0.0,-0.3489999999999993,-0.3489999999999993,-0.3499999999999993,-0.3509999999999993,38.0,0.0,293.0,198.0,0.0,0.0,0.0,0.0,-1.9619999453425407,7.847999781370163,2.0816681711721685e-15,2.0816681711721685e-15,2.0816681711721685e-15,2.0816681711721685e-15,5.220000207424164,25.0,38.0,0.0,0.0,2.0816681711721685e-15,0.0,0.0,0.0,0.0,-1111.702,-1111.702,0.0,38.0,0.0,0.0,0.0,0.0,0.0,25.0,108.0,0.0,5.7824115865893626e-21,3.585095183685399e-19,0.0,0.0,0.0,0.0,0.0,0.0,0.0,0.0,0.62,3.585095183685399e-19,0.0,0.0,0.0,0.0,0.0,0.0046583068847729,0.0,0.0,2.0816681711721685e-15,0.0,5.600000000000002,107.99946496873449,0.0,107.99946496873449,0.0
63,63,0.624658306884773,2.0,2.0,2.0,2.0,108.0,108.0,108.0,108.0,32848.0,32768.0,32827.0,32768.0,32948.0,32768.0,32726.0,32768.0,0.0,0.0837970663177037,0.3314823615059472,0.161573524058783,0.0,0.0,0.0,0.0,-0.3489999999999993,-0.3489999999999993,-0.3499999999999993,-0.3509999999999993,38.0,0.0,293.0,198.0,0.0,0.0,0.0,0.0,-4.904999956488609,7.847999781370163,2.0816681711721685e-15,2.0816681711721685e-15,2.0816681711721685e-15,2.0816681711721685e-15,6.9600001037120816,25.0,38.0,0.0,0.0,2.0816681711721685e-15,0.0,0.0,0.0,0.0,-1111.702,-1111.702,0.0,38.0,0.0,0.0,0.0,0.0,0.0,25.0,108.0,0.0,5.7824115865893626e-21,3.6429192995512924e-19,0.0,0.0,0.0,0.0,0.0,0.0,0.0,0.0,0.63,3.6429192995512924e-19,0.0,0.0,0.0,0.0,0.0,0.0046583068847729,0.0,0.0,2.0816681711721685e-15,0.0,5.600000000000002,107.99946496873449,0.0,107.99946496873449,0.0
64,64,0.634658306884773,2.0,2.0,2.0,2.0,108.0,108.0,108.0,108.0,32848.0,32768.0,32848.0,32768.0,32969.0,32768.0,32768.0,32768.0,0.0,-0.0356684858474206,0.4856684858474206,-0.0308913144632274,0.0,0.0,0.0,0.0,-0.3489999999999993,-0.3489999999999993,-0.3499999999999993,-0.3509999999999993,38.0,0.0,293.0,198.0,0.0,0.0,0.0,0.0,-4.904999956488609,4.904999956488609,2.0816681711721685e-15,2.0816681711721685e-15,2.0816681711721685e-15,2.0816681711721685e-15,2.610000103712082,25.0,38.0,0.0,0.0,2.0816681711721685e-15,0.0,0.0,0.0,0.0,-1111.702,-1111.702,0.0,38.0,0.0,0.0,0.0,0.0,0.0,25.0,108.0,0.0,5.7824115865893626e-21,3.700743415417186e-19,0.0,0.0,0.0,0.0,0.0,0.0,0.0,0.0,0.64,3.700743415417186e-19,0.0,0.0,0.0,0.0,0.0,0.0046583068847729,0.0,0.0,2.0816681711721685e-15,0.0,5.600000000000002,107.99946496873449,0.0,107.99946496873449,0.0
65,65,0.644658306884773,2.0,2.0,2.0,2.0,108.0,108.0,108.0,108.0,32848.0,32768.0,32827.0,32768.0,32948.0,32768.0,32809.0,32768.0,0.0,-0.05,0.5,0.1401606816258613,0.0,0.0,0.0,0.0,-0.3489999999999993,-0.3489999999999993,-0.3499999999999993,-0.3509999999999993,38.0,0.0,293.0,198.0,0.0,0.0,0.0,0.0,-1.9619999453425407,7.847999781370163,2.0816681711721685e-15,2.0816681711721685e-15,2.0816681711721685e-15,2.0816681711721685e-15,-0.8700000129640102,25.0,38.0,0.0,0.0,2.0816681711721685e-15,0.0,0.0,0.0,0.0,-1111.702,-1111.702,0.0,38.0,0.0,0.0,0.0,0.0,0.0,25.0,108.0,0.0,5.7824115865893626e-21,3.7585675312830793e-19,0.0,0.0,0.0,0.0,0.0,0.0,0.0,0.0,0.65,3.7585675312830793e-19,0.0,0.0,0.0,0.0,0.0,0.0046583068847729,0.0,0.0,2.0816681711721685e-15,0.0,5.600000000000002,107.99946496873449,0.0,107.99946496873449,0.0
66,66,0.654658306884773,2.0,2.0,2.0,2.0,108.0,108.0,108.0,108.0,32848.0,32768.0,32869.0,32768.0,33010.0,32768.0,32788.0,32768.0,0.0,0.2280665702833811,0.2219334297166189,-0.035377713522254,0.0,0.0,0.0,0.0,-0.3489999999999993,-0.3489999999999993,-0.3499999999999993,-0.3509999999999993,38.0,0.0,293.0,198.0,0.0,0.0,0.0,0.0,1.9619999453425407,4.904999956488609,2.0816681711721685e-15,2.0816681711721685e-15,2.0816681711721685e-15,2.0816681711721685e-15,2.610000103712082,25.0,38.0,0.0,0.0,2.0816681711721685e-15,0.0,0.0,0.0,0.0,-1111.702,-1111.702,0.0,38.0,0.0,0.0,0.0,0.0,0.0,25.0,108.0,0.0,5.7824115865893626e-21,3.8163916471489727e-19,0.0,0.0,0.0,0.0,0.0,0.0,0.0,0.0,0.66,3.8163916471489727e-19,0.0,0.0,0.0,0.0,0.0,0.0046583068847729,0.0,0.0,2.0816681711721685e-15,0.0,5.600000000000002,107.99946496873449,0.0,107.99946496873449,0.0
67,67,0.664658306884773,2.0,2.0,2.0,2.0,108.0,108.0,108.0,108.0,32868.0,32768.0,32848.0,32768.0,32969.0,32768.0,32809.0,32768.0,0.0,0.25,0.1052739244689279,-0.2868151888276802,0.0,0.0,0.0,0.0,-0.3489999999999993,-0.3489999999999993,-0.3499999999999993,-0.3509999999999993,38.0,0.0,293.0,198.0,0.0,0.0,0.0,0.0,-1.9619999453425407,7.847999781370163,2.0816681711721685e-15,2.0816681711721685e-15,2.0816681711721685e-15,2.0816681711721685e-15,-0.8700000129640102,25.0,38.0,0.0,0.0,2.0816681711721685e-15,0.0,0.0,0.0,0.0,-1111.702,-1111.702,0.0,38.0,0.0,0.0,0.0,0.0,0.0,25.0,108.0,0.0,5.7824115865893626e-21,3.874215763014866e-19,0.0,0.0,0.0,0.0,0.0,0.0,0.0,0.0,0.67,3.874215763014866e-19,0.0,0.0,0.0,0.0,0.0,0.0046583068847729,0.0,0.0,2.0816681711721685e-15,0.0,5.600000000000002,107.99946496873449,0.0,107.99946496873449,0.0
68,68,0.674658306884773,2.0,2.0,2.0,2.0,108.0,108.0,108.0,108.0,32848.0,32768.0,32848.0,32768.0,32990.0,32768.0,32768.0,32768.0,0.0,0.2025829293205643,0.0051658586411287,-0.3474170706794356,0.0,0.0,0.0,0.0,-0.3489999999999993,-0.3489999999999993,-0.3499999999999993,-0.3509999999999993,38.0,0.0,293.0,198.0,0.0,0.0,0.0,0.0,-1.9619999453425407,1.9619999453425407,2.0816681711721685e-15,2.0816681711721685e-15,2.0816681711721685e-15,2.0816681711721685e-15,-5.220000207424164,25.0,38.0,0.0,0.0,2.0816681711721685e-15,0.0,0.0,0.0,0.0,-1111.702,-1111.702,0.0,38.0,0.0,0.0,0.0,0.0,0.0,25.0,108.0,0.0,5.7824115865893626e-21,3.9320398788807597e-19,0.0,0.0,0.0,0.0,0.0,0.0,0.0,0.0,0.68,3.9320398788807597e-19,0.0,0.0,0.0,0.0,0.0,0.0046583068847729,0.0,0.0,2.0816681711721685e-15,0.0,5.600000000000002,107.99946496873449,0.0,107.99946496873449,0.0
