,Unnamed: 0,currentTime,Agp_Pos_Sp_FL,Agp_Pos_Sp_FR,Agp_Pos_Sp_RL,Agp_Pos_Sp_RR,Disc_T_Est_FL,Disc_T_Est_FR,Disc_T_Est_RL,Disc_T_Est_RR,Motor_current_FL,Wheel_Decl_FL,Motor_current_FR,Wheel_Decl_FR,Motor_current_RL,Wheel_Decl_RL,Motor_current_RR,Wheel_Decl_RR,Vehicle_speed,Gyro_Rate_Pitch,IMU_Gyro_Rate_Roll,IMU_Gyro_Rate_Yaw,RealizedClampingForce_FL,RealizedClampingForce_FR,RealizedClampingForce_RL,RealizedClampingForce_RR,Piston_position_FL,Piston_position_FR,Piston_position_RL,Piston_position_RR,CF_FL,CF_FR,CF_RL,CF_RR,ESTIMATED_PRESSURE_FL,ESTIMATED_PRESSURE_FR,ESTIMATED_PRESSURE_RL,ESTIMATED_PRESSURE_RR,LATERAL_ACCELERATION,LONGITUDINAL_ACCELERATION,Wheel_Speed_FL,Wheel_Speed_FR,Wheel_Speed_RL,Wheel_Speed_RR,Yaw_rate,Ambiant_Temperature,Init_Disc_CF_FL,POS_MEASUREREV,TMC_filtered,Vitesse_Vehicule_Roues,Pressure_Speed_FL,Position_previous_FL,POS_MEASUREREV_square,POS_MEASUREREV_cube,Estimated_CF_FL,Estimated_CF_previous_FL,Pressure_Speed_previous_FL,CF_previous_FL,Deceleration_g,PosDiff,PreDiff,DecDiff,Lookup_Table,Temp_amb_C,Initial_temp_FL,RPM,Distance_Roues_instant,Distance_Roues,Brake_apply,Brake_release,Time_since_brake_apply,Miles_since_brake_apply,Time_since_brake_release,Miles_since_brake_release,BrakingTime_2,BrakingMiles_2,TimeSinceLastBrake_2,MilesSinceLastBrake_2,Change_Position,Change_pressure,BrakingForce_2,BrakingForce_ma_2,Start_braking_time,End_braking_time,BrakeStartSpeed,LastBrakStartSpeed,LastBrakEndtSpeed,LastDeceleration,conv_heat_trans_coef,temp_change_conv_FL,disc_heating_BTM_FL,temp_change_instant_BTM_1_FL,Pressure_Speed_time_FL
0,0,-0.0007189860598373,2.0,2.0,2.0,2.0,65.0,65.0,65.0,65.0,32847.0,28282.0,32827.0,28123.0,32990.0,28601.0,32788.0,28988.0,14.46082938162388,-2.402789036028574,1.3262931937571203,-0.5972109639714259,2.0,2.0,3.0,2.0,-0.2459999999999993,-0.2469999999999993,-0.2449999999999993,-0.2469999999999993,38.0,0.0,293.0,198.0,0.0,0.0,0.0,0.0,20.600999891757965,196.2000012397766,52.58000183105469,52.86000061035156,55.38999938964844,55.06499862670898,-6.9600001037120816,25.0,38.0,0.0,0.0,52.58000183105469,0.0,0.0,0.0,0.0,-1111.702,-1111.702,0.0,38.0,3.500366210937535,0.0,0.0,0.0,2.0,25.0,65.0,0.0,0.0,0.0,0.0,0.0,0.0,0.0,0.0,0.0,0.0,0.0,0.0,0.0,0.0,0.0,0.0,0.0,0.0,0.0,0.0,0.0,0.0,0.0,0.0,0.0,0.0,0.0,0.0
1,1,0.0092810139401626,2.0,2.0,2.0,2.0,65.0,65.0,65.0,65.0,32847.0,28309.0,32807.0,28115.0,32948.0,28453.0,32829.0,28858.0,14.475602970841583,-2.4962177367506686,0.5050430176657752,-0.4911747190848934,2.0,2.0,3.0,2.0,-0.2459999999999993,-0.2469999999999993,-0.2449999999999993,-0.2469999999999993,38.0,0.0,293.0,198.0,0.0,0.0,0.0,0.0,-21.581999957561493,183.447003364563,52.54499816894531,53.03499984741211,55.744998931884766,55.26499938964844,-10.440000414848328,25.0,38.0,0.0,0.0,52.54499816894531,0.0,0.0,0.0,0.0,-1111.702,-1111.702,0.0,38.0,2.9998779296875,0.0,0.0,-0.5004882812500351,2.0,25.0,65.0,0.0,0.000146006944444443,0.000146006944444443,0.0,0.0,0.0,0.0,0.0,0.0,0.0,0.0,0.0099999999999999,0.000146006944444443,0.0,0.0,0.0,0.0,0.0,0.0092810139401626,0.0,0.0,52.58000183105469,5665.329474780802,58.268122312914116,64.99731718397445,0.0,64.99731718397445,0.0
2,2,0.0192810139401626,2.0,2.0,2.0,2.0,65.0,65.0,65.0,65.0,32868.0,28374.0,32827.0,28127.0,32969.0,28407.0,32788.0,28703.0,14.493131280770228,-2.347012327867484,0.694024655734967,-0.1559753442650331,2.0,2.0,3.0,2.0,-0.2459999999999993,-0.2469999999999993,-0.2449999999999993,-0.2469999999999993,38.0,0.0,293.0,198.0,0.0,0.0,0.0,0.0,7.847999781370163,186.38999462127688,52.51499938964844,53.0,56.025001525878906,55.6150016784668,-8.7,25.0,38.0,0.0,0.0,52.51499938964844,0.0,0.0,0.0,0.0,-1111.702,-1111.702,0.0,38.0,-0.5001068115234376,0.0,0.0,-3.4999847412109375,2.0,25.0,65.0,0.0,0.00014591666327582465,0.00029192360772026764,0.0,0.0,0.0,0.0,0.0,0.0,0.0,0.0,0.0199999999999999,0.00029192360772026764,0.0,0.0,0.0,0.0,0.0,0.0092810139401626,0.0,0.0,52.58000183105469,0.0,58.2421730451752,64.99731837870624,0.0,64.99731837870624,0.0
3,3,0.0292810139401626,2.0,2.0,2.0,2.0,65.0,65.0,65.0,65.0,32848.0,28419.0,32827.0,28141.0,32990.0,28333.0,32747.0,28509.0,14.511729113506226,-2.148337320787141,0.3005542264042865,-0.5472288679785677,2.0,2.0,3.0,2.0,-0.2459999999999993,-0.2469999999999993,-0.2449999999999993,-0.2469999999999993,38.0,0.0,293.0,198.0,0.0,0.0,0.0,0.0,-14.714999496936798,219.74399089813232,52.52000045776367,52.98500061035156,55.665000915527344,55.95500183105469,-2.610000103712082,25.0,38.0,0.0,0.0,52.52000045776367,0.0,0.0,0.0,0.0,-1111.702,-1111.702,0.0,38.0,-12.500000000000002,0.0,0.0,-11.999893188476564,2.0,25.0,65.0,0.0,0.0001458819442325168,0.00043780555195278446,0.0,0.0,0.0,0.0,0.0,0.0,0.0,0.0,0.0299999999999999,0.00043780555195278446,0.0,0.0,0.0,0.0,0.0,0.0092810139401626,0.0,0.0,52.58000183105469,0.0,58.24649924951601,64.9973181795232,0.0,64.9973181795232,0.0
4,4,0.0392810139401626,2.0,2.0,2.0,2.0,65.0,65.0,65.0,65.0,32827.0,28434.0,32768.0,28136.0,32948.0,28286.0,32788.0,28330.0,14.529447891870426,-1.980643880812218,0.3487095920541479,-0.2935479602707393,2.0,2.0,3.0,2.0,-0.2459999999999993,-0.2469999999999993,-0.2449999999999993,-0.2469999999999993,38.0,0.0,293.0,198.0,0.0,0.0,0.0,0.0,-4.904999956488609,196.2000012397766,52.64500045776367,53.03499984741211,55.6349983215332,56.34999847412109,-9.570000207424163,25.0,38.0,0.0,0.0,52.64500045776367,0.0,0.0,0.0,0.0,-1111.702,-1111.702,0.0,38.0,-6.000137329101562,0.0,0.0,6.49986267089844,2.0,25.0,65.0,0.0,0.00014606250127156573,0.0005838680532243502,0.0,0.0,0.0,0.0,0.0,0.0,0.0,0.0,0.0399999999999999,0.0005838680532243502,0.0,0.0,0.0,0.0,0.0,0.0092810139401626,0.0,0.0,52.58000183105469,0.0,58.35460184405039,64.99731320236546,0.0,64.99731320236546,0.0
5,5,0.0492810139401626,2.0,2.0,2.0,2.0,65.0,65.0,65.0,65.0,32847.0,28462.0,32827.0,28145.0,32969.0,28220.0,32788.0,28202.0,14.548017002162382,-1.2549357262165444,0.2753213689172781,-0.051233931554136,2.0,2.0,3.0,2.0,-0.2459999999999993,-0.2469999999999993,-0.2449999999999993,-0.2469999999999993,38.0,0.0,293.0,198.0,0.0,0.0,0.0,0.0,-17.65799969434738,173.63699674606323,52.70500183105469,53.10499954223633,55.60499954223633,56.5,-5.220000207424164,25.0,38.0,0.0,0.0,52.70500183105469,0.0,0.0,0.0,0.0,-1111.702,-1111.702,0.0,38.0,-20.99990844726562,0.0,0.0,-14.999771118164059,2.0,25.0,65.0,0.0,0.00014631944762335885,0.0007301875008477091,0.0,0.0,0.0,0.0,0.0,0.0,0.0,0.0,0.0499999999999999,0.0007301875008477091,0.0,0.0,0.0,0.0,0.0,0.0092810139401626,0.0,0.0,52.58000183105469,0.0,58.406472213762534,64.99731081419901,0.0,64.99731081419901,0.0
6,6,0.0592810139401626,2.0,2.0,2.0,2.0,65.0,65.0,65.0,65.0,32827.0,28478.0,32827.0,28154.0,32990.0,28154.0,32768.0,28112.0,14.567574363605486,-1.4638690199036275,-0.7113473799211499,-0.1138690199036276,2.0,2.0,3.0,2.0,-0.2459999999999993,-0.2469999999999993,-0.2449999999999993,-0.2469999999999993,38.0,0.0,293.0,198.0,0.0,0.0,0.0,0.0,-31.39199912548065,193.2569980621338,52.915000915527344,53.130001068115234,55.709999084472656,56.3849983215332,-0.8700000129640102,25.0,38.0,0.0,0.0,52.915000915527344,0.0,0.0,0.0,0.0,-1111.702,-1111.702,0.0,38.0,15.999984741210934,0.0,0.0,36.999893188476555,2.0,25.0,65.0,0.0,0.00014669444825914175,0.0008768819491068509,0.0,0.0,0.0,0.0,0.0,0.0,0.0,0.0,0.0599999999999999,0.0008768819491068509,0.0,0.0,0.0,0.0,0.0,0.0092810139401626,0.0,0.0,52.58000183105469,0.0,58.58791139079175,64.99730246054938,0.0,64.99730246054938,0.0
7,7,0.0692810139401626,2.0,2.0,2.0,2.0,65.0,65.0,65.0,65.0,32807.0,28543.0,32807.0,28207.0,32948.0,28052.0,32788.0,28024.0,14.587047371710224,-2.000751613339294,-1.1582677467322386,-0.6432354799463503,2.0,2.0,3.0,2.0,-0.2459999999999993,-0.2469999999999993,-0.2449999999999993,-0.2469999999999993,38.0,0.0,293.0,198.0,0.0,0.0,0.0,0.0,4.904999956488609,196.2000012397766,52.755001068115234,53.15499877929688,55.81499862670898,56.21500015258789,-1.7400000259280204,25.0,38.0,0.0,0.0,52.755001068115234,0.0,0.0,0.0,0.0,-1111.702,-1111.702,0.0,38.0,17.00019836425782,0.0,0.0,1.0002136230468857,2.0,25.0,65.0,0.0,0.00014676389164394805,0.001023645840750799,0.0,0.0,0.0,0.0,0.0,0.0,0.0,0.0,0.0699999999999999,0.001023645840750799,0.0,0.0,0.0,0.0,0.0,0.0092810139401626,0.0,0.0,52.58000183105469,0.0,58.44968595012294,64.99730882459319,0.0,64.99730882459319,0.0
8,8,0.0792810139401626,2.0,2.0,2.0,2.0,65.0,65.0,65.0,65.0,32868.0,28601.0,32786.0,28234.0,32969.0,27949.0,32768.0,27946.0,14.60313909187695,-2.051088139162248,-1.7021762783244965,-0.2021762783244965,2.0,2.0,3.0,2.0,-0.2459999999999993,-0.2469999999999993,-0.2449999999999993,-0.2469999999999993,38.0,0.0,293.0,198.0,0.0,0.0,0.0,0.0,-14.714999496936798,200.12400150299072,52.584999084472656,52.970001220703125,56.119998931884766,56.20000076293945,-11.30999958515167,25.0,38.0,0.0,0.0,52.584999084472656,0.0,0.0,0.0,0.0,-1111.702,-1111.702,0.0,38.0,-52.500152587890575,0.0,0.0,-69.5003509521484,2.0,25.0,65.0,0.0,0.0001463055557674831,0.001169951396518282,0.0,0.0,0.0,0.0,0.0,0.0,0.0,0.0,0.07999999999999989,0.001169951396518282,0.0,0.0,0.0,0.0,0.0,0.0092810139401626,0.0,0.0,52.58000183105469,0.0,58.302718466634595,64.99731559113093,0.0,64.99731559113093,0.0
9,9,0.0892810139401626,2.0,2.0,2.0,2.0,65.0,65.0,65.0,65.0,32827.0,28529.0,32827.0,28254.0,32990.0,27871.0,32747.0,27891.0,14.616582599809668,-2.1461423965208803,-1.8884271895626408,-0.4102869426109856,2.0,2.0,3.0,2.0,-0.2459999999999993,-0.2469999999999993,-0.2449999999999993,-0.2469999999999993,38.0,0.0,293.0,198.0,0.0,0.0,0.0,0.0,-34.334999322891235,138.32099437713623,53.11000061035156,53.130001068115234,56.32500076293945,56.20000076293945,-3.4800000518560408,25.0,38.0,0.0,0.0,53.11000061035156,0.0,0.0,0.0,0.0,-1111.702,-1111.702,0.0,38.0,-47.00012207031252,0.0,0.0,5.500030517578054,2.0,25.0,65.0,0.0,0.000146798610687256,0.001316750007205538,0.0,0.0,0.0,0.0,0.0,0.0,0.0,0.0,0.0899999999999999,0.001316750007205538,0.0,0.0,0.0,0.0,0.0,0.0092810139401626,0.0,0.0,52.58000183105469,0.0,58.756249297249624,64.99729471009749,0.0,64.99729471009749,0.0
10,10,0.0992810139401626,2.0,2.0,2.0,2.0,65.0,65.0,65.0,65.0,32848.0,28437.0,32827.0,28249.0,32990.0,27763.0,32667.0,27838.0,14.633242541781351,-1.9850133964840528,-1.4362622801103817,-0.7900089309893686,2.0,2.0,3.0,2.0,-0.2459999999999993,-0.2469999999999993,-0.2449999999999993,-0.2469999999999993,38.0,0.0,293.0,198.0,0.0,0.0,0.0,0.0,-14.714999496936798,108.89099836349487,53.58000183105469,53.22499847412109,56.3650016784668,56.150001525878906,-6.9600001037120816,25.0,38.0,0.0,0.0,53.58000183105469,0.0,0.0,0.0,0.0,-1111.702,-1111.702,0.0,38.0,-25.999832153320327,0.0,0.0,21.000289916992195,2.0,25.0,65.0,0.0,0.00014818055894639747,0.0014649305661519356,0.0,0.0,0.0,0.0,0.0,0.0,0.0,0.0,0.0999999999999999,0.0014649305661519356,0.0,0.0,0.0,0.0,0.0,0.0092810139401626,0.0,0.0,52.58000183105469,0.0,59.1614310613681,64.99727605511484,0.0,64.99727605511484,0.0
11,11,0.1092810139401626,2.0,2.0,2.0,2.0,65.0,65.0,65.0,65.0,32847.0,28363.0,32827.0,28247.0,32969.0,27686.0,32829.0,27775.0,14.653708951547282,-1.385971108592985,-0.8706668634216954,-0.4,2.0,2.0,3.0,2.0,-0.2459999999999993,-0.2469999999999993,-0.2449999999999993,-0.2469999999999993,38.0,0.0,293.0,198.0,0.0,0.0,0.0,0.0,-37.27799952030182,160.8839988708496,53.84000015258789,53.43000030517578,56.584999084472656,56.185001373291016,-13.920000207424165,25.0,38.0,0.0,0.0,53.84000015258789,0.0,0.0,0.0,0.0,-1111.702,-1111.702,0.0,38.0,16.50009155273436,0.0,0.0,42.49992370605469,2.0,25.0,65.0,0.0,0.00014919444719950348,0.001614125013351439,0.0,0.0,0.0,0.0,0.0,0.0,0.0,0.0,0.10999999999999989,0.001614125013351439,0.0,0.0,0.0,0.0,0.0,0.0092810139401626,0.0,0.0,52.58000183105469,0.0,59.385236002898765,64.99726575091026,0.0,64.99726575091026,0.0
12,12,0.1192810139401626,2.0,2.0,2.0,2.0,65.0,65.0,65.0,65.0,32827.0,28355.0,32827.0,28233.0,32969.0,27643.0,32788.0,27697.0,14.67492202437947,-0.8469732698917192,0.2628636029601935,-0.4075668252707021,2.0,2.0,3.0,2.0,-0.2459999999999993,-0.2469999999999993,-0.2449999999999993,-0.2469999999999993,38.0,0.0,293.0,198.0,0.0,0.0,0.0,0.0,4.904999956488609,190.31399488449097,53.67499923706055,53.52000045776367,56.584999084472656,56.29499816894531,-6.9600001037120816,25.0,38.0,0.0,0.0,53.67499923706055,0.0,0.0,0.0,0.0,-1111.702,-1111.702,0.0,38.0,31.999969482421935,0.0,0.0,15.499877929687575,2.0,25.0,65.0,0.0,0.00014932638804117853,0.0017634514013926176,0.0,0.0,0.0,0.0,0.0,0.0,0.0,0.0,0.1199999999999999,0.0017634514013926176,0.0,0.0,0.0,0.0,0.0,0.0092810139401626,0.0,0.0,52.58000183105469,0.0,59.243231879651695,64.99727228892259,0.0,64.99727228892259,0.0
13,13,0.1292810139401626,2.0,2.0,2.0,2.0,65.0,65.0,65.0,65.0,32827.0,28405.0,32827.0,28266.0,32990.0,27553.0,32788.0,27658.0,14.695229548456492,-0.6539134677096979,1.0966455991059734,-0.8977637327373156,2.0,2.0,3.0,2.0,-0.2459999999999993,-0.2469999999999993,-0.2449999999999993,-0.2469999999999993,38.0,0.0,293.0,198.0,0.0,0.0,0.0,0.0,-17.65799969434738,196.2000012397766,53.35499954223633,53.57500076293945,56.43000030517578,56.46500015258789,-6.9600001037120816,25.0,38.0,0.0,0.0,53.35499954223633,0.0,0.0,0.0,0.0,-1111.702,-1111.702,0.0,38.0,13.4998321533203,0.0,0.0,-18.500137329101634,2.0,25.0,65.0,0.0,0.0001486527760823565,0.0019121041774749741,0.0,0.0,0.0,0.0,0.0,0.0,0.0,0.0,0.1299999999999999,0.0019121041774749741,0.0,0.0,0.0,0.0,0.0,0.0092810139401626,0.0,0.0,52.58000183105469,0.0,58.96755758574759,64.99728498124678,0.0,64.99728498124678,0.0
14,14,0.1392810139401626,2.0,2.0,2.0,2.0,65.0,65.0,65.0,65.0,32847.0,28464.0,32868.0,28308.0,32990.0,27457.0,32788.0,27657.0,14.711735766359398,-1.006432896332936,0.7884207866007152,-0.6948536829336512,2.0,2.0,3.0,2.0,-0.2459999999999993,-0.2469999999999993,-0.2449999999999993,-0.2469999999999993,38.0,0.0,293.0,198.0,0.0,0.0,0.0,0.0,-4.904999956488609,183.447003364563,53.220001220703125,53.35499954223633,56.59999847412109,56.415000915527344,-15.65999958515167,25.0,38.0,0.0,0.0,53.220001220703125,0.0,0.0,0.0,0.0,-1111.702,-1111.702,0.0,38.0,26.00021362304685,0.0,0.0,12.50038146972655,2.0,25.0,65.0,0.0,0.0001480208343929716,0.0020601250118679458,0.0,0.0,0.0,0.0,0.0,0.0,0.0,0.0,0.1399999999999999,0.0020601250118679458,0.0,0.0,0.0,0.0,0.0,0.0092810139401626,0.0,0.0,52.58000183105469,0.0,58.85114981516197,64.99729034077984,0.0,64.99729034077984,0.0
15,15,0.1492810139401626,2.0,2.0,2.0,2.0,65.0,65.0,65.0,65.0,32889.0,28550.0,32827.0,28284.0,32969.0,27361.0,32706.0,27625.0,14.726945550923276,-1.2448907454337257,0.3244537271686282,-0.515327763698823,2.0,2.0,3.0,2.0,-0.2459999999999993,-0.2469999999999993,-0.2449999999999993,-0.2469999999999993,38.0,0.0,293.0,198.0,0.0,0.0,0.0,0.0,-17.65799969434738,138.32099437713623,52.959999084472656,53.45500183105469,56.79999923706055,56.2400016784668,-12.179999792575837,25.0,38.0,0.0,0.0,52.959999084472656,0.0,0.0,0.0,0.0,-1111.702,-1111.702,0.0,38.0,-10.499954223632093,0.0,0.0,-36.50016784667894,2.0,25.0,65.0,0.0,0.00014747222264607763,0.002207597234514023,0.0,0.0,0.0,0.0,0.0,0.0,0.0,0.0,0.1499999999999999,0.002207597234514023,0.0,0.0,0.0,0.0,0.0,0.0092810139401626,0.0,0.0,52.58000183105469,0.0,58.62676917569118,64.9973006714965,0.0,64.9973006714965,0.0
16,16,0.1592810139401626,2.0,2.0,2.0,2.0,65.0,65.0,65.0,65.0,32847.0,28580.0,32827.0,28298.0,32948.0,27359.0,32768.0,27566.0,14.743407816791525,-1.0600745305842765,-0.6676304285224837,-1.078591622508413,2.0,2.0,3.0,2.0,-0.2459999999999993,-0.2469999999999993,-0.2449999999999993,-0.2469999999999993,38.0,0.0,293.0,198.0,0.0,0.0,0.0,0.0,-7.847999781370163,134.39699411392212,53.06499862670898,53.69499969482422,56.935001373291016,56.375,-8.7,25.0,38.0,0.0,0.0,53.06499862670898,0.0,0.0,0.0,0.0,-1111.702,-1111.702,0.0,38.0,-24.50027465820388,0.0,0.0,-14.000320434571789,2.0,25.0,65.0,0.0,0.0001472569412655302,0.002354854175779553,0.0,0.0,0.0,0.0,0.0,0.0,0.0,0.0,0.15999999999999992,0.002354854175779553,0.0,0.0,0.0,0.0,0.0,0.0092810139401626,0.0,0.0,52.58000183105469,0.0,58.71741240144513,64.99729649818835,0.0,64.99729649818835,0.0
17,17,0.1692810139401626,2.0,2.0,2.0,2.0,65.0,65.0,65.0,65.0,32827.0,28582.0,32848.0,28305.0,32969.0,27432.0,32788.0,27475.0,14.761914065494558,-1.4398739932405338,-1.3550630033797333,-0.2449369966202668,2.0,2.0,3.0,2.0,-0.2459999999999993,-0.2469999999999993,-0.2449999999999993,-0.2469999999999993,38.0,0.0,293.0,198.0,0.0,0.0,0.0,0.0,-4.904999956488609,151.0740041732788,53.310001373291016,53.720001220703125,56.56999969482422,56.630001068115234,-19.140000414848327,25.0,38.0,0.0,0.0,53.310001373291016,0.0,0.0,0.0,0.0,-1111.702,-1111.702,0.0,38.0,-17.499923706054673,0.0,0.0,7.000350952149208,2.0,25.0,65.0,0.0,0.00014774305555555526,0.0025025972313351087,0.0,0.0,0.0,0.0,0.0,0.0,0.0,0.0,0.1699999999999999,0.0025025972313351087,0.0,0.0,0.0,0.0,0.0,0.0092810139401626,0.0,0.0,52.58000183105469,0.0,58.928763299510415,64.9972867673754,0.0,64.9972867673754,0.0
18,18,0.1792810139401626,2.0,2.0,2.0,2.0,65.0,65.0,65.0,65.0,32868.0,28573.0,32827.0,28278.0,32969.0,27498.0,32809.0,27436.0,14.780206568021214,-1.0536534210947923,-1.5434238420293738,-0.0558454737516678,2.0,2.0,3.0,2.0,-0.2459999999999993,-0.2469999999999993,-0.2449999999999993,-0.2469999999999993,38.0,0.0,293.0,198.0,0.0,0.0,0.0,0.0,-21.581999957561493,170.69400548934937,53.48500061035156,53.79499816894531,56.10499954223633,56.92499923706055,-4.35,25.0,38.0,0.0,0.0,53.48500061035156,0.0,0.0,0.0,0.0,-1111.702,-1111.702,0.0,38.0,-14.99977111816405,0.0,0.0,2.5001525878906232,2.0,25.0,65.0,0.0,0.00014832639164394818,0.0026509236229790567,0.0,0.0,0.0,0.0,0.0,0.0,0.0,0.0,0.1799999999999999,0.0026509236229790567,0.0,0.0,0.0,0.0,0.0,0.0092810139401626,0.0,0.0,52.58000183105469,0.0,59.07959504289312,64.99727982292809,0.0,64.99727982292809,0.0
19,19,0.1892810139401626,2.0,2.0,2.0,2.0,65.0,65.0,65.0,65.0,32868.0,28574.0,32827.0,28310.0,32948.0,27561.0,32768.0,27430.0,14.79887815071308,-1.293603754725316,-1.098933959120886,-0.4542641635164562,2.0,2.0,3.0,2.0,-0.2459999999999993,-0.2469999999999993,-0.2449999999999993,-0.2469999999999993,38.0,0.0,293.0,198.0,0.0,0.0,0.0,0.0,-11.772000044584274,180.50400018692017,53.6349983215332,53.94499969482422,56.01499938964844,56.84999847412109,-0.8700000129640102,25.0,38.0,0.0,0.0,53.6349983215332,0.0,0.0,0.0,0.0,-1111.702,-1111.702,0.0,38.0,-4.500198364257821,0.0,0.0,10.499572753906229,2.0,25.0,65.0,0.0,0.00014877777629428455,0.0027997013992733413,0.0,0.0,0.0,0.0,0.0,0.0,0.0,0.0,0.18999999999999992,0.0027997013992733413,0.0,0.0,0.0,0.0,0.0,0.0092810139401626,0.0,0.0,52.58000183105469,0.0,59.20879158637811,64.99727387458842,0.0,64.99727387458842,0.0
20,20,0.1992810139401626,2.0,2.0,2.0,2.0,65.0,65.0,65.0,65.0,32868.0,28582.0,32827.0,28371.0,32948.0,27621.0,32788.0,27480.0,14.815465284550172,-1.013895970077158,-1.0057855497544967,-0.6525265400140288,2.0,2.0,3.0,2.0,-0.2459999999999993,-0.2469999999999993,-0.2449999999999993,-0.2469999999999993,38.0,0.0,293.0,198.0,0.0,0.0,0.0,0.0,-31.39199912548065,186.38999462127688,53.68000030517578,53.665000915527344,56.02999877929688,56.69499969482422,-7.829999792575835,25.0,38.0,0.0,0.0,53.68000030517578,0.0,0.0,0.0,0.0,-1111.702,-1111.702,0.0,38.0,2.9998779296874973,0.0,0.0,7.500076293945319,2.0,25.0,65.0,0.0,0.00014904860920376218,0.0029487500084771035,0.0,0.0,0.0,0.0,0.0,0.0,0.0,0.0,0.1999999999999999,0.0029487500084771035,0.0,0.0,0.0,0.0,0.0,0.0092810139401626,0.0,0.0,52.58000183105469,0.0,59.24753734022885,64.99727209069485,0.0,64.99727209069485,0.0
21,21,0.2092810139401626,2.0,2.0,2.0,2.0,65.0,65.0,65.0,65.0,32868.0,28599.0,32827.0,28432.0,32948.0,27644.0,32747.0,27542.0,14.829994874287916,-1.555061118329001,0.7189791937337539,-0.7563263979112512,2.0,2.0,3.0,2.0,-0.2459999999999993,-0.2469999999999993,-0.2449999999999993,-0.2469999999999993,38.0,0.0,293.0,198.0,0.0,0.0,0.0,0.0,10.790999978780746,163.82700204849243,53.650001525878906,53.64500045776367,56.10499954223633,56.400001525878906,-11.30999958515167,25.0,38.0,0.0,0.0,53.650001525878906,0.0,0.0,0.0,0.0,-1111.702,-1111.702,0.0,38.0,-8.499908447265618,0.0,0.0,-11.499786376953114,2.0,25.0,65.0,0.0,0.0001490694469875761,0.0030978194554646798,0.0,0.0,0.0,0.0,0.0,0.0,0.0,0.0,0.2099999999999999,0.0030978194554646798,0.0,0.0,0.0,0.0,0.0,0.0092810139401626,0.0,0.0,52.58000183105469,0.0,59.22170982169482,64.99727327981984,0.0,64.99727327981984,0.0
22,22,0.2192810139401626,2.0,2.0,2.0,2.0,65.0,65.0,65.0,65.0,32848.0,28629.0,32827.0,28408.0,32990.0,27678.0,32788.0,27596.0,14.842194194604438,-1.7544575387410788,1.461143846852697,-0.992199307203112,2.0,2.0,3.0,2.0,-0.2459999999999993,-0.2469999999999993,-0.2449999999999993,-0.2469999999999993,38.0,0.0,293.0,198.0,0.0,0.0,0.0,0.0,-4.904999956488609,144.20700073242188,53.73500061035156,53.60499954223633,56.35499954223633,56.2400016784668,-13.05,25.0,38.0,0.0,0.0,53.73500061035156,0.0,0.0,0.0,0.0,-1111.702,-1111.702,0.0,38.0,-17.49992370605472,0.0,0.0,-9.000015258789102,2.0,25.0,65.0,0.0,0.00014914583630032025,0.003246965291765,0.0,0.0,0.0,0.0,0.0,0.0,0.0,0.0,0.21999999999999992,0.003246965291765,0.0,0.0,0.0,0.0,0.0,0.0092810139401626,0.0,0.0,52.58000183105469,0.0,59.29488173464773,64.99726991091131,0.0,64.99726991091131,0.0
23,23,0.2292810139401626,2.0,2.0,2.0,2.0,65.0,65.0,65.0,65.0,32868.0,28584.0,32827.0,28380.0,32969.0,27583.0,32747.0,27626.0,14.853860119911529,-2.1507836435090817,2.44529813894551,-0.3039182175454084,2.0,2.0,3.0,2.0,-0.2459999999999993,-0.2469999999999993,-0.2449999999999993,-0.2469999999999993,38.0,0.0,293.0,198.0,0.0,0.0,0.0,0.0,-1.9619999453425407,118.70100498199464,53.90999984741211,54.1349983215332,56.375,56.25,-17.4,25.0,38.0,0.0,0.0,53.90999984741211,0.0,0.0,0.0,0.0,-1111.702,-1111.702,0.0,38.0,-8.000183105468743,0.0,0.0,9.499740600585977,2.0,25.0,65.0,0.0,0.00014950694508022704,0.003396472236845227,0.0,0.0,0.0,0.0,0.0,0.0,0.0,0.0,0.2299999999999999,0.003396472236845227,0.0,0.0,0.0,0.0,0.0,0.0092810139401626,0.0,0.0,52.58000183105469,0.0,59.44545064384757,64.99726297856807,0.0,64.99726297856807,0.0
24,24,0.2392810139401626,2.0,2.0,2.0,2.0,65.0,65.0,65.0,65.0,32868.0,28588.0,32827.0,28352.0,32990.0,27290.0,32788.0,27652.0,14.86428725817172,-2.1846577547951043,2.10141622351783,-0.5602281634699305,2.0,2.0,3.0,2.0,-0.2459999999999993,-0.2469999999999993,-0.2449999999999993,-0.2469999999999993,38.0,0.0,293.0,198.0,0.0,0.0,0.0,0.0,-34.334999322891235,131.45400285720825,53.9900016784668,54.27999877929688,57.060001373291016,56.400001525878906,-5.220000207424164,25.0,38.0,0.0,0.0,53.9900016784668,0.0,0.0,0.0,0.0,-1111.702,-1111.702,0.0,38.0,12.49999999999999,0.0,0.0,20.500183105468732,2.0,25.0,65.0,0.0,0.00014986111323038752,0.0035463333500756144,0.0,0.0,0.0,0.0,0.0,0.0,0.0,0.0,0.2399999999999999,0.0035463333500756144,0.0,0.0,0.0,0.0,0.0,0.0092810139401626,0.0,0.0,52.58000183105469,0.0,59.51424819283792,64.99725981106049,0.0,64.99725981106049,0.0
25,25,0.2492810139401626,2.0,2.0,2.0,2.0,65.0,65.0,65.0,65.0,32889.0,28592.0,32768.0,28331.0,32969.0,26923.0,32768.0,27639.0,14.87278476059133,-1.601160373621385,0.1803775827169052,-0.95,2.0,2.0,3.0,2.0,-0.2459999999999993,-0.2469999999999993,-0.2449999999999993,-0.2469999999999993,38.0,0.0,293.0,198.0,0.0,0.0,0.0,0.0,-11.772000044584274,121.6439962387085,53.8650016784668,54.34999847412109,58.45000076293945,56.525001525878906,-9.570000207424163,25.0,38.0,0.0,0.0,53.8650016784668,0.0,0.0,0.0,0.0,-1111.702,-1111.702,0.0,38.0,0.0,0.0,0.0,-12.49999999999999,2.0,25.0,65.0,0.0,0.000149798615773519,0.0036961319658491334,0.0,0.0,0.0,0.0,0.0,0.0,0.0,0.0,0.24999999999999992,0.0036961319658491334,0.0,0.0,0.0,0.0,0.0,0.0092810139401626,0.0,0.0,52.58000183105469,0.0,59.406744614230114,64.9972647606323,0.0,64.9972647606323,0.0
26,26,0.2592810139401627,2.0,2.0,2.0,2.0,65.0,65.0,65.0,65.0,32847.0,28616.0,32827.0,28336.0,32969.0,26749.0,32768.0,27622.0,14.885440737782378,-1.6399610422043966,-2.7889009614579634,-0.9663133064178556,2.0,2.0,3.0,2.0,-0.2459999999999993,-0.2469999999999993,-0.2449999999999993,-0.2469999999999993,38.0,0.0,293.0,198.0,0.0,0.0,0.0,0.0,-11.772000044584274,102.02399492263794,53.8650016784668,54.345001220703125,59.46500015258789,56.79499816894531,-16.529999792575836,25.0,38.0,0.0,0.0,53.8650016784668,0.0,0.0,0.0,0.0,-1111.702,-1111.702,0.0,38.0,-27.999877929687475,0.0,0.0,-27.999877929687475,2.0,25.0,65.0,0.0,0.00014962500466240874,0.0038457569705115423,0.0,0.0,0.0,0.0,0.0,0.0,0.0,0.0,0.26,0.0038457569705115423,0.0,0.0,0.0,0.0,0.0,0.0092810139401626,0.0,0.0,52.58000183105469,0.0,59.406744614230114,64.9972647606323,0.0,64.9972647606323,0.0
27,27,0.2692810139401627,2.0,2.0,2.0,2.0,65.0,65.0,65.0,65.0,32827.0,28590.0,32807.0,28352.0,32948.0,27111.0,32747.0,27615.0,14.903604524653542,-1.25,-4.295781037053893,-1.5947262963173672,2.0,2.0,3.0,2.0,-0.2459999999999993,-0.2469999999999993,-0.2449999999999993,-0.2469999999999993,38.0,0.0,293.0,198.0,0.0,0.0,0.0,0.0,-21.581999957561493,151.0740041732788,54.14500045776367,54.310001373291016,59.02999877929688,56.96500015258789,-16.529999792575836,25.0,38.0,0.0,0.0,54.14500045776367,0.0,0.0,0.0,0.0,-1111.702,-1111.702,0.0,38.0,8.499908447265618,0.0,0.0,36.4997863769531,2.0,25.0,65.0,0.0,0.0001500138918558758,0.003995770862367418,0.0,0.0,0.0,0.0,0.0,0.0,0.0,0.0,0.27,0.003995770862367418,0.0,0.0,0.0,0.0,0.0,0.0092810139401626,0.0,0.0,52.58000183105469,0.0,59.64747557086072,64.9972536771402,0.0,64.9972536771402,0.0
28,28,0.2792810139401627,2.0,2.0,2.0,2.0,65.0,65.0,65.0,65.0,32847.0,28603.0,32827.0,28379.0,32990.0,27459.0,32768.0,27676.0,14.925124248164908,-1.2421136592808064,-3.8723978074828223,-1.091325025208887,2.0,2.0,3.0,2.0,-0.2459999999999993,-0.2469999999999993,-0.2449999999999993,-0.2469999999999993,38.0,0.0,293.0,198.0,0.0,0.0,0.0,0.0,-27.46799886226654,219.74399089813232,54.060001373291016,54.20000076293945,56.27999877929688,57.0099983215332,-27.84000041484833,25.0,38.0,0.0,0.0,54.060001373291016,0.0,0.0,0.0,0.0,-1111.702,-1111.702,0.0,38.0,-5.999755859375061,0.0,0.0,-14.499664306640678,2.0,25.0,65.0,0.0,0.00015028472476535387,0.004146055587132772,0.0,0.0,0.0,0.0,0.0,0.0,0.0,0.0,0.28,0.004146055587132772,0.0,0.0,0.0,0.0,0.0,0.0092810139401626,0.0,0.0,52.58000183105469,0.0,59.57442601270535,64.99725704041401,0.0,64.99725704041401,0.0
29,29,0.2892810139401626,2.0,2.0,2.0,2.0,65.0,65.0,65.0,65.0,32868.0,28574.0,32827.0,28403.0,32969.0,27681.0,32768.0,27740.0,14.934902174792066,-0.7435692878199348,-2.110129584483596,-0.5525722848720261,2.0,2.0,3.0,2.0,-0.2459999999999993,-0.2469999999999993,-0.2449999999999993,-0.2469999999999993,38.0,0.0,293.0,198.0,0.0,0.0,0.0,0.0,-47.0880001783371,248.1930017471313,54.119998931884766,54.20000076293945,55.130001068115234,56.755001068115234,-19.140000414848327,25.0,38.0,0.0,0.0,54.119998931884766,0.0,0.0,0.0,0.0,-1111.702,-1111.702,0.0,38.0,-18.500137329101545,0.0,0.0,-12.500381469726484,2.0,25.0,65.0,0.0,0.00015025000042385373,0.004296305587556626,0.0,0.0,0.0,0.0,0.0,0.0,0.0,0.0,0.2899999999999999,0.004296305587556626,0.0,0.0,0.0,0.0,0.0,0.0092810139401626,0.0,0.0,52.58000183105469,0.0,59.62599148464224,64.99725466628871,0.0,64.99725466628871,0.0
30,30,0.2992810139401626,2.0,2.0,2.0,2.0,65.0,65.0,65.0,65.0,32827.0,28555.0,32807.0,28402.0,32969.0,27667.0,32788.0,27844.0,14.936165024094782,-0.5152239181757514,-0.5720894833444558,-0.6690298977196892,2.0,2.0,3.0,2.0,-0.2459999999999993,-0.2469999999999993,-0.2449999999999993,-0.2469999999999993,38.0,0.0,293.0,198.0,0.0,0.0,0.0,0.0,-37.27799952030182,108.89099836349487,54.30500030517578,54.34999847412109,55.25,56.630001068115234,-9.570000207424163,25.0,38.0,0.0,0.0,54.30500030517578,0.0,0.0,0.0,0.0,-1111.702,-1111.702,0.0,38.0,1.4999389648437487,0.0,0.0,20.000076293945295,2.0,25.0,65.0,0.0,0.00015059027671813978,0.004446895864274766,0.0,0.0,0.0,0.0,0.0,0.0,0.0,0.0,0.29999999999999993,0.004446895864274766,0.0,0.0,0.0,0.0,0.0,0.0092810139401626,0.0,0.0,52.58000183105469,0.0,59.784913579909485,64.99724734935926,0.0,64.99724734935926,0.0
31,31,0.3092810139401626,2.0,2.0,2.0,2.0,65.0,65.0,65.0,65.0,32889.0,28565.0,32848.0,28374.0,32969.0,27475.0,32768.0,27835.0,14.939706975422713,-1.106472613085139,0.5297740201916387,-1.3922328642978334,2.0,2.0,3.0,2.0,-0.2459999999999993,-0.2469999999999993,-0.2449999999999993,-0.2469999999999993,38.0,0.0,293.0,198.0,0.0,0.0,0.0,0.0,-4.904999956488609,37.27799952030182,54.290000915527344,54.33000183105469,56.4900016784668,56.42499923706055,-11.30999958515167,25.0,38.0,0.0,0.0,54.290000915527344,0.0,0.0,0.0,0.0,-1111.702,-1111.702,0.0,38.0,-7.5000762939452645,0.0,0.0,-9.000015258789013,2.0,25.0,65.0,0.0,0.00015082639058431005,0.004597722254859076,0.0,0.0,0.0,0.0,0.0,0.0,0.0,0.0,0.30999999999999994,0.004597722254859076,0.0,0.0,0.0,0.0,0.0,0.0092810139401626,0.0,0.0,52.58000183105469,0.0,59.77203306657514,64.99724794239071,0.0,64.99724794239071,0.0
32,32,0.3192810139401627,2.0,2.0,2.0,2.0,65.0,65.0,65.0,65.0,32868.0,28572.0,32827.0,28406.0,32969.0,27273.0,32788.0,27808.0,14.950522513783987,-1.3393400784695086,1.6431471933018271,-1.0939086162682907,2.0,2.0,3.0,2.0,-0.2459999999999993,-0.2469999999999993,-0.2449999999999993,-0.2469999999999993,38.0,0.0,293.0,198.0,0.0,0.0,0.0,0.0,17.65799969434738,79.46100234985352,54.3650016784668,54.744998931884766,57.91999816894531,56.89500045776367,-24.35999958515167,25.0,38.0,0.0,0.0,54.3650016784668,0.0,0.0,0.0,0.0,-1111.702,-1111.702,0.0,38.0,25.500106811523416,0.0,0.0,33.00018310546868,2.0,25.0,65.0,0.0,0.00015090972582499284,0.004748631980684068,0.0,0.0,0.0,0.0,0.0,0.0,0.0,0.0,0.32,0.004748631980684068,0.0,0.0,0.0,0.0,0.0,0.0092810139401626,0.0,0.0,52.58000183105469,0.0,59.83643108414532,64.99724497744302,0.0,64.99724497744302,0.0
33,33,0.3292810139401627,2.0,2.0,2.0,2.0,65.0,65.0,65.0,65.0,32827.0,28661.0,32827.0,28450.0,32969.0,27107.0,32747.0,27842.0,14.96846977026256,-0.653947287271007,1.1915415272764134,-0.6977444072737103,2.0,2.0,3.0,2.0,-0.2459999999999993,-0.2469999999999993,-0.2449999999999993,-0.2469999999999993,38.0,0.0,293.0,198.0,0.0,0.0,0.0,0.0,7.847999781370163,151.0740041732788,54.11000061035156,54.470001220703125,58.6150016784668,57.22999954223633,-19.140000414848327,25.0,38.0,0.0,0.0,54.11000061035156,0.0,0.0,0.0,0.0,-1111.702,-1111.702,0.0,38.0,27.5001525878906,0.0,0.0,2.000045776367184,2.0,25.0,65.0,0.0,0.00015065972540113676,0.004899291706085205,0.0,0.0,0.0,0.0,0.0,0.0,0.0,0.0,0.33,0.004899291706085205,0.0,0.0,0.0,0.0,0.0,0.0092810139401626,0.0,0.0,52.58000183105469,0.0,59.61739920580626,64.99725506188571,0.0,64.99725506188571,0.0
34,34,0.3392810139401627,2.0,2.0,2.0,2.0,65.0,65.0,65.0,65.0,32827.0,28736.0,32908.0,28518.0,32948.0,27152.0,32809.0,27894.0,14.986020352558524,-1.0012914677842812,0.41900477317725,-0.5064573389214062,2.0,2.0,3.0,2.0,-0.2459999999999993,-0.2469999999999993,-0.2449999999999993,-0.2469999999999993,38.0,0.0,293.0,198.0,0.0,0.0,0.0,0.0,-31.39199912548065,215.8200025558472,53.834999084472656,54.334999084472656,58.79499816894531,57.11000061035156,-12.179999792575837,25.0,38.0,0.0,0.0,53.834999084472656,0.0,0.0,0.0,0.0,-1111.702,-1111.702,0.0,38.0,-14.500045776367175,0.0,0.0,-42.00019836425778,2.0,25.0,65.0,0.0,0.000149923610687256,0.005049215316772461,0.0,0.0,0.0,0.0,0.0,0.0,0.0,0.0,0.34,0.005049215316772461,0.0,0.0,0.0,0.0,0.0,0.0092810139401626,0.0,0.0,52.58000183105469,0.0,59.3809333605809,64.99726594900821,0.0,64.99726594900821,0.0
35,35,0.3492810139401627,2.0,2.0,2.0,2.0,65.0,65.0,65.0,65.0,32827.0,28758.0,32807.0,28552.0,32969.0,27266.0,32788.0,27959.0,14.996941206872169,-1.0152282535594437,-0.8053772258127379,-0.75,2.0,2.0,3.0,2.0,-0.2459999999999993,-0.2469999999999993,-0.2449999999999993,-0.2469999999999993,38.0,0.0,293.0,198.0,0.0,0.0,0.0,0.0,-21.581999957561493,186.38999462127688,53.97999954223633,54.23500061035156,57.89500045776367,56.97999954223633,-8.7,25.0,38.0,0.0,0.0,53.97999954223633,0.0,0.0,0.0,0.0,-1111.702,-1111.702,0.0,38.0,-27.500152587890906,0.0,0.0,-13.00010681152373,2.0,25.0,65.0,0.0,0.00014974305364820706,0.005198958370420668,0.0,0.0,0.0,0.0,0.0,0.0,0.0,0.0,0.35000000000000003,0.005198958370420668,0.0,0.0,0.0,0.0,0.0,0.0092810139401626,0.0,0.0,52.58000183105469,0.0,59.505648086330694,64.99726020701794,0.0,64.99726020701794,0.0
36,36,0.3592810139401626,2.0,2.0,2.0,2.0,65.0,65.0,65.0,65.0,32868.0,28751.0,32827.0,28527.0,32990.0,27458.0,32768.0,27998.0,15.006706802463144,0.3129598105967484,-2.89222411364195,-0.7435200947016257,2.0,2.0,3.0,2.0,-0.2459999999999993,-0.2469999999999993,-0.2449999999999993,-0.2469999999999993,38.0,0.0,293.0,198.0,0.0,0.0,0.0,0.0,-4.904999956488609,121.6439962387085,54.255001068115234,54.56999969482422,57.17499923706055,56.89500045776367,-13.05,25.0,38.0,0.0,0.0,54.255001068115234,0.0,0.0,0.0,0.0,-1111.702,-1111.702,0.0,38.0,-39.50004577636715,0.0,0.0,-11.999893188476246,2.0,25.0,65.0,0.0,0.00015032638973659786,0.005349284760157266,0.0,0.0,0.0,0.0,0.0,0.0,0.0,0.0,0.35999999999999993,0.005349284760157266,0.0,0.0,0.0,0.0,0.0,0.0092810139401626,0.0,0.0,52.58000183105469,0.0,59.74197439815137,64.99724932632125,0.0,64.99724932632125,0.0
37,37,0.3692810139401626,2.0,2.0,2.0,2.0,65.0,65.0,65.0,65.0,32829.0,28712.0,32807.0,28528.0,32948.0,27687.0,32808.0,27919.0,15.0204657353956,0.7786955137097867,-2.5727776008513943,-0.5035507477150356,2.0,2.0,3.0,2.0,-0.2459999999999993,-0.2469999999999993,-0.2449999999999993,-0.2469999999999993,38.0,0.0,293.0,198.0,0.0,0.0,0.0,0.0,-37.27799952030182,121.6439962387085,54.650001525878906,54.755001068115234,56.595001220703125,57.02999877929688,-13.05,25.0,38.0,0.0,0.0,54.650001525878906,0.0,0.0,0.0,0.0,-1111.702,-1111.702,0.0,38.0,-2.4997711181640603,0.0,0.0,37.00027465820309,2.0,25.0,65.0,0.0,0.00015125694804721422,0.005500541708204481,0.0,0.0,0.0,0.0,0.0,0.0,0.0,0.0,0.36999999999999994,0.005500541708204481,0.0,0.0,0.0,0.0,0.0,0.0092810139401626,0.0,0.0,52.58000183105469,0.0,60.08096298735869,64.99723371895716,0.0,64.99723371895716,0.0
38,38,0.3792810139401626,2.0,2.0,2.0,2.0,65.0,65.0,65.0,65.0,32827.0,28704.0,32827.0,28547.0,32990.0,27824.0,32747.0,27840.0,15.035830035445402,-0.1,-1.4345957955847854,-0.6484064616122192,2.0,2.0,3.0,2.0,-0.2459999999999993,-0.2469999999999993,-0.2449999999999993,-0.2469999999999993,38.0,0.0,293.0,198.0,0.0,0.0,0.0,0.0,-21.581999957561493,170.69400548934937,54.67499923706055,54.77000045776367,56.22999954223633,57.66999816894531,-8.7,25.0,38.0,0.0,0.0,54.67499923706055,0.0,0.0,0.0,0.0,-1111.702,-1111.702,0.0,38.0,-20.50018310546862,0.0,0.0,-18.00041198730456,2.0,25.0,65.0,0.0,0.00015184027883741606,0.005652381987041897,0.0,0.0,0.0,0.0,0.0,0.0,0.0,0.0,0.37999999999999995,0.005652381987041897,0.0,0.0,0.0,0.0,0.0,0.0092810139401626,0.0,0.0,52.58000183105469,0.0,60.102397800752314,64.99723273207772,0.0,64.99723273207772,0.0
39,39,0.3892810139401627,2.0,2.0,2.0,2.0,65.0,65.0,65.0,65.0,32827.0,28659.0,32827.0,28566.0,32969.0,27933.0,32788.0,27826.0,15.051387229849292,-0.0872693604583351,0.0625923110798524,-0.5,2.0,2.0,3.0,2.0,-0.2459999999999993,-0.2469999999999993,-0.2449999999999993,-0.2469999999999993,38.0,0.0,293.0,198.0,0.0,0.0,0.0,0.0,4.904999956488609,157.9409956932068,54.880001068115234,54.78499984741211,56.47499847412109,58.01499938964844,-11.30999958515167,25.0,38.0,0.0,0.0,54.880001068115234,0.0,0.0,0.0,0.0,-1111.702,-1111.702,0.0,38.0,15.999984741210923,0.0,0.0,36.500167846679545,2.0,25.0,65.0,0.0,0.00015215972264607847,0.005804541709687975,0.0,0.0,0.0,0.0,0.0,0.0,0.0,0.0,0.39,0.005804541709687975,0.0,0.0,0.0,0.0,0.0,0.0092810139401626,0.0,0.0,52.58000183105469,0.0,60.278099705967136,64.99722464259384,0.0,64.99722464259384,0.0
40,40,0.3992810139401627,2.0,2.0,2.0,2.0,65.0,65.0,65.0,65.0,32827.0,28690.0,32827.0,28562.0,32990.0,28011.0,32747.0,28009.0,15.06667527614454,0.511370685126822,2.9853754648390023,-0.4924195432487853,2.0,2.0,3.0,2.0,-0.2459999999999993,-0.2469999999999993,-0.2449999999999993,-0.2469999999999993,38.0,0.0,293.0,198.0,0.0,0.0,0.0,0.0,-27.46799886226654,157.9409956932068,54.720001220703125,54.775001525878906,56.75,57.86000061035156,-8.7,25.0,38.0,0.0,0.0,54.720001220703125,0.0,0.0,0.0,0.0,-1111.702,-1111.702,0.0,38.0,-6.499862670898432,0.0,0.0,-22.499847412109354,2.0,25.0,65.0,0.0,0.00015222222540113675,0.0059567639350891115,0.0,0.0,0.0,0.0,0.0,0.0,0.0,0.0,0.4,0.0059567639350891115,0.0,0.0,0.0,0.0,0.0,0.0092810139401626,0.0,0.0,52.58000183105469,0.0,60.14098026513548,64.997230955704,0.0,64.997230955704,0.0
41,41,0.4092810139401627,2.0,2.0,2.0,2.0,65.0,65.0,65.0,65.0,32847.0,28689.0,32827.0,28553.0,32969.0,27935.0,32768.0,28253.0,15.082652331842048,0.9256928584792976,4.355117292951728,-0.2076759394275902,2.0,2.0,3.0,2.0,-0.2459999999999993,-0.2469999999999993,-0.2449999999999993,-0.2469999999999993,38.0,0.0,293.0,198.0,0.0,0.0,0.0,0.0,1.9619999453425407,148.131000995636,54.78499984741211,54.9900016784668,57.040000915527344,56.875,-8.7,25.0,38.0,0.0,0.0,54.78499984741211,0.0,0.0,0.0,0.0,-1111.702,-1111.702,0.0,38.0,-1.4999389648437653,0.0,0.0,4.999923706054667,2.0,25.0,65.0,0.0,0.0001520902792612713,0.006108854214350382,0.0,0.0,0.0,0.0,0.0,0.0,0.0,0.0,0.41000000000000003,0.006108854214350382,0.0,0.0,0.0,0.0,0.0,0.0092810139401626,0.0,0.0,52.58000183105469,0.0,60.196694537833885,64.9972283905655,0.0,64.9972283905655,0.0
42,42,0.4192810139401626,2.0,2.0,2.0,2.0,65.0,65.0,65.0,65.0,32848.0,28705.0,32786.0,28528.0,32990.0,27815.0,32768.0,28482.0,15.096714624473565,0.0138847052488136,4.537226071171092,-0.5055538820995255,2.0,2.0,3.0,2.0,-0.2459999999999993,-0.2469999999999993,-0.2449999999999993,-0.2469999999999993,38.0,0.0,293.0,198.0,0.0,0.0,0.0,0.0,-27.46799886226654,163.82700204849243,54.79999923706055,55.09000015258789,57.935001373291016,56.1349983215332,-3.4800000518560408,25.0,38.0,0.0,0.0,54.79999923706055,0.0,0.0,0.0,0.0,-1111.702,-1111.702,0.0,38.0,-4.500198364257808,0.0,0.0,-3.000259399414043,2.0,25.0,65.0,0.0,0.0001522013876173216,0.006261055601967704,0.0,0.0,0.0,0.0,0.0,0.0,0.0,0.0,0.41999999999999993,0.006261055601967704,0.0,0.0,0.0,0.0,0.0,0.0092810139401626,0.0,0.0,52.58000183105469,0.0,60.20954936054244,64.99722779871716,0.0,64.99722779871716,0.0
43,43,0.4292810139401626,2.0,2.0,2.0,2.0,65.0,65.0,65.0,65.0,32847.0,28673.0,32827.0,28501.0,32990.0,27753.0,32809.0,28595.0,15.10634696199909,1.2705869367436904,3.37399544832376,-0.99133181610792,2.0,2.0,3.0,2.0,-0.2459999999999993,-0.2469999999999993,-0.2449999999999993,-0.2469999999999993,38.0,0.0,293.0,198.0,0.0,0.0,0.0,0.0,-24.52500015497208,138.32099437713623,54.845001220703125,55.2400016784668,58.54999923706055,55.90999984741211,-8.7,25.0,38.0,0.0,0.0,54.845001220703125,0.0,0.0,0.0,0.0,-1111.702,-1111.702,0.0,38.0,-5.50003051757812,0.0,0.0,-0.9998321533203116,2.0,25.0,65.0,0.0,0.00015228472285800526,0.006413340324825709,0.0,0.0,0.0,0.0,0.0,0.0,0.0,0.0,0.42999999999999994,0.006413340324825709,0.0,0.0,0.0,0.0,0.0,0.0092810139401626,0.0,0.0,52.58000183105469,0.0,60.24811245399925,64.99722602323551,0.0,64.99722602323551,0.0
44,44,0.4392810139401626,2.0,2.0,2.0,2.0,65.0,65.0,65.0,65.0,32809.0,28701.0,32848.0,28478.0,32969.0,27841.0,32788.0,28595.0,15.1226244701984,2.173097910635722,2.1364132433207974,-0.5914402442931842,2.0,2.0,3.0,2.0,-0.2459999999999993,-0.2469999999999993,-0.2449999999999993,-0.2469999999999993,38.0,0.0,293.0,198.0,0.0,0.0,0.0,0.0,7.847999781370163,115.7580018043518,54.900001525878906,55.34999847412109,58.59000015258789,56.369998931884766,-17.4,25.0,38.0,0.0,0.0,54.900001525878906,0.0,0.0,0.0,0.0,-1111.702,-1111.702,0.0,38.0,9.50012207031244,0.0,0.0,15.00015258789056,2.0,25.0,65.0,0.0,0.00015242361492580852,0.0065657639397515176,0.0,0.0,0.0,0.0,0.0,0.0,0.0,0.0,0.43999999999999995,0.0065657639397515176,0.0,0.0,0.0,0.0,0.0,0.0092810139401626,0.0,0.0,52.58000183105469,0.0,60.295233856255585,64.99722385372125,0.0,64.99722385372125,0.0
45,45,0.4492810139401627,2.0,2.0,2.0,2.0,65.0,65.0,65.0,65.0,32827.0,28696.0,32827.0,28491.0,32969.0,28003.0,32788.0,28553.0,15.143198326951945,1.1,-0.4204558056889035,-0.2640633664111211,2.0,2.0,3.0,2.0,-0.2459999999999993,-0.2469999999999993,-0.2449999999999993,-0.2469999999999993,38.0,0.0,293.0,198.0,0.0,0.0,0.0,0.0,-27.46799886226654,196.2000012397766,54.80500030517578,55.36000061035156,57.880001068115234,57.1349983215332,-10.440000414848328,25.0,38.0,0.0,0.0,54.80500030517578,0.0,0.0,0.0,0.0,-1111.702,-1111.702,0.0,38.0,-12.49999999999999,0.0,0.0,-22.00012207031243,2.0,25.0,65.0,0.0,0.00015236805809868805,0.006718131997850206,0.0,0.0,0.0,0.0,0.0,0.0,0.0,0.0,0.45,0.006718131997850206,0.0,0.0,0.0,0.0,0.0,0.0092810139401626,0.0,0.0,52.58000183105469,0.0,60.213835219128,64.99722760139213,0.0,64.99722760139213,0.0
46,46,0.4592810139401627,2.0,2.0,2.0,2.0,65.0,65.0,65.0,65.0,32889.0,28695.0,32827.0,28505.0,32969.0,28263.0,32788.0,28527.0,15.160953960508287,1.1260847399002487,-1.1752194970947638,-0.790870341034913,2.0,2.0,3.0,2.0,-0.2459999999999993,-0.2469999999999993,-0.2449999999999993,-0.2469999999999993,38.0,0.0,293.0,198.0,0.0,0.0,0.0,0.0,-14.714999496936798,232.4970006942749,54.93000030517578,55.20000076293945,57.23500061035156,57.69499969482422,-4.35,25.0,38.0,0.0,0.0,54.93000030517578,0.0,0.0,0.0,0.0,-1111.702,-1111.702,0.0,38.0,-27.999877929687475,0.0,0.0,-15.499877929687486,2.0,25.0,65.0,0.0,0.00015240972306993286,0.006870541720920139,0.0,0.0,0.0,0.0,0.0,0.0,0.0,0.0,0.46,0.006870541720920139,0.0,0.0,0.0,0.0,0.0,0.0092810139401626,0.0,0.0,52.58000183105469,0.0,60.32093087337852,64.99722267060615,0.0,64.99722267060615,0.0
47,47,0.4692810139401627,2.0,2.0,2.0,2.0,65.0,65.0,65.0,65.0,32847.0,28658.0,32848.0,28478.0,32948.0,28501.0,32829.0,28578.0,15.174767422659023,2.1046471119282235,-0.2352841455606254,-0.4476764440358882,2.0,2.0,3.0,2.0,-0.2459999999999993,-0.2469999999999993,-0.2449999999999993,-0.2469999999999993,38.0,0.0,293.0,198.0,0.0,0.0,0.0,0.0,-63.76500129699707,190.31399488449097,55.209999084472656,55.33000183105469,56.43999862670898,57.86000061035156,-13.920000207424165,25.0,38.0,0.0,0.0,55.209999084472656,0.0,0.0,0.0,0.0,-1111.702,-1111.702,0.0,38.0,6.499862670898504,0.0,0.0,34.49974060058598,2.0,25.0,65.0,0.0,0.00015297222137451187,0.007023513942294651,0.0,0.0,0.0,0.0,0.0,0.0,0.0,0.0,0.47000000000000003,0.007023513942294651,0.0,0.0,0.0,0.0,0.0,0.0092810139401626,0.0,0.0,52.58000183105469,0.0,60.56062980358338,64.99721163464118,0.0,64.99721163464118,0.0
48,48,0.4792810139401626,2.0,2.0,2.0,2.0,65.0,65.0,65.0,65.0,32889.0,28634.0,32827.0,28496.0,32990.0,28617.0,32768.0,28681.0,15.187020306470354,2.381910843789341,0.704718910315824,-0.3047189103158239,2.0,2.0,3.0,2.0,-0.2459999999999993,-0.2469999999999993,-0.2449999999999993,-0.2469999999999993,38.0,0.0,293.0,198.0,0.0,0.0,0.0,0.0,-31.39199912548065,157.9409956932068,55.14500045776367,55.41999816894531,56.21500015258789,57.56499862670898,-7.829999792575835,25.0,38.0,0.0,0.0,55.14500045776367,0.0,0.0,0.0,0.0,-1111.702,-1111.702,0.0,38.0,-25.500106811523416,0.0,0.0,-31.99996948242192,2.0,25.0,65.0,0.0,0.0001532708326975489,0.007176784774992199,0.0,0.0,0.0,0.0,0.0,0.0,0.0,0.0,0.4799999999999999,0.007176784774992199,0.0,0.0,0.0,0.0,0.0,0.0092810139401626,0.0,0.0,52.58000183105469,0.0,60.505010225210384,64.99721419541879,0.0,64.99721419541879,0.0
49,49,0.4892810139401626,2.0,2.0,2.0,2.0,65.0,65.0,65.0,65.0,32827.0,28624.0,32827.0,28484.0,32948.0,28617.0,32768.0,28775.0,15.196903915207866,1.2523391501317789,1.0163740509224524,-0.5906433994728844,2.0,2.0,3.0,2.0,-0.2459999999999993,-0.2469999999999993,-0.2449999999999993,-0.2469999999999993,38.0,0.0,293.0,198.0,0.0,0.0,0.0,0.0,-21.581999957561493,163.82700204849243,55.400001525878906,55.40499877929688,56.709999084472656,57.18999862670898,-5.220000207424164,25.0,38.0,0.0,0.0,55.400001525878906,0.0,0.0,0.0,0.0,-1111.702,-1111.702,0.0,38.0,18.000030517578107,0.0,0.0,43.50013732910152,2.0,25.0,65.0,0.0,0.0001535347249772815,0.007330319499969481,0.0,0.0,0.0,0.0,0.0,0.0,0.0,0.0,0.48999999999999994,0.007330319499969481,0.0,0.0,0.0,0.0,0.0,0.0092810139401626,0.0,0.0,52.58000183105469,0.0,60.72313311656674,64.99720415283701,0.0,64.99720415283701,0.0
50,50,0.4992810139401626,2.0,2.0,2.0,2.0,65.0,65.0,65.0,65.0,32868.0,28646.0,32827.0,28465.0,32948.0,28529.0,32829.0,28773.0,15.206023942119996,1.3552085792983182,1.7169278827195336,-0.189582841403364,2.0,2.0,3.0,2.0,-0.2459999999999993,-0.2469999999999993,-0.2449999999999993,-0.2469999999999993,38.0,0.0,293.0,198.0,0.0,0.0,0.0,0.0,-11.772000044584274,141.26399755477905,55.220001220703125,55.56999969482422,57.505001068115234,57.095001220703125,-10.440000414848328,25.0,38.0,0.0,0.0,55.220001220703125,0.0,0.0,0.0,0.0,-1111.702,-1111.702,0.0,38.0,-22.49984741210923,0.0,0.0,-40.49987792968734,2.0,25.0,65.0,0.0,0.00015363889270358631,0.007483958392673067,0.0,0.0,0.0,0.0,0.0,0.0,0.0,0.0,0.49999999999999994,0.007483958392673067,0.0,0.0,0.0,0.0,0.0,0.0092810139401626,0.0,0.0,52.58000183105469,0.0,60.56918739125214,64.99721124064182,0.0,64.99721124064182,0.0
51,51,0.5092810139401627,2.0,2.0,2.0,2.0,65.0,65.0,65.0,65.0,32847.0,28615.0,32827.0,28503.0,32969.0,28445.0,32788.0,28756.0,15.216995756003032,1.5512802071001428,2.3115937869957186,0.1961593786995718,2.0,2.0,3.0,2.0,-0.2459999999999993,-0.2469999999999993,-0.2449999999999993,-0.2469999999999993,38.0,0.0,293.0,198.0,0.0,0.0,0.0,0.0,17.65799969434738,141.26399755477905,55.44499969482422,55.52999877929688,58.275001525878906,57.540000915527344,-3.4800000518560408,25.0,38.0,0.0,0.0,55.44499969482422,0.0,0.0,0.0,0.0,-1111.702,-1111.702,0.0,38.0,18.500137329101545,0.0,0.0,40.999984741210774,2.0,25.0,65.0,0.0,0.00015370139016045563,0.0076376597828335235,0.0,0.0,0.0,0.0,0.0,0.0,0.0,0.0,0.51,0.0076376597828335235,0.0,0.0,0.0,0.0,0.0,0.0092810139401626,0.0,0.0,52.58000183105469,0.0,60.76160071271385,64.9972023817532,0.0,64.9972023817532,0.0
52,52,0.5192810139401627,2.0,2.0,2.0,2.0,65.0,65.0,65.0,65.0,32847.0,28663.0,32827.0,28504.0,32969.0,28477.0,32747.0,28762.0,15.22994290347078,1.584407697431396,0.8359669276882563,0.0429834638441281,2.0,2.0,3.0,2.0,-0.2459999999999993,-0.2469999999999993,-0.2449999999999993,-0.2469999999999993,38.0,0.0,293.0,198.0,0.0,0.0,0.0,0.0,-24.52500015497208,160.8839988708496,55.2599983215332,55.43999862670898,58.56999969482422,57.845001220703125,3.4800000518560408,25.0,38.0,0.0,0.0,55.2599983215332,0.0,0.0,0.0,0.0,-1111.702,-1111.702,0.0,38.0,4.999923706054683,0.0,0.0,-13.50021362304686,2.0,25.0,65.0,0.0,0.00015375694168938547,0.007791416724522909,0.0,0.0,0.0,0.0,0.0,0.0,0.0,0.0,0.52,0.007791416724522909,0.0,0.0,0.0,0.0,0.0,0.0092810139401626,0.0,0.0,52.58000183105469,0.0,60.603404543087244,64.99720966525211,0.0,64.99720966525211,0.0
53,53,0.5292810139401627,2.0,2.0,2.0,2.0,65.0,65.0,65.0,65.0,32827.0,28653.0,32807.0,28510.0,32969.0,28597.0,32788.0,28791.0,15.247048665045831,0.5943750408074197,-0.05080356559894,-0.4024106967968201,2.0,2.0,3.0,2.0,-0.2459999999999993,-0.2469999999999993,-0.2449999999999993,-0.2469999999999993,38.0,0.0,293.0,198.0,0.0,0.0,0.0,0.0,-1.9619999453425407,183.447003364563,55.209999084472656,55.58000183105469,58.150001525878906,57.869998931884766,0.8700000129640102,25.0,38.0,0.0,0.0,55.209999084472656,0.0,0.0,0.0,0.0,-1111.702,-1111.702,0.0,38.0,-17.499923706054673,0.0,0.0,-22.499847412109357,2.0,25.0,65.0,0.0,0.00015343055195278607,0.007944847276475696,0.0,0.0,0.0,0.0,0.0,0.0,0.0,0.0,0.53,0.007944847276475696,0.0,0.0,0.0,0.0,0.0,0.0092810139401626,0.0,0.0,52.58000183105469,0.0,60.56062980358338,64.99721163464118,0.0,64.99721163464118,0.0
54,54,0.5392810139401627,2.0,2.0,2.0,2.0,65.0,65.0,65.0,65.0,32847.0,28643.0,32827.0,28512.0,32990.0,28699.0,32809.0,28790.0,15.256887974035154,0.2591445006369905,-0.1104508578708463,-0.5552254289354233,2.0,2.0,3.0,2.0,-0.2459999999999993,-0.2469999999999993,-0.2449999999999993,-0.2469999999999993,38.0,0.0,293.0,198.0,0.0,0.0,0.0,0.0,-14.714999496936798,232.4970006942749,55.3849983215332,55.63999938964844,57.584999084472656,57.79499816894531,-6.9600001037120816,25.0,38.0,0.0,0.0,55.3849983215332,0.0,0.0,0.0,0.0,-1111.702,-1111.702,0.0,38.0,-29.500198364257788,0.0,0.0,-12.000274658203114,2.0,25.0,65.0,0.0,0.00015360416306389719,0.008098451439539594,0.0,0.0,0.0,0.0,0.0,0.0,0.0,0.0,0.54,0.008098451439539594,0.0,0.0,0.0,0.0,0.0,0.0092810139401626,0.0,0.0,52.58000183105469,0.0,60.71030579562878,64.99720474341879,0.0,64.99720474341879,0.0
55,55,0.5492810139401627,2.0,2.0,2.0,2.0,65.0,65.0,65.0,65.0,32889.0,28590.0,32827.0,28493.0,32990.0,28764.0,32847.0,28763.0,15.26207840253066,0.6052194641771826,-0.5195729906644352,-0.7526097320885914,2.0,2.0,3.0,2.0,-0.2459999999999993,-0.2469999999999993,-0.2449999999999993,-0.2469999999999993,38.0,0.0,293.0,198.0,0.0,0.0,0.0,0.0,-24.52500015497208,138.32099437713623,55.68000030517578,55.76499938964844,57.470001220703125,57.93999862670898,-9.570000207424163,25.0,38.0,0.0,0.0,55.68000030517578,0.0,0.0,0.0,0.0,-1111.702,-1111.702,0.0,38.0,-23.50006103515623,0.0,0.0,6.000137329101559,2.0,25.0,65.0,0.0,0.00015425694253709595,0.008252708382076689,0.0,0.0,0.0,0.0,0.0,0.0,0.0,0.0,0.55,0.008252708382076689,0.0,0.0,0.0,0.0,0.0,0.0092810139401626,0.0,0.0,52.58000183105469,0.0,60.96238431163012,64.99719313749128,0.0,64.99719313749128,0.0
56,56,0.5592810139401627,2.0,2.0,2.0,2.0,65.0,65.0,65.0,65.0,32827.0,28550.0,32848.0,28484.0,32969.0,28829.0,32788.0,28782.0,15.27015465118018,0.7841918892245863,-1.2244638210551009,-0.8512160085211856,2.0,2.0,3.0,2.0,-0.2459999999999993,-0.2469999999999993,-0.2449999999999993,-0.2469999999999993,38.0,0.0,293.0,198.0,0.0,0.0,0.0,0.0,-53.95500063896179,105.94799518585204,55.915000915527344,55.845001220703125,57.619998931884766,58.15999984741211,-13.05,25.0,38.0,0.0,0.0,55.915000915527344,0.0,0.0,0.0,0.0,-1111.702,-1111.702,0.0,38.0,-0.49972534179687456,0.0,0.0,23.000335693359354,2.0,25.0,65.0,0.0,0.00015499305725097672,0.008407701439327666,0.0,0.0,0.0,0.0,0.0,0.0,0.0,0.0,0.56,0.008407701439327666,0.0,0.0,0.0,0.0,0.0,0.0092810139401626,0.0,0.0,52.58000183105469,0.0,61.16298156436547,64.99718390181104,0.0,64.99718390181104,0.0
57,57,0.5692810139401627,2.0,2.0,2.0,2.0,65.0,65.0,65.0,65.0,32827.0,28508.0,32848.0,28488.0,32969.0,28854.0,32768.0,28856.0,15.284715045877457,0.1434497906170317,-0.1777292880979078,-0.8934497906170318,2.0,2.0,3.0,2.0,-0.2459999999999993,-0.2469999999999993,-0.2449999999999993,-0.2469999999999993,38.0,0.0,293.0,198.0,0.0,0.0,0.0,0.0,-31.39199912548065,144.20700073242188,55.91999816894531,55.95000076293945,57.709999084472656,58.060001373291016,-14.790000414848327,25.0,38.0,0.0,0.0,55.91999816894531,0.0,0.0,0.0,0.0,-1111.702,-1111.702,0.0,38.0,-4.500198364257859,0.0,0.0,-4.000473022460984,2.0,25.0,65.0,0.0,0.00015532638761732329,0.008563027826944989,0.0,0.0,0.0,0.0,0.0,0.0,0.0,0.0,0.5700000000000001,0.008563027826944989,0.0,0.0,0.0,0.0,0.0,0.0092810139401626,0.0,0.0,52.58000183105469,0.0,61.16724521900204,64.99718370550852,0.0,64.99718370550852,0.0
58,58,0.5792810139401626,2.0,2.0,2.0,2.0,65.0,65.0,65.0,65.0,32868.0,28493.0,32827.0,28477.0,33031.0,28869.0,32727.0,28977.0,15.302209552671524,-0.092149805196698,0.6609902727246229,-0.657850194803302,2.0,2.0,3.0,2.0,-0.2459999999999993,-0.2469999999999993,-0.2449999999999993,-0.2469999999999993,38.0,0.0,293.0,198.0,0.0,0.0,0.0,0.0,-21.581999957561493,215.8200025558472,55.96500015258789,55.89500045776367,57.92499923706055,57.744998931884766,-15.65999958515167,25.0,38.0,0.0,0.0,55.96500015258789,0.0,0.0,0.0,0.0,-1111.702,-1111.702,0.0,38.0,14.500045776367175,0.0,0.0,19.000244140625036,2.0,25.0,65.0,0.0,0.00015539583100212788,0.008718423657947116,0.0,0.0,0.0,0.0,0.0,0.0,0.0,0.0,0.58,0.008718423657947116,0.0,0.0,0.0,0.0,0.0,0.0092810139401626,0.0,0.0,52.58000183105469,0.0,61.205637118412675,64.99718193791077,0.0,64.99718193791077,0.0
59,59,0.5892810139401626,2.0,2.0,2.0,2.0,65.0,65.0,65.0,65.0,32847.0,28490.0,32869.0,28466.0,32990.0,28851.0,32768.0,29084.0,15.317118340054147,0.3826245276094575,1.348914032975591,-1.1423982308291378,2.0,2.0,3.0,2.0,-0.2459999999999993,-0.2469999999999993,-0.2449999999999993,-0.2469999999999993,38.0,0.0,293.0,198.0,0.0,0.0,0.0,0.0,-27.46799886226654,235.4399919509888,55.81999969482422,56.04499816894531,58.06999969482422,57.40999984741211,-11.30999958515167,25.0,38.0,0.0,0.0,55.81999969482422,0.0,0.0,0.0,0.0,-1111.702,-1111.702,0.0,38.0,-1.4999389648437487,0.0,0.0,-15.999984741210923,2.0,25.0,65.0,0.0,0.00015525694423251696,0.008873680602179633,0.0,0.0,0.0,0.0,0.0,0.0,0.0,0.0,0.59,0.008873680602179633,0.0,0.0,0.0,0.0,0.0,0.0092810139401626,0.0,0.0,52.58000183105469,0.0,61.08191060441298,64.99718763439162,0.0,64.99718763439162,0.0
60,60,0.5992810139401626,2.0,2.0,2.0,2.0,65.0,65.0,65.0,65.0,32827.0,28498.0,32827.0,28466.0,32969.0,28869.0,32829.0,29116.0,15.328060682822588,-0.4103813976226809,1.2805348794574736,-0.7857255782688138,2.0,2.0,3.0,2.0,-0.2459999999999993,-0.2469999999999993,-0.2449999999999993,-0.2469999999999993,38.0,0.0,293.0,198.0,0.0,0.0,0.0,0.0,-4.904999956488609,173.63699674606323,55.834999084472656,56.11000061035156,58.31999969482422,57.34000015258789,-20.00999958515167,25.0,38.0,0.0,0.0,55.834999084472656,0.0,0.0,0.0,0.0,-1111.702,-1111.702,0.0,38.0,1.4999389648437487,0.0,0.0,2.9998779296874973,2.0,25.0,65.0,0.0,0.00015507638719346802,0.009028756989373101,0.0,0.0,0.0,0.0,0.0,0.0,0.0,0.0,0.6,0.009028756989373101,0.0,0.0,0.0,0.0,0.0,0.0092810139401626,0.0,0.0,52.58000183105469,0.0,61.09471261368714,64.99718704497548,0.0,64.99718704497548,0.0
61,61,0.6092810139401627,2.0,2.0,2.0,2.0,65.0,65.0,65.0,65.0,32868.0,28487.0,32827.0,28419.0,33031.0,28886.0,32768.0,29035.0,15.340406654416237,-0.8090937913848703,0.5370088694501854,-0.2603929044398517,2.0,2.0,3.0,2.0,-0.2459999999999993,-0.2469999999999993,-0.2449999999999993,-0.2469999999999993,38.0,0.0,293.0,198.0,0.0,0.0,0.0,0.0,1.9619999453425407,144.20700073242188,55.81999969482422,56.15999984741211,58.30500030517578,57.68999862670898,-13.920000207424165,25.0,38.0,0.0,0.0,55.81999969482422,0.0,0.0,0.0,0.0,-1111.702,-1111.702,0.0,38.0,-15.999984741210923,0.0,0.0,-17.499923706054673,2.0,25.0,65.0,0.0,0.00015507638719346802,0.00918383337656657,0.0,0.0,0.0,0.0,0.0,0.0,0.0,0.0,0.61,0.00918383337656657,0.0,0.0,0.0,0.0,0.0,0.0092810139401626,0.0,0.0,52.58000183105469,0.0,61.08191060441298,64.99718763439162,0.0,64.99718763439162,0.0
62,62,0.6192810139401627,2.0,2.0,2.0,2.0,65.0,65.0,65.0,65.0,32827.0,28487.0,32827.0,28418.0,32948.0,28974.0,32788.0,28914.0,15.356061078005313,-1.1476899056553056,0.0261290251048239,-0.6438397484141481,2.0,2.0,3.0,2.0,-0.2459999999999993,-0.2469999999999993,-0.2449999999999993,-0.2469999999999993,38.0,0.0,293.0,198.0,0.0,0.0,0.0,0.0,-4.904999956488609,163.82700204849243,55.97999954223633,56.31999969482422,58.32500076293945,58.42499923706055,-4.35,25.0,38.0,0.0,0.0,55.97999954223633,0.0,0.0,0.0,0.0,-1111.702,-1111.702,0.0,38.0,20.000076293944584,0.0,0.0,36.00006103515551,2.0,25.0,65.0,0.0,0.0001552777767181398,0.00933911115328471,0.0,0.0,0.0,0.0,0.0,0.0,0.0,0.0,0.62,0.00933911115328471,0.0,0.0,0.0,0.0,0.0,0.0092810139401626,0.0,0.0,52.58000183105469,0.0,61.21843182412482,64.99718134883096,0.0,64.99718134883096,0.0
63,63,0.6292810139401627,2.0,2.0,2.0,2.0,65.0,65.0,65.0,65.0,32827.0,28507.0,32807.0,28436.0,32969.0,29082.0,32768.0,28826.0,15.374504019218875,-1.008283673627291,-1.4966865305490835,-0.2591120409900204,2.0,2.0,3.0,2.0,-0.2459999999999993,-0.2469999999999993,-0.2449999999999993,-0.2469999999999993,38.0,0.0,293.0,198.0,0.0,0.0,0.0,0.0,-4.904999956488609,203.0669927597046,55.77999877929688,56.29999923706055,58.0,58.959999084472656,-11.30999958515167,25.0,38.0,0.0,0.0,55.77999877929688,0.0,0.0,0.0,0.0,-1111.702,-1111.702,0.0,38.0,-26.00021362304614,0.0,0.0,-46.000289916990724,2.0,25.0,65.0,0.0,0.00015522221989101848,0.009494333373175729,0.0,0.0,0.0,0.0,0.0,0.0,0.0,0.0,0.63,0.009494333373175729,0.0,0.0,0.0,0.0,0.0,0.0092810139401626,0.0,0.0,52.58000183105469,0.0,61.04776604131679,64.9971892064384,0.0,64.9971892064384,0.0
64,64,0.6392810139401627,2.0,2.0,2.0,2.0,65.0,65.0,65.0,65.0,32868.0,28534.0,32827.0,28478.0,32969.0,29181.0,32809.0,28804.0,15.393614821872232,-1.5157317031413693,-1.3104878020942463,-0.7921341484293154,2.0,2.0,3.0,2.0,-0.2459999999999993,-0.2469999999999993,-0.2449999999999993,-0.2469999999999993,38.0,0.0,293.0,198.0,0.0,0.0,0.0,0.0,1.9619999453425407,209.93399620056152,56.040000915527344,56.06999969482422,57.744998931884766,59.06999969482422,-4.35,25.0,38.0,0.0,0.0,56.040000915527344,0.0,0.0,0.0,0.0,-1111.702,-1111.702,0.0,38.0,6.500244140625704,0.0,0.0,32.50045776367185,2.0,25.0,65.0,0.0,0.00015530555513170046,0.00964963892830743,0.0,0.0,0.0,0.0,0.0,0.0,0.0,0.0,0.64,0.00964963892830743,0.0,0.0,0.0,0.0,0.0,0.0092810139401626,0.0,0.0,52.58000183105469,0.0,61.26960636066696,64.99717899270917,0.0,64.99717899270917,0.0
65,65,0.6492810139401627,2.0,2.0,2.0,2.0,65.0,65.0,65.0,65.0,32868.0,28529.0,32827.0,28490.0,32969.0,29230.0,32809.0,28814.0,15.408992200427956,-2.1025997712923346,-1.6896009148306612,-0.5090991995231714,2.0,2.0,3.0,2.0,-0.2459999999999993,-0.2469999999999993,-0.2449999999999993,-0.2469999999999993,38.0,0.0,293.0,198.0,0.0,0.0,0.0,0.0,-24.52500015497208,206.0100078582764,55.97499847412109,56.084999084472656,57.69499969482422,58.83000183105469,-13.920000207424165,25.0,38.0,0.0,0.0,55.97499847412109,0.0,0.0,0.0,0.0,-1111.702,-1111.702,0.0,38.0,-20.000076293946005,0.0,0.0,-26.50032043457171,2.0,25.0,65.0,0.0,0.00015557638804117852,0.009805215316348608,0.0,0.0,0.0,0.0,0.0,0.0,0.0,0.0,0.65,0.009805215316348608,0.0,0.0,0.0,0.0,0.0,0.0092810139401626,0.0,0.0,52.58000183105469,0.0,61.21416592137773,64.99718154523697,0.0,64.99718154523697,0.0
66,66,0.6592810139401627,2.0,2.0,2.0,2.0,65.0,65.0,65.0,65.0,32868.0,28506.0,32827.0,28498.0,32948.0,29200.0,32809.0,28833.0,15.422681012530084,-2.190419793288867,-1.283234638255517,-0.8356296899333002,2.0,2.0,3.0,2.0,-0.2459999999999993,-0.2469999999999993,-0.2449999999999993,-0.2469999999999993,38.0,0.0,293.0,198.0,0.0,0.0,0.0,0.0,-24.52500015497208,163.82700204849243,56.17499923706055,56.19499969482422,57.92499923706055,58.59999847412109,-8.7,25.0,38.0,0.0,0.0,56.17499923706055,0.0,0.0,0.0,0.0,-1111.702,-1111.702,0.0,38.0,-18.000030517578107,0.0,0.0,2.000045776367898,2.0,25.0,65.0,0.0,0.00015576388570997466,0.009960979202058582,0.0,0.0,0.0,0.0,0.0,0.0,0.0,0.0,0.66,0.009960979202058582,0.0,0.0,0.0,0.0,0.0,0.0092810139401626,0.0,0.0,52.58000183105469,0.0,61.38470095946109,64.99717369365062,0.0,64.99717369365062,0.0
67,67,0.6692810139401627,2.0,2.0,2.0,2.0,65.0,65.0,65.0,65.0,32847.0,28485.0,32929.0,28491.0,32969.0,29087.0,32809.0,28850.0,15.435302499423663,-1.7966088448777184,-0.5977392299184788,-0.2483044224388591,2.0,2.0,3.0,2.0,-0.2459999999999993,-0.2469999999999993,-0.2449999999999993,-0.2469999999999993,38.0,0.0,293.0,198.0,0.0,0.0,0.0,0.0,-24.52500015497208,154.01699542999268,56.35499954223633,56.334999084472656,58.435001373291016,58.5,-14.790000414848327,25.0,38.0,0.0,0.0,56.35499954223633,0.0,0.0,0.0,0.0,-1111.702,-1111.702,0.0,38.0,-14.500045776367175,0.0,0.0,3.499984741210932,2.0,25.0,65.0,0.0,0.00015629166497124582,0.010117270867029828,0.0,0.0,0.0,0.0,0.0,0.0,0.0,0.0,0.67,0.010117270867029828,0.0,0.0,0.0,0.0,0.0,0.0092810139401626,0.0,0.0,52.58000183105469,0.0,61.53806799022655,64.99716663249606,0.0,64.99716663249606,0.0
68,68,0.6792810139401627,2.0,2.0,2.0,2.0,65.0,65.0,65.0,65.0,32809.0,28444.0,32869.0,28501.0,33010.0,28970.0,32788.0,28827.0,15.450241313663946,-1.5142308099509785,-0.4021893553770736,-0.0967159669343896,2.0,2.0,3.0,2.0,-0.2459999999999993,-0.2469999999999993,-0.2449999999999993,-0.2469999999999993,38.0,0.0,293.0,198.0,0.0,0.0,0.0,0.0,-4.904999956488609,141.26399755477905,56.5,56.435001373291016,59.08000183105469,58.505001068115234,-4.35,25.0,38.0,0.0,0.0,56.5,0.0,0.0,0.0,0.0,-1111.702,-1111.702,0.0,38.0,0.5001068115234371,0.0,0.0,15.000152587890613,2.0,25.0,65.0,0.0,0.00015674305491977282,0.0102740139219496,0.0,0.0,0.0,0.0,0.0,0.0,0.0,0.0,0.68,0.0102740139219496,0.0,0.0,0.0,0.0,0.0,0.0092810139401626,0.0,0.0,52.58000183105469,0.0,61.66153546795742,64.99716094794445,0.0,64.99716094794445,0.0
