,Unnamed: 0,currentTime,Agp_Pos_Sp_FL,Agp_Pos_Sp_FR,Agp_Pos_Sp_RL,Agp_Pos_Sp_RR,Disc_T_Est_FL,Disc_T_Est_FR,Disc_T_Est_RL,Disc_T_Est_RR,Motor_current_FL,Wheel_Decl_FL,Motor_current_FR,Wheel_Decl_FR,Motor_current_RL,Wheel_Decl_RL,Motor_current_RR,Wheel_Decl_RR,Vehicle_speed,Gyro_Rate_Pitch,IMU_Gyro_Rate_Roll,IMU_Gyro_Rate_Yaw,RealizedClampingForce_FL,RealizedClampingForce_FR,RealizedClampingForce_RL,RealizedClampingForce_RR,Piston_position_FL,Piston_position_FR,Piston_position_RL,Piston_position_RR,CF_FL,CF_FR,CF_RL,CF_RR,ESTIMATED_PRESSURE_FL,ESTIMATED_PRESSURE_FR,ESTIMATED_PRESSURE_RL,ESTIMATED_PRESSURE_RR,LATERAL_ACCELERATION,LONGITUDINAL_ACCELERATION,Wheel_Speed_FL,Wheel_Speed_FR,Wheel_Speed_RL,Wheel_Speed_RR,Yaw_rate,Ambiant_Temperature,Init_Disc_CF_FL,POS_MEASUREREV,TMC_filtered,Vitesse_Vehicule_Roues,Pressure_Speed_FL,Position_previous_FL,POS_MEASUREREV_square,POS_MEASUREREV_cube,Estimated_CF_FL,Estimated_CF_previous_FL,Pressure_Speed_previous_FL,CF_previous_FL,Deceleration_g,PosDiff,PreDiff,DecDiff,Lookup_Table,Temp_amb_C,Initial_temp_FL,RPM,Distance_Roues_instant,Distance_Roues,Brake_apply,Brake_release,Time_since_brake_apply,Miles_since_brake_apply,Time_since_brake_release,Miles_since_brake_release,BrakingTime_2,BrakingMiles_2,TimeSinceLastBrake_2,MilesSinceLastBrake_2,Change_Position,Change_pressure,BrakingForce_2,BrakingForce_ma_2,Start_braking_time,End_braking_time,BrakeStartSpeed,LastBrakStartSpeed,LastBrakEndtSpeed,LastDeceleration,conv_heat_trans_coef,temp_change_conv_FL,disc_heating_BTM_FL,temp_change_instant_BTM_1_FL,Pressure_Speed_time_FL
0,0,-0.0033837052974377,2.0,2.0,2.0,2.0,62.0,62.0,62.0,62.0,32827.0,28097.0,32869.0,28301.0,32948.0,28152.0,32726.0,28238.0,11.79858,0.95,2.45,-1.3,2.0,2.0,3.0,2.0,-0.2459999999999993,-0.2459999999999993,-0.2449999999999993,-0.2469999999999993,38.0,0.0,293.0,198.0,0.0,0.0,0.0,0.0,-17.65799969434738,167.75100231170654,42.78499984741211,42.83000183105469,45.345001220703125,44.40999984741211,-17.4,25.0,38.0,0.0,0.0,42.78499984741211,0.0,0.0,0.0,0.0,-1111.702,-1111.702,0.0,38.0,-21.500015258789062,0.0,0.0,0.0,2.0,25.0,62.0,0.0,0.0,0.0,0.0,0.0,0.0,0.0,0.0,0.0,0.0,0.0,0.0,0.0,0.0,0.0,0.0,0.0,0.0,0.0,0.0,0.0,0.0,0.0,0.0,0.0,0.0,0.0,0.0
1,1,0.0066162947025623,2.0,2.0,2.0,2.0,62.0,62.0,62.0,62.0,32827.0,28091.0,32869.0,28289.0,32969.0,28108.0,32788.0,28339.0,11.810654792831498,0.5924012725545228,1.2580042418484094,-1.6178655355070908,2.0,2.0,3.0,2.0,-0.2459999999999993,-0.2459999999999993,-0.2449999999999993,-0.2469999999999993,38.0,0.0,293.0,198.0,0.0,0.0,0.0,0.0,-27.46799886226654,141.26399755477905,43.0,43.07500076293945,45.46500015258789,44.2400016784668,-22.61999917030334,25.0,38.0,0.0,0.0,43.0,0.0,0.0,0.0,0.0,-1111.702,-1111.702,0.0,38.0,-0.9998321533203125,0.0,0.0,20.50018310546875,2.0,25.0,62.0,0.0,0.00011914583312140571,0.00011914583312140571,0.0,0.0,0.0,0.0,0.0,0.0,0.0,0.0,0.01,0.00011914583312140571,0.0,0.0,0.0,0.0,0.0,0.0066162947025623,0.0,0.0,42.78499984741211,6466.610356827472,49.833563197087486,61.997877607751185,0.0,61.997877607751185,0.0
2,2,0.0166162947025623,2.0,2.0,2.0,2.0,62.0,62.0,62.0,62.0,32827.0,28088.0,32827.0,28274.0,32969.0,28111.0,32788.0,28352.0,11.824853411414216,0.9429742813807548,0.9902703892164324,-1.538918443134271,2.0,2.0,3.0,2.0,-0.2459999999999993,-0.2459999999999993,-0.2449999999999993,-0.2469999999999993,38.0,0.0,293.0,198.0,0.0,0.0,0.0,0.0,-7.847999781370163,167.75100231170654,43.0099983215332,43.1150016784668,45.34000015258789,44.55500030517578,-29.58000082969665,25.0,38.0,0.0,0.0,43.0099983215332,0.0,0.0,0.0,0.0,-1111.702,-1111.702,0.0,38.0,9.000015258789064,0.0,0.0,9.999847412109377,2.0,25.0,62.0,0.0,0.00011945833100212945,0.00023860416412353516,0.0,0.0,0.0,0.0,0.0,0.0,0.0,0.0,0.02,0.00023860416412353516,0.0,0.0,0.0,0.0,0.0,0.0066162947025623,0.0,0.0,42.78499984741211,0.0,49.84260102525901,61.997877222844615,0.0,61.997877222844615,0.0
3,3,0.0266162947025623,2.0,2.0,2.0,2.0,62.0,62.0,62.0,62.0,32829.0,28102.0,32827.0,28251.0,32990.0,28157.0,32788.0,28286.0,11.839153514869418,1.05,0.630264672318479,-1.3356731876971015,2.0,2.0,3.0,2.0,-0.2459999999999993,-0.2459999999999993,-0.2449999999999993,-0.2469999999999993,38.0,0.0,293.0,198.0,0.0,0.0,0.0,0.0,-24.52500015497208,173.63699674606323,42.91999816894531,43.18999862670898,45.08000183105469,45.119998931884766,-26.1,25.0,38.0,0.0,0.0,42.91999816894531,0.0,0.0,0.0,0.0,-1111.702,-1111.702,0.0,38.0,3.9997100830078116,0.0,0.0,-5.000305175781253,2.0,25.0,62.0,0.0,0.00011934721734788682,0.00035795138147142196,0.0,0.0,0.0,0.0,0.0,0.0,0.0,0.0,0.03,0.00035795138147142196,0.0,0.0,0.0,0.0,0.0,0.0066162947025623,0.0,0.0,42.78499984741211,0.0,49.76123011768612,61.99788068830093,0.0,61.99788068830093,0.0
4,4,0.0366162947025623,2.0,2.0,2.0,2.0,62.0,62.0,62.0,62.0,32827.0,28126.0,32827.0,28219.0,32990.0,28165.0,32768.0,28191.0,11.852122412802784,0.9263691836774852,0.2615280952474652,-1.3,2.0,2.0,3.0,2.0,-0.2459999999999993,-0.2459999999999993,-0.2449999999999993,-0.2469999999999993,38.0,0.0,293.0,198.0,0.0,0.0,0.0,0.0,-59.84100103378296,170.69400548934937,42.880001068115234,43.29499816894531,45.209999084472656,45.66999816894531,-22.61999917030334,25.0,38.0,0.0,0.0,42.880001068115234,0.0,0.0,0.0,0.0,-1111.702,-1111.702,0.0,38.0,-0.4997253417968749,0.0,0.0,-4.499435424804687,2.0,25.0,62.0,0.0,0.00011916666560702856,0.0004771180470784505,0.0,0.0,0.0,0.0,0.0,0.0,0.0,0.0,0.04,0.0004771180470784505,0.0,0.0,0.0,0.0,0.0,0.0066162947025623,0.0,0.0,42.78499984741211,0.0,49.7250559071261,61.99788222890259,0.0,61.99788222890259,0.0
5,5,0.0466162947025623,2.0,2.0,2.0,2.0,62.0,62.0,62.0,62.0,32847.0,28143.0,32807.0,28223.0,32990.0,28162.0,32768.0,28094.0,11.865096889284317,0.6939846550023289,0.2824061379990684,-1.9180460349930133,2.0,2.0,3.0,2.0,-0.2459999999999993,-0.2459999999999993,-0.2449999999999993,-0.2469999999999993,38.0,0.0,293.0,198.0,0.0,0.0,0.0,0.0,-53.95500063896179,154.01699542999268,42.8849983215332,43.20000076293945,45.38999938964844,46.02000045776367,-22.61999917030334,25.0,38.0,0.0,0.0,42.8849983215332,0.0,0.0,0.0,0.0,-1111.702,-1111.702,0.0,38.0,-20.50018310546876,0.0,0.0,-20.000457763671886,2.0,25.0,62.0,0.0,0.00011911805470784507,0.0005962361017862956,0.0,0.0,0.0,0.0,0.0,0.0,0.0,0.0,0.05,0.0005962361017862956,0.0,0.0,0.0,0.0,0.0,0.0066162947025623,0.0,0.0,42.78499984741211,0.0,49.729575932801716,61.99788203640193,0.0,61.99788203640193,0.0
6,6,0.0566162947025623,2.0,2.0,2.0,2.0,62.0,62.0,62.0,62.0,32868.0,28135.0,32827.0,28223.0,32990.0,28108.0,32768.0,28076.0,11.879416807681052,0.4459067414921627,0.7081865170156747,-1.8050880897905952,2.0,2.0,3.0,2.0,-0.2459999999999993,-0.2459999999999993,-0.2449999999999993,-0.2469999999999993,38.0,0.0,293.0,198.0,0.0,0.0,0.0,0.0,-47.0880001783371,167.75100231170654,43.09000015258789,43.185001373291016,45.70500183105469,45.93000030517578,-35.66999917030334,25.0,38.0,0.0,0.0,43.09000015258789,0.0,0.0,0.0,0.0,-1111.702,-1111.702,0.0,38.0,-13.000106811523425,0.0,0.0,7.500076293945336,2.0,25.0,62.0,0.0,0.0001194097201029459,0.0007156458218892416,0.0,0.0,0.0,0.0,0.0,0.0,0.0,0.0,0.06,0.0007156458218892416,0.0,0.0,0.0,0.0,0.0,0.0066162947025623,0.0,0.0,42.78499984741211,0.0,49.91490080925742,61.997874143713155,0.0,61.997874143713155,0.0
7,7,0.0666162947025623,2.0,2.0,2.0,2.0,62.0,62.0,62.0,62.0,32847.0,28125.0,32827.0,28220.0,33010.0,28028.0,32768.0,28125.0,11.894737311243992,0.7663806311909958,0.8,-1.6278731229363348,2.0,2.0,3.0,2.0,-0.2459999999999993,-0.2459999999999993,-0.2449999999999993,-0.2469999999999993,38.0,0.0,293.0,198.0,0.0,0.0,0.0,0.0,-24.52500015497208,180.50400018692017,43.220001220703125,43.255001068115234,46.02000045776367,45.55500030517578,-30.45,25.0,38.0,0.0,0.0,43.220001220703125,0.0,0.0,0.0,0.0,-1111.702,-1111.702,0.0,38.0,6.9999694824218786,0.0,0.0,20.000076293945305,2.0,25.0,62.0,0.0,0.00011987500190734875,0.0008355208237965903,0.0,0.0,0.0,0.0,0.0,0.0,0.0,0.0,0.07,0.0008355208237965903,0.0,0.0,0.0,0.0,0.0,0.0066162947025623,0.0,0.0,42.78499984741211,0.0,50.03232329370972,61.99786914287905,0.0,61.99786914287905,0.0
8,8,0.0766162947025623,2.0,2.0,2.0,2.0,62.0,62.0,62.0,62.0,32847.0,28145.0,32848.0,28215.0,32990.0,27967.0,32768.0,28189.0,11.909926769028106,0.5209424267834298,0.8,-1.3943390167396437,2.0,2.0,3.0,2.0,-0.2459999999999993,-0.2459999999999993,-0.2449999999999993,-0.2469999999999993,38.0,0.0,293.0,198.0,0.0,0.0,0.0,0.0,-17.65799969434738,193.2569980621338,43.150001525878906,43.34000015258789,46.1349983215332,45.255001068115234,-27.84000041484833,25.0,38.0,0.0,0.0,43.150001525878906,0.0,0.0,0.0,0.0,-1111.702,-1111.702,0.0,38.0,-0.49972534179758576,0.0,0.0,-7.499694824219464,2.0,25.0,62.0,0.0,0.00011995833714803053,0.0009554791609446208,0.0,0.0,0.0,0.0,0.0,0.0,0.0,0.0,0.08,0.0009554791609446208,0.0,0.0,0.0,0.0,0.0,0.0066162947025623,0.0,0.0,42.78499984741211,0.0,49.96910626760673,61.99787183519008,0.0,61.99787183519008,0.0
9,9,0.0866162947025623,2.0,2.0,2.0,2.0,62.0,62.0,62.0,62.0,32868.0,28158.0,32827.0,28217.0,32990.0,27972.0,32788.0,28166.0,11.922475999280604,0.0378690469270663,0.9648523812291736,-1.5148523812291734,2.0,2.0,3.0,2.0,-0.2459999999999993,-0.2459999999999993,-0.2449999999999993,-0.2469999999999993,38.0,0.0,293.0,198.0,0.0,0.0,0.0,0.0,-11.772000044584274,183.447003364563,43.15499877929688,43.369998931884766,45.845001220703125,45.3650016784668,-23.490000414848325,25.0,38.0,0.0,0.0,43.15499877929688,0.0,0.0,0.0,0.0,-1111.702,-1111.702,0.0,38.0,-19.00024414062427,0.0,0.0,-18.500518798826686,2.0,25.0,62.0,0.0,0.00011986805597941073,0.0010753472169240314,0.0,0.0,0.0,0.0,0.0,0.0,0.0,0.0,0.09,0.0010753472169240314,0.0,0.0,0.0,0.0,0.0,0.0066162947025623,0.0,0.0,42.78499984741211,0.0,49.97362005615614,61.997871642955104,0.0,61.997871642955104,0.0
10,10,0.0966162947025623,2.0,2.0,2.0,2.0,62.0,62.0,62.0,62.0,32868.0,28146.0,32827.0,28231.0,32950.0,27994.0,32788.0,28096.0,11.934541568639812,-0.2148459864800236,1.1648459864800236,-1.467577006759988,2.0,2.0,3.0,2.0,-0.2459999999999993,-0.2459999999999993,-0.2449999999999993,-0.2469999999999993,38.0,0.0,293.0,198.0,0.0,0.0,0.0,0.0,-27.46799886226654,154.01699542999268,43.345001220703125,43.35499954223633,45.69499969482422,45.834999084472656,-26.969999170303343,25.0,38.0,0.0,0.0,43.345001220703125,0.0,0.0,0.0,0.0,-1111.702,-1111.702,0.0,38.0,3.4999847412109393,0.0,0.0,22.500228881835213,2.0,25.0,62.0,0.0,0.000120138888888889,0.0011954861058129204,0.0,0.0,0.0,0.0,0.0,0.0,0.0,0.0,0.1,0.0011954861058129204,0.0,0.0,0.0,0.0,0.0,0.0066162947025623,0.0,0.0,42.78499984741211,0.0,50.14515534535081,61.99786433754469,0.0,61.99786433754469,0.0
11,11,0.1066162947025623,2.0,2.0,2.0,2.0,62.0,62.0,62.0,62.0,32868.0,28174.0,32827.0,28240.0,33011.0,28040.0,32768.0,27992.0,11.9473292934054,-0.6478043832069322,1.1204391233586135,-1.45,2.0,2.0,3.0,2.0,-0.2459999999999993,-0.2459999999999993,-0.2449999999999993,-0.2469999999999993,38.0,0.0,293.0,198.0,0.0,0.0,0.0,0.0,-21.581999957561493,163.82700204849243,43.310001373291016,43.40999984741211,45.54999923706055,46.27000045776367,-25.230000829696653,25.0,38.0,0.0,0.0,43.310001373291016,0.0,0.0,0.0,0.0,-1111.702,-1111.702,0.0,38.0,3.0002593994133533,0.0,0.0,-0.499725341797586,2.0,25.0,62.0,0.0,0.00012035417026943624,0.0013158402760823566,0.0,0.0,0.0,0.0,0.0,0.0,0.0,0.0,0.11,0.0013158402760823566,0.0,0.0,0.0,0.0,0.0,0.0066162947025623,0.0,0.0,42.78499984741211,0.0,50.11356973299904,61.99786568272471,0.0,61.99786568272471,0.0
12,12,0.1166162947025623,2.0,2.0,2.0,2.0,62.0,62.0,62.0,61.0,32868.0,28200.0,32827.0,28214.0,32990.0,28041.0,32788.0,27932.0,11.961869672560931,-0.790482304372195,1.0595176956278052,-1.409517695627805,2.0,2.0,3.0,2.0,-0.2459999999999993,-0.2459999999999993,-0.2449999999999993,-0.2469999999999993,38.0,0.0,293.0,198.0,0.0,0.0,0.0,0.0,-7.847999781370163,170.69400548934937,43.27999877929688,43.630001068115234,45.68000030517578,46.459999084472656,-25.230000829696653,25.0,38.0,0.0,0.0,43.27999877929688,0.0,0.0,0.0,0.0,-1111.702,-1111.702,0.0,38.0,-6.999969482420448,0.0,0.0,-10.0002288818338,2.0,25.0,62.0,0.0,0.00012026388910081645,0.001436104165183173,0.0,0.0,0.0,0.0,0.0,0.0,0.0,0.0,0.12,0.001436104165183173,0.0,0.0,0.0,0.0,0.0,0.0066162947025623,0.0,0.0,42.78499984741211,0.0,50.08648942172568,61.99786683603129,0.0,61.99786683603129,0.0
13,13,0.1266162947025623,2.0,2.0,2.0,2.0,62.0,62.0,62.0,61.0,32788.0,28216.0,32827.0,28216.0,32950.0,28022.0,32768.0,27949.0,11.97769130259179,-0.3886224101462106,0.3095203382631791,-1.4411377589853789,2.0,2.0,3.0,2.0,-0.2459999999999993,-0.2459999999999993,-0.2449999999999993,-0.2469999999999993,38.0,0.0,293.0,198.0,0.0,0.0,0.0,0.0,-31.39199912548065,183.447003364563,43.34999847412109,43.6349983215332,45.935001373291016,46.20000076293945,-24.35999958515167,25.0,38.0,0.0,0.0,43.34999847412109,0.0,0.0,0.0,0.0,-1111.702,-1111.702,0.0,38.0,-12.49999999999999,0.0,0.0,-5.500030517579542,2.0,25.0,62.0,0.0,0.0001203194406297473,0.0015564236058129204,0.0,0.0,0.0,0.0,0.0,0.0,0.0,0.0,0.13,0.0015564236058129204,0.0,0.0,0.0,0.0,0.0,0.0066162947025623,0.0,0.0,42.78499984741211,0.0,50.14966465885862,61.997864145500344,0.0,61.997864145500344,0.0
14,14,0.1366162947025623,2.0,2.0,2.0,2.0,62.0,62.0,62.0,61.0,32827.0,28219.0,32827.0,28239.0,32990.0,28027.0,32788.0,27987.0,11.99318596456128,-0.5473291451478959,-0.8393165805915836,-1.24389237904342,2.0,2.0,3.0,2.0,-0.2459999999999993,-0.2459999999999993,-0.2449999999999993,-0.2469999999999993,38.0,0.0,293.0,198.0,0.0,0.0,0.0,0.0,-27.46799886226654,186.38999462127688,43.47499847412109,43.55500030517578,45.95000076293945,45.92499923706055,-25.230000829696653,25.0,38.0,0.0,0.0,43.47499847412109,0.0,0.0,0.0,0.0,-1111.702,-1111.702,0.0,38.0,-15.000152587891364,0.0,0.0,-2.5001525878913746,2.0,25.0,62.0,0.0,0.00012059027353922535,0.0016770138793521458,0.0,0.0,0.0,0.0,0.0,0.0,0.0,0.0,0.14,0.0016770138793521458,0.0,0.0,0.0,0.0,0.0,0.0066162947025623,0.0,0.0,42.78499984741211,0.0,50.26242229168959,61.99785934333602,0.0,61.99785934333602,0.0
15,15,0.1466162947025623,2.0,2.0,2.0,2.0,62.0,62.0,62.0,61.0,32847.0,28207.0,32827.0,28262.0,32990.0,28008.0,32788.0,27996.0,12.007264186170506,-1.012258062876728,-0.843870968561636,-1.571032256589055,2.0,2.0,3.0,2.0,-0.2459999999999993,-0.2459999999999993,-0.2449999999999993,-0.2469999999999993,38.0,0.0,293.0,198.0,0.0,0.0,0.0,0.0,-1.9619999453425407,186.38999462127688,43.625,43.54999923706055,46.125,45.86000061035156,-20.88000082969665,25.0,38.0,0.0,0.0,43.625,0.0,0.0,0.0,0.0,-1111.702,-1111.702,0.0,38.0,-9.000015258789054,0.0,0.0,6.00013732910231,2.0,25.0,62.0,0.0,0.00012097222010294572,0.0017979860994550914,0.0,0.0,0.0,0.0,0.0,0.0,0.0,0.0,0.15,0.0017979860994550914,0.0,0.0,0.0,0.0,0.0,0.0066162947025623,0.0,0.0,42.78499984741211,0.0,50.39763872922686,61.99785358468853,0.0,61.99785358468853,0.0
16,16,0.1566162947025623,2.0,2.0,2.0,2.0,62.0,62.0,62.0,61.0,32827.0,28199.0,32807.0,28275.0,33010.0,27995.0,32809.0,27943.0,12.019805923949832,-0.9780846096938272,-1.0438307806123457,-1.4468076828230454,2.0,2.0,3.0,2.0,-0.2459999999999993,-0.2459999999999993,-0.2449999999999993,-0.2469999999999993,38.0,0.0,293.0,198.0,0.0,0.0,0.0,0.0,-11.772000044584274,163.82700204849243,43.71500015258789,43.625,46.18000030517578,46.16999816894531,-28.70999958515167,25.0,38.0,0.0,0.0,43.71500015258789,0.0,0.0,0.0,0.0,-1111.702,-1111.702,0.0,38.0,2.0000457763671857,0.0,0.0,11.00006103515624,2.0,25.0,62.0,0.0,0.0001213055557674833,0.0019192916552225746,0.0,0.0,0.0,0.0,0.0,0.0,0.0,0.0,0.16,0.0019192916552225746,0.0,0.0,0.0,0.0,0.0,0.0066162947025623,0.0,0.0,42.78499984741211,0.0,50.47871879876882,61.997850131621064,0.0,61.997850131621064,0.0
17,17,0.1666162947025623,2.0,2.0,2.0,2.0,62.0,62.0,62.0,61.0,32868.0,28207.0,32848.0,28288.0,32969.0,28015.0,32788.0,27863.0,12.033878850581075,-1.194121096366767,-1.4661816445501503,-1.0338183554498497,2.0,2.0,3.0,2.0,-0.2459999999999993,-0.2459999999999993,-0.2449999999999993,-0.2469999999999993,38.0,0.0,293.0,198.0,0.0,0.0,0.0,0.0,-50.03100037574768,157.9409956932068,43.69499969482422,43.68000030517578,46.08000183105469,46.54499816894531,-24.35999958515167,25.0,38.0,0.0,0.0,43.69499969482422,0.0,0.0,0.0,0.0,-1111.702,-1111.702,0.0,38.0,-12.500000000000023,0.0,0.0,-14.500045776367209,2.0,25.0,62.0,0.0,0.00012140277756585026,0.002040694432788425,0.0,0.0,0.0,0.0,0.0,0.0,0.0,0.0,0.17,0.002040694432788425,0.0,0.0,0.0,0.0,0.0,0.0066162947025623,0.0,0.0,42.78499984741211,0.0,50.46070379994668,61.99785089885035,0.0,61.99785089885035,0.0
18,18,0.1766162947025623,2.0,2.0,2.0,2.0,62.0,62.0,62.0,61.0,32827.0,28198.0,32827.0,28301.0,32990.0,28001.0,32768.0,27829.0,12.04895942314388,-0.7973095321133292,-1.015002174315753,-0.9088463211012118,2.0,2.0,3.0,2.0,-0.2459999999999993,-0.2459999999999993,-0.2449999999999993,-0.2469999999999993,38.0,0.0,293.0,198.0,0.0,0.0,0.0,0.0,-41.20199978351593,163.82700204849243,43.81999969482422,43.75,46.26499938964844,46.69499969482422,-16.529999792575836,25.0,38.0,0.0,0.0,43.81999969482422,0.0,0.0,0.0,0.0,-1111.702,-1111.702,0.0,38.0,-6.499862670898432,0.0,0.0,6.000137329101591,2.0,25.0,62.0,0.0,0.00012154861026340037,0.0021622430430518255,0.0,0.0,0.0,0.0,0.0,0.0,0.0,0.0,0.18,0.0021622430430518255,0.0,0.0,0.0,0.0,0.0,0.0066162947025623,0.0,0.0,42.78499984741211,0.0,50.57326524282708,61.99784610504315,0.0,61.99784610504315,0.0
19,19,0.1866162947025623,2.0,2.0,2.0,2.0,62.0,62.0,62.0,61.0,32827.0,28189.0,32786.0,28317.0,32990.0,27971.0,32768.0,27844.0,12.064488525811928,-0.9474502554231043,-0.4463411983909752,-0.5700663261025274,2.0,2.0,3.0,2.0,-0.2459999999999993,-0.2459999999999993,-0.2449999999999993,-0.2469999999999993,38.0,0.0,293.0,198.0,0.0,0.0,0.0,0.0,-11.772000044584274,176.57999992370603,43.8849983215332,43.79499816894531,46.43000030517578,46.53499984741211,-15.65999958515167,25.0,38.0,0.0,0.0,43.8849983215332,0.0,0.0,0.0,0.0,-1111.702,-1111.702,0.0,38.0,1.9996643066406232,0.0,0.0,8.499526977539055,2.0,25.0,62.0,0.0,0.00012181249724494097,0.0022840555402967666,0.0,0.0,0.0,0.0,0.0,0.0,0.0,0.0,0.19,0.0022840555402967666,0.0,0.0,0.0,0.0,0.0,0.0066162947025623,0.0,0.0,42.78499984741211,0.0,50.63176803358622,61.99784361350551,0.0,61.99784361350551,0.0
20,20,0.1966162947025623,2.0,2.0,2.0,2.0,62.0,62.0,62.0,61.0,32827.0,28196.0,32848.0,28310.0,32990.0,27949.0,32768.0,27912.0,12.079534655457977,-0.6703287705320446,-0.4324178073669888,-0.7884623257844608,2.0,2.0,3.0,2.0,-0.2459999999999993,-0.2459999999999993,-0.2449999999999993,-0.2469999999999993,38.0,0.0,293.0,198.0,0.0,0.0,0.0,0.0,-31.39199912548065,173.63699674606323,43.8650016784668,43.94499969482422,46.48500061035156,46.20000076293945,-8.7,25.0,38.0,0.0,0.0,43.8650016784668,0.0,0.0,0.0,0.0,-1111.702,-1111.702,0.0,38.0,-11.499786376953146,0.0,0.0,-13.49945068359377,2.0,25.0,62.0,0.0,0.00012187500000000012,0.0024059305402967667,0.0,0.0,0.0,0.0,0.0,0.0,0.0,0.0,0.2,0.0024059305402967667,0.0,0.0,0.0,0.0,0.0,0.0066162947025623,0.0,0.0,42.78499984741211,0.0,50.61377184748141,61.99784437993346,0.0,61.99784437993346,0.0
21,21,0.2066162947025623,2.0,2.0,2.0,2.0,62.0,62.0,62.0,61.0,32847.0,28179.0,32827.0,28311.0,32969.0,27927.0,32768.0,27975.0,12.094438156352805,-0.7616909965077843,-0.6521137456347303,-1.2946502403964066,2.0,2.0,3.0,2.0,-0.2459999999999993,-0.2459999999999993,-0.2449999999999993,-0.2469999999999993,38.0,0.0,293.0,198.0,0.0,0.0,0.0,0.0,-41.20199978351593,173.63699674606323,43.97999954223633,44.0,46.584999084472656,46.005001068115234,-14.790000414848327,25.0,38.0,0.0,0.0,43.97999954223633,0.0,0.0,0.0,0.0,-1111.702,-1111.702,0.0,38.0,-9.000015258789054,0.0,0.0,2.4997711181640927,2.0,25.0,62.0,0.0,0.00012200694613986521,0.002527937486436632,0.0,0.0,0.0,0.0,0.0,0.0,0.0,0.0,0.21,0.002527937486436632,0.0,0.0,0.0,0.0,0.0,0.0066162947025623,0.0,0.0,42.78499984741211,0.0,50.71724074033015,61.99783997336381,0.0,61.99783997336381,0.0
22,22,0.2166162947025623,2.0,2.0,2.0,2.0,62.0,62.0,62.0,61.0,32889.0,28168.0,32848.0,28304.0,32989.0,27968.0,32768.0,28004.0,12.108901994170562,-0.7593669134593891,-0.334302221134502,-1.4,2.0,2.0,3.0,2.0,-0.2459999999999993,-0.2459999999999993,-0.2449999999999993,-0.2469999999999993,38.0,0.0,293.0,198.0,0.0,0.0,0.0,0.0,-27.46799886226654,170.69400548934937,44.06999969482422,44.095001220703125,46.34000015258789,46.09000015258789,-24.35999958515167,25.0,38.0,0.0,0.0,44.06999969482422,0.0,0.0,0.0,0.0,-1111.702,-1111.702,0.0,38.0,1.4999389648437487,0.0,0.0,10.499954223632802,2.0,25.0,62.0,0.0,0.00012229166560702865,0.0026502291520436607,0.0,0.0,0.0,0.0,0.0,0.0,0.0,0.0,0.22,0.0026502291520436607,0.0,0.0,0.0,0.0,0.0,0.0066162947025623,0.0,0.0,42.78499984741211,0.0,50.79817652008646,61.997836526442676,0.0,61.997836526442676,0.0
23,23,0.2266162947025623,2.0,2.0,2.0,2.0,62.0,62.0,62.0,61.0,32847.0,28182.0,32827.0,28307.0,32990.0,27990.0,32768.0,28030.0,12.123763104931143,-1.2436361586131128,-0.1677273068978145,-0.7418184551825162,2.0,2.0,3.0,2.0,-0.2459999999999993,-0.2459999999999993,-0.2449999999999993,-0.2469999999999993,38.0,0.0,293.0,198.0,0.0,0.0,0.0,0.0,-44.144999980926514,163.82700204849243,44.05500030517578,44.125,46.3650016784668,46.26499938964844,-24.35999958515167,25.0,38.0,0.0,0.0,44.05500030517578,0.0,0.0,0.0,0.0,-1111.702,-1111.702,0.0,38.0,1.000213623046877,0.0,0.0,-0.49972534179687167,2.0,25.0,62.0,0.0,0.00012239583333333346,0.002772624985376994,0.0,0.0,0.0,0.0,0.0,0.0,0.0,0.0,0.23,0.002772624985376994,0.0,0.0,0.0,0.0,0.0,0.0066162947025623,0.0,0.0,42.78499984741211,0.0,50.784690322236074,61.99783710079754,0.0,61.99783710079754,0.0
24,24,0.2366162947025623,2.0,2.0,2.0,2.0,62.0,62.0,62.0,61.0,32847.0,28196.0,32827.0,28311.0,32969.0,28004.0,32809.0,28079.0,12.139357888197845,-1.35,-0.1912425175287077,-0.8886976227009544,2.0,2.0,3.0,2.0,-0.2459999999999993,-0.2459999999999993,-0.2449999999999993,-0.2469999999999993,38.0,0.0,293.0,198.0,0.0,0.0,0.0,0.0,-31.39199912548065,163.82700204849243,44.04499816894531,44.16999816894531,46.44499969482422,46.26499938964844,-10.440000414848328,25.0,38.0,0.0,0.0,44.04499816894531,0.0,0.0,0.0,0.0,-1111.702,-1111.702,0.0,38.0,3.999710083007809,0.0,0.0,2.999496459960932,2.0,25.0,62.0,0.0,0.0001223611089918346,0.0028949860943688287,0.0,0.0,0.0,0.0,0.0,0.0,0.0,0.0,0.24,0.0028949860943688287,0.0,0.0,0.0,0.0,0.0,0.0066162947025623,0.0,0.0,42.78499984741211,0.0,50.775696675702285,61.997837483822074,0.0,61.997837483822074,0.0
25,25,0.2466162947025623,2.0,2.0,2.0,2.0,62.0,62.0,62.0,61.0,32809.0,28216.0,32827.0,28313.0,32990.0,27969.0,32788.0,28141.0,12.15503308576539,-1.432502366016804,0.0887582810588145,-1.0737535490252064,2.0,2.0,3.0,2.0,-0.2459999999999993,-0.2459999999999993,-0.2449999999999993,-0.2469999999999993,38.0,0.0,293.0,198.0,0.0,0.0,0.0,0.0,-41.20199978351593,173.63699674606323,44.005001068115234,44.220001220703125,46.69499969482422,46.15499877929688,-16.529999792575836,25.0,38.0,0.0,0.0,44.005001068115234,0.0,0.0,0.0,0.0,-1111.702,-1111.702,0.0,38.0,-17.499923706054673,0.0,0.0,-21.499633789062482,2.0,25.0,62.0,0.0,0.00012229166560702865,0.0030172777599758575,0.0,0.0,0.0,0.0,0.0,0.0,0.0,0.0,0.25,0.0030172777599758575,0.0,0.0,0.0,0.0,0.0,0.0066162947025623,0.0,0.0,42.78499984741211,0.0,50.739727887548305,61.99783901567333,0.0,61.99783901567333,0.0
26,26,0.2566162947025623,2.0,2.0,2.0,2.0,62.0,62.0,62.0,61.0,32847.0,28213.0,32827.0,28310.0,32990.0,27923.0,32908.0,28186.0,12.169450994769129,-1.043605602121462,0.1906394397878538,-1.4251155183028303,2.0,2.0,3.0,2.0,-0.2459999999999993,-0.2459999999999993,-0.2449999999999993,-0.2469999999999993,38.0,0.0,293.0,198.0,0.0,0.0,0.0,0.0,-7.847999781370163,167.75100231170654,44.18000030517578,44.290000915527344,46.959999084472656,46.244998931884766,-19.140000414848327,25.0,38.0,0.0,0.0,44.18000030517578,0.0,0.0,0.0,0.0,-1111.702,-1111.702,0.0,38.0,-9.000015258789054,0.0,0.0,8.49990844726562,2.0,25.0,62.0,0.0,0.00012247916857401541,0.003139756928549873,0.0,0.0,0.0,0.0,0.0,0.0,0.0,0.0,0.26,0.003139756928549873,0.0,0.0,0.0,0.0,0.0,0.0066162947025623,0.0,0.0,42.78499984741211,0.0,50.89704904742649,61.99783231562554,0.0,61.99783231562554,0.0
27,27,0.2666162947025623,2.0,2.0,2.0,2.0,62.0,62.0,62.0,61.0,32788.0,28220.0,32848.0,28313.0,32969.0,27935.0,32788.0,28193.0,12.184920382715374,-0.8686192450249771,-0.4917364172876942,-1.1337866026123973,2.0,2.0,3.0,2.0,-0.2459999999999993,-0.2459999999999993,-0.2449999999999993,-0.2469999999999993,38.0,0.0,293.0,198.0,0.0,0.0,0.0,0.0,-37.27799952030182,157.9409956932068,44.27000045776367,44.32500076293945,46.81499862670898,46.35499954223633,-26.1,25.0,38.0,0.0,0.0,44.27000045776367,0.0,0.0,0.0,0.0,-1111.702,-1111.702,0.0,38.0,8.000183105469453,0.0,0.0,17.00019836425851,2.0,25.0,62.0,0.0,0.00012284722328186046,0.0032626041518317335,0.0,0.0,0.0,0.0,0.0,0.0,0.0,0.0,0.27,0.0032626041518317335,0.0,0.0,0.0,0.0,0.0,0.0066162947025623,0.0,0.0,42.78499984741211,0.0,50.97790416042874,61.99782887214058,0.0,61.99782887214058,0.0
28,28,0.2766162947025623,2.0,2.0,2.0,2.0,62.0,62.0,62.0,61.0,32827.0,28249.0,32827.0,28330.0,32990.0,27983.0,32788.0,28153.0,12.201700165505528,-1.0556916285413986,-1.1436599084993568,-0.8854466971668811,2.0,2.0,3.0,2.0,-0.2459999999999993,-0.2459999999999993,-0.2449999999999993,-0.2469999999999993,38.0,0.0,293.0,198.0,0.0,0.0,0.0,0.0,-44.144999980926514,173.63699674606323,44.18999862670898,44.30500030517578,46.6150016784668,46.72499847412109,-18.269999170303343,25.0,38.0,0.0,0.0,44.18999862670898,0.0,0.0,0.0,0.0,-1111.702,-1111.702,0.0,38.0,-18.50013732910236,0.0,0.0,-26.50032043457181,2.0,25.0,62.0,0.0,0.0001228611098395455,0.003385465261671279,0.0,0.0,0.0,0.0,0.0,0.0,0.0,0.0,0.28,0.003385465261671279,0.0,0.0,0.0,0.0,0.0,0.0066162947025623,0.0,0.0,42.78499984741211,0.0,50.90603321367687,61.997831933004804,0.0,61.997831933004804,0.0
29,29,0.2866162947025623,2.0,2.0,2.0,2.0,62.0,62.0,62.0,61.0,32847.0,28241.0,32827.0,28345.0,32969.0,28100.0,32788.0,28071.0,12.218008986699257,-1.1825184298990048,-1.3737776448485075,-1.138814504646517,2.0,2.0,3.0,2.0,-0.2459999999999993,-0.2459999999999993,-0.2449999999999993,-0.2469999999999993,38.0,0.0,293.0,198.0,0.0,0.0,0.0,0.0,-47.0880001783371,180.50400018692017,44.375,44.34999847412109,46.21500015258789,47.125,-14.790000414848327,25.0,38.0,0.0,0.0,44.375,0.0,0.0,0.0,0.0,-1111.702,-1111.702,0.0,38.0,-8.000183105468743,0.0,0.0,10.499954223633615,2.0,25.0,62.0,0.0,0.00012300694253709524,0.0035084722042083745,0.0,0.0,0.0,0.0,0.0,0.0,0.0,0.0,0.29,0.0035084722042083745,0.0,0.0,0.0,0.0,0.0,0.0066162947025623,0.0,0.0,42.78499984741211,0.0,51.072188865361504,61.99782485671202,0.0,61.99782485671202,0.0
30,30,0.2966162947025623,2.0,2.0,2.0,2.0,62.0,62.0,62.0,61.0,32827.0,28239.0,32827.0,28365.0,33010.0,28181.0,32788.0,27977.0,12.23393394334284,-0.6223740951907538,-0.8223740951907539,-1.034964027197358,2.0,2.0,3.0,2.0,-0.2459999999999993,-0.2459999999999993,-0.2449999999999993,-0.2469999999999993,38.0,0.0,293.0,198.0,0.0,0.0,0.0,0.0,-31.39199912548065,173.63699674606323,44.45500183105469,44.36000061035156,46.15499877929688,47.45500183105469,-20.88000082969665,25.0,38.0,0.0,0.0,44.45500183105469,0.0,0.0,0.0,0.0,-1111.702,-1111.702,0.0,38.0,-4.4998168945312464,0.0,0.0,3.5003662109374964,2.0,25.0,62.0,0.0,0.00012337500254313162,0.0036318472067515062,0.0,0.0,0.0,0.0,0.0,0.0,0.0,0.0,0.3,0.0036318472067515062,0.0,0.0,0.0,0.0,0.0,0.0066162947025623,0.0,0.0,42.78499984741211,0.0,51.14399384490039,61.99782179865782,0.0,61.99782179865782,0.0
31,31,0.3066162947025623,2.0,2.0,2.0,2.0,62.0,62.0,62.0,61.0,32827.0,28237.0,32827.0,28374.0,33010.0,28235.0,32768.0,27910.0,12.24888284355539,-0.5397938680635846,0.0958773612716923,-0.9602061319364156,2.0,2.0,3.0,2.0,-0.2459999999999993,-0.2459999999999993,-0.2449999999999993,-0.2469999999999993,38.0,0.0,293.0,198.0,0.0,0.0,0.0,0.0,-11.772000044584274,170.69400548934937,44.5,44.44499969482422,46.380001068115234,47.6150016784668,-17.4,25.0,38.0,0.0,0.0,44.5,0.0,0.0,0.0,0.0,-1111.702,-1111.702,0.0,38.0,4.4998168945312464,0.0,0.0,8.999633789062493,2.0,25.0,62.0,0.0,0.00012354861365424275,0.003755395820405749,0.0,0.0,0.0,0.0,0.0,0.0,0.0,0.0,0.31,0.003755395820405749,0.0,0.0,0.0,0.0,0.0,0.0066162947025623,0.0,0.0,42.78499984741211,0.0,51.18436908448414,61.99782007914388,0.0,61.99782007914388,0.0
32,32,0.3166162947025623,2.0,2.0,2.0,2.0,62.0,62.0,62.0,61.0,32847.0,28257.0,32827.0,28368.0,32969.0,28246.0,32768.0,27893.0,12.265947947594192,-0.2665825402893798,0.2190235829398228,-1.0309764170601772,2.0,2.0,3.0,2.0,-0.2459999999999993,-0.2459999999999993,-0.2449999999999993,-0.2469999999999993,38.0,0.0,293.0,198.0,0.0,0.0,0.0,0.0,-41.20199978351593,167.75100231170654,44.45500183105469,44.584999084472656,46.69499969482422,47.48500061035156,-16.529999792575836,25.0,38.0,0.0,0.0,44.45500183105469,0.0,0.0,0.0,0.0,-1111.702,-1111.702,0.0,38.0,-21.99974060058592,0.0,0.0,-26.499557495117166,2.0,25.0,62.0,0.0,0.00012354861365424275,0.0038789444340599916,0.0,0.0,0.0,0.0,0.0,0.0,0.0,0.0,0.32,0.0038789444340599916,0.0,0.0,0.0,0.0,0.0,0.0066162947025623,0.0,0.0,42.78499984741211,0.0,51.14399384490039,61.99782179865782,0.0,61.99782179865782,0.0
33,33,0.3266162947025623,2.0,2.0,2.0,2.0,62.0,62.0,62.0,61.0,32847.0,28235.0,32827.0,28377.0,32990.0,28173.0,32809.0,27945.0,12.283020786682547,-0.0353924961413565,1.105341271222539,-0.3092662326361044,2.0,2.0,3.0,2.0,-0.2459999999999993,-0.2459999999999993,-0.2449999999999993,-0.2469999999999993,38.0,0.0,293.0,198.0,0.0,0.0,0.0,0.0,-17.65799969434738,183.447003364563,44.67499923706055,44.61000061035156,47.27999877929688,47.165000915527344,-18.269999170303343,25.0,38.0,0.0,0.0,44.67499923706055,0.0,0.0,0.0,0.0,-1111.702,-1111.702,0.0,38.0,-1.0002136230468741,0.0,0.0,20.999526977539045,2.0,25.0,62.0,0.0,0.00012379166815016017,0.004002736102210152,0.0,0.0,0.0,0.0,0.0,0.0,0.0,0.0,0.33,0.004002736102210152,0.0,0.0,0.0,0.0,0.0,0.0066162947025623,0.0,0.0,42.78499984741211,0.0,51.34130433050275,61.99781339553493,0.0,61.99781339553493,0.0
34,34,0.3366162947025623,2.0,2.0,2.0,2.0,62.0,62.0,62.0,61.0,32827.0,28237.0,32827.0,28391.0,32990.0,28109.0,32747.0,28029.0,12.299327978025644,0.082515795556173,1.753836875558952,-0.6038368755589519,2.0,2.0,3.0,2.0,-0.2459999999999993,-0.2459999999999993,-0.2449999999999993,-0.2469999999999993,38.0,0.0,293.0,198.0,0.0,0.0,0.0,0.0,-21.581999957561493,176.57999992370603,44.685001373291016,44.619998931884766,47.5099983215332,46.84000015258789,-2.610000103712082,25.0,38.0,0.0,0.0,44.685001373291016,0.0,0.0,0.0,0.0,-1111.702,-1111.702,0.0,38.0,-1.4999389648437569,0.0,0.0,-0.49972534179688277,2.0,25.0,62.0,0.0,0.00012411111195882173,0.004126847214168974,0.0,0.0,0.0,0.0,0.0,0.0,0.0,0.0,0.34,0.004126847214168974,0.0,0.0,0.0,0.0,0.0,0.0066162947025623,0.0,0.0,42.78499984741211,0.0,51.350269923451016,61.997813013705404,0.0,61.997813013705404,0.0
35,35,0.3466162947025623,2.0,2.0,2.0,2.0,62.0,62.0,62.0,61.0,32847.0,28245.0,32827.0,28399.0,33010.0,28011.0,32768.0,28103.0,12.314617702329446,0.512418111732946,1.1076473988806974,-0.7000000000000001,2.0,2.0,3.0,2.0,-0.2459999999999993,-0.2459999999999993,-0.2449999999999993,-0.2469999999999993,38.0,0.0,293.0,198.0,0.0,0.0,0.0,0.0,-14.714999496936798,170.69400548934937,44.70000076293945,44.68999862670898,47.82500076293945,46.6349983215332,-12.179999792575837,25.0,38.0,0.0,0.0,44.70000076293945,0.0,0.0,0.0,0.0,-1111.702,-1111.702,0.0,38.0,-16.999816894531236,0.0,0.0,-15.499877929687479,2.0,25.0,62.0,0.0,0.0001241458363003195,0.0042509930504692935,0.0,0.0,0.0,0.0,0.0,0.0,0.0,0.0,0.35,0.0042509930504692935,0.0,0.0,0.0,0.0,0.0,0.0066162947025623,0.0,0.0,42.78499984741211,0.0,51.36371406608004,61.997812441141974,0.0,61.997812441141974,0.0
36,36,0.3566162947025623,2.0,2.0,2.0,2.0,62.0,62.0,62.0,61.0,32847.0,28227.0,32848.0,28404.0,32969.0,27976.0,32788.0,28110.0,12.328707254908071,0.5187339254928685,0.8281008882393027,-0.4562017764786055,2.0,2.0,3.0,2.0,-0.2459999999999993,-0.2459999999999993,-0.2449999999999993,-0.2469999999999993,38.0,0.0,293.0,198.0,0.0,0.0,0.0,0.0,-17.65799969434738,160.8839988708496,44.869998931884766,44.75,47.685001373291016,46.8650016784668,-12.179999792575837,25.0,38.0,0.0,0.0,44.869998931884766,0.0,0.0,0.0,0.0,-1111.702,-1111.702,0.0,38.0,-8.50028991699218,0.0,0.0,8.499526977539055,2.0,25.0,62.0,0.0,0.00012440277735392265,0.004375395827823216,0.0,0.0,0.0,0.0,0.0,0.0,0.0,0.0,0.36,0.004375395827823216,0.0,0.0,0.0,0.0,0.0,0.0066162947025623,0.0,0.0,42.78499984741211,0.0,51.51601630760329,61.99780595484625,0.0,61.99780595484625,0.0
37,37,0.3666162947025623,2.0,2.0,2.0,2.0,62.0,62.0,62.0,61.0,32868.0,28220.0,32827.0,28414.0,33031.0,27947.0,32768.0,28090.0,12.34275633235458,0.6628083502852995,0.4336812118580764,-0.7663187881419236,2.0,2.0,3.0,2.0,-0.2459999999999993,-0.2459999999999993,-0.2449999999999993,-0.2469999999999993,38.0,0.0,293.0,198.0,0.0,0.0,0.0,0.0,-11.772000044584274,148.131000995636,44.95500183105469,44.79499816894531,47.64500045776367,47.22999954223633,-6.9600001037120816,25.0,38.0,0.0,0.0,44.95500183105469,0.0,0.0,0.0,0.0,-1111.702,-1111.702,0.0,38.0,6.500244140624994,0.0,0.0,15.000534057617173,2.0,25.0,62.0,0.0,0.0001247569455040827,0.004500152773327298,0.0,0.0,0.0,0.0,0.0,0.0,0.0,0.0,0.37,0.004500152773327298,0.0,0.0,0.0,0.0,0.0,0.0066162947025623,0.0,0.0,42.78499984741211,0.0,51.592123221666256,61.99780271358151,0.0,61.99780271358151,0.0
38,38,0.3766162947025623,2.0,2.0,2.0,2.0,62.0,62.0,62.0,61.0,32788.0,28230.0,32786.0,28402.0,32969.0,27956.0,32768.0,28047.0,12.35821887597196,0.4942307395657545,0.35,-0.8088461479131509,2.0,2.0,3.0,2.0,-0.2459999999999993,-0.2459999999999993,-0.2449999999999993,-0.2469999999999993,38.0,0.0,293.0,198.0,0.0,0.0,0.0,0.0,-11.772000044584274,157.9409956932068,44.88999938964844,44.93999862670898,47.505001068115234,47.52000045776367,-14.790000414848327,25.0,38.0,0.0,0.0,44.88999938964844,0.0,0.0,0.0,0.0,-1111.702,-1111.702,0.0,38.0,-9.000015258789054,0.0,0.0,-15.500259399414048,2.0,25.0,62.0,0.0,0.00012478472391764335,0.004624937497244941,0.0,0.0,0.0,0.0,0.0,0.0,0.0,0.0,0.38,0.004624937497244941,0.0,0.0,0.0,0.0,0.0,0.0066162947025623,0.0,0.0,42.78499984741211,0.0,51.533926467388675,61.997805192082815,0.0,61.997805192082815,0.0
39,39,0.3866162947025623,2.0,2.0,2.0,2.0,62.0,62.0,62.0,61.0,32847.0,28226.0,32848.0,28399.0,33010.0,27987.0,32768.0,28031.0,12.374356312578623,0.5737494949585219,0.2675003366943187,-0.7175003366943188,2.0,2.0,3.0,2.0,-0.2459999999999993,-0.2459999999999993,-0.2449999999999993,-0.2469999999999993,38.0,0.0,293.0,198.0,0.0,0.0,0.0,0.0,-17.65799969434738,180.50400018692017,44.97999954223633,45.0,47.345001220703125,47.6150016784668,-13.920000207424165,25.0,38.0,0.0,0.0,44.97999954223633,0.0,0.0,0.0,0.0,-1111.702,-1111.702,0.0,38.0,-6.000137329101557,0.0,0.0,2.9998779296874964,2.0,25.0,62.0,0.0,0.00012481944296095118,0.004749756940205892,0.0,0.0,0.0,0.0,0.0,0.0,0.0,0.0,0.39,0.004749756940205892,0.0,0.0,0.0,0.0,0.0,0.0066162947025623,0.0,0.0,42.78499984741211,0.0,51.61449876918216,61.99780176064483,0.0,61.99780176064483,0.0
40,40,0.3966162947025623,2.0,2.0,2.0,2.0,62.0,62.0,62.0,61.0,32827.0,28225.0,32827.0,28392.0,32990.0,28004.0,32768.0,28049.0,12.389292163913495,0.8062218510627455,0.4974662212752946,-0.5350225191498036,2.0,2.0,3.0,2.0,-0.2459999999999993,-0.2459999999999993,-0.2449999999999993,-0.2469999999999993,38.0,0.0,293.0,198.0,0.0,0.0,0.0,0.0,-11.772000044584274,176.57999992370603,45.040000915527344,45.084999084472656,47.39500045776367,47.57500076293945,-12.179999792575837,25.0,38.0,0.0,0.0,45.040000915527344,0.0,0.0,0.0,0.0,-1111.702,-1111.702,0.0,38.0,9.500122070312544,0.0,0.0,15.500259399414102,2.0,25.0,62.0,0.0,0.00012502777841356076,0.004874784718619453,0.0,0.0,0.0,0.0,0.0,0.0,0.0,0.0,0.4,0.004874784718619453,0.0,0.0,0.0,0.0,0.0,0.0066162947025623,0.0,0.0,42.78499984741211,0.0,51.66819506956433,61.997799473810446,0.0,61.997799473810446,0.0
41,41,0.4066162947025623,2.0,2.0,2.0,2.0,62.0,62.0,62.0,61.0,32848.0,28251.0,32827.0,28378.0,32969.0,28069.0,32788.0,28106.0,12.404029760231891,0.405998999854706,0.8325460910015507,-0.8229098182874865,2.0,2.0,3.0,2.0,-0.2459999999999993,-0.2459999999999993,-0.2449999999999993,-0.2469999999999993,38.0,0.0,293.0,198.0,0.0,0.0,0.0,0.0,-14.714999496936798,167.75100231170654,44.94499969482422,45.17499923706055,47.20000076293945,47.334999084472656,-8.7,25.0,38.0,0.0,0.0,44.94499969482422,0.0,0.0,0.0,0.0,-1111.702,-1111.702,0.0,38.0,-14.500045776367175,0.0,0.0,-24.00016784667972,2.0,25.0,62.0,0.0,0.00012497916751437658,0.0049997638861338295,0.0,0.0,0.0,0.0,0.0,0.0,0.0,0.0,0.41,0.0049997638861338295,0.0,0.0,0.0,0.0,0.0,0.0066162947025623,0.0,0.0,42.78499984741211,0.0,51.58316950433878,61.997803094905166,0.0,61.997803094905166,0.0
42,42,0.4166162947025623,2.0,2.0,2.0,2.0,62.0,62.0,62.0,61.0,32809.0,28248.0,32827.0,28380.0,32969.0,28108.0,32768.0,28158.0,12.418542246962108,0.5021887914479917,0.3338713839456235,-0.6978112085520084,2.0,2.0,3.0,2.0,-0.2459999999999993,-0.2459999999999993,-0.2449999999999993,-0.2469999999999993,38.0,0.0,293.0,198.0,0.0,0.0,0.0,0.0,-11.772000044584274,167.75100231170654,45.09000015258789,45.16999816894531,47.27999877929688,47.26499938964844,-15.65999958515167,25.0,38.0,0.0,0.0,45.09000015258789,0.0,0.0,0.0,0.0,-1111.702,-1111.702,0.0,38.0,0.9998321533203116,0.0,0.0,15.499877929687486,2.0,25.0,62.0,0.0,0.00012504861089918362,0.005124812497033013,0.0,0.0,0.0,0.0,0.0,0.0,0.0,0.0,0.42,0.005124812497033013,0.0,0.0,0.0,0.0,0.0,0.0066162947025623,0.0,0.0,42.78499984741211,0.0,51.71292825943064,61.997797568699845,0.0,61.997797568699845,0.0
43,43,0.4266162947025623,2.0,2.0,2.0,2.0,62.0,62.0,62.0,61.0,32847.0,28274.0,32827.0,28363.0,32990.0,28155.0,32788.0,28191.0,12.432940928378656,0.0567294738267833,-0.0877411402677096,-0.3211529825511889,2.0,2.0,3.0,2.0,-0.2459999999999993,-0.2459999999999993,-0.2449999999999993,-0.2469999999999993,38.0,0.0,293.0,198.0,0.0,0.0,0.0,0.0,1.9619999453425407,170.69400548934937,45.08000183105469,45.290000915527344,47.29999923706055,47.27999877929688,-11.30999958515167,25.0,38.0,0.0,0.0,45.08000183105469,0.0,0.0,0.0,0.0,-1111.702,-1111.702,0.0,38.0,2.500152587890623,0.0,0.0,1.5003204345703112,2.0,25.0,62.0,0.0,0.00012523611386617038,0.005250048610899184,0.0,0.0,0.0,0.0,0.0,0.0,0.0,0.0,0.43,0.005250048610899184,0.0,0.0,0.0,0.0,0.0,0.0066162947025623,0.0,0.0,42.78499984741211,0.0,51.70398385991597,61.99779794962663,0.0,61.99779794962663,0.0
44,44,0.4366162947025623,2.0,2.0,2.0,2.0,62.0,62.0,62.0,61.0,32827.0,28301.0,32827.0,28357.0,32990.0,28149.0,32768.0,28212.0,12.44643704056428,0.5275457814016095,-0.2737598103003448,-0.3325065402002299,2.0,2.0,3.0,2.0,-0.2459999999999993,-0.2459999999999993,-0.2449999999999993,-0.2469999999999993,38.0,0.0,293.0,198.0,0.0,0.0,0.0,0.0,7.847999781370163,170.69400548934937,45.05500030517578,45.31999969482422,47.59000015258789,47.42499923706055,-4.35,25.0,38.0,0.0,0.0,45.05500030517578,0.0,0.0,0.0,0.0,-1111.702,-1111.702,0.0,38.0,-19.499969482421857,0.0,0.0,-22.00012207031248,2.0,25.0,62.0,0.0,0.00012518750296698687,0.005375236113866171,0.0,0.0,0.0,0.0,0.0,0.0,0.0,0.0,0.44,0.005375236113866171,0.0,0.0,0.0,0.0,0.0,0.0066162947025623,0.0,0.0,42.78499984741211,0.0,51.681615831797046,61.997798902242955,0.0,61.997798902242955,0.0
45,45,0.4466162947025623,2.0,2.0,2.0,2.0,62.0,62.0,62.0,61.0,32889.0,28293.0,32827.0,28352.0,32969.0,28159.0,32788.0,28225.0,12.460836060912229,0.5262142029377035,-0.1762142029377035,-0.5975715941245929,2.0,2.0,3.0,2.0,-0.2459999999999993,-0.2459999999999993,-0.2449999999999993,-0.2469999999999993,38.0,0.0,293.0,198.0,0.0,0.0,0.0,0.0,-1.9619999453425407,163.82700204849243,45.25,45.3650016784668,47.65499877929688,47.55500030517578,-6.089999896287917,25.0,38.0,0.0,0.0,45.25,0.0,0.0,0.0,0.0,-1111.702,-1111.702,0.0,38.0,-0.9998321533203116,0.0,0.0,18.500137329101545,2.0,25.0,62.0,0.0,0.0001254236115349665,0.005500659725401137,0.0,0.0,0.0,0.0,0.0,0.0,0.0,0.0,0.45,0.005500659725401137,0.0,0.0,0.0,0.0,0.0,0.0066162947025623,0.0,0.0,42.78499984741211,0.0,51.85600326051026,61.99779147537915,0.0,61.99779147537915,0.0
46,46,0.4566162947025623,2.0,2.0,2.0,2.0,62.0,62.0,62.0,61.0,32847.0,28306.0,32827.0,28352.0,33031.0,28168.0,32788.0,28254.0,12.476238145066237,0.1748638342993702,-0.0280739378622638,-0.5280739378622639,2.0,2.0,3.0,2.0,-0.2459999999999993,-0.2459999999999993,-0.2449999999999993,-0.2469999999999993,38.0,0.0,293.0,198.0,0.0,0.0,0.0,0.0,-17.65799969434738,180.50400018692017,45.2599983215332,45.39500045776367,47.72999954223633,47.595001220703125,-11.30999958515167,25.0,38.0,0.0,0.0,45.2599983215332,0.0,0.0,0.0,0.0,-1111.702,-1111.702,0.0,38.0,-0.5001068115234398,0.0,0.0,0.4997253417968718,2.0,25.0,62.0,0.0,0.00012570833100212958,0.005626368056403267,0.0,0.0,0.0,0.0,0.0,0.0,0.0,0.0,0.46,0.005626368056403267,0.0,0.0,0.0,0.0,0.0,0.0066162947025623,0.0,0.0,42.78499984741211,0.0,51.864940257348664,61.997791094767706,0.0,61.997791094767706,0.0
47,47,0.4666162947025623,2.0,2.0,2.0,2.0,62.0,62.0,62.0,61.0,32827.0,28323.0,32807.0,28372.0,32969.0,28183.0,32788.0,28298.0,12.492752629434994,0.304565516767396,0.1636524134139168,-0.0908689664652078,2.0,2.0,3.0,2.0,-0.2459999999999993,-0.2459999999999993,-0.2449999999999993,-0.2469999999999993,38.0,0.0,293.0,198.0,0.0,0.0,0.0,0.0,-1.9619999453425407,190.31399488449097,45.26499938964844,45.345001220703125,47.76499938964844,47.58000183105469,-8.7,25.0,38.0,0.0,0.0,45.26499938964844,0.0,0.0,0.0,0.0,-1111.702,-1111.702,0.0,38.0,-15.999984741210923,0.0,0.0,-15.499877929687484,2.0,25.0,62.0,0.0,0.0001257291634877517,0.005752097219891019,0.0,0.0,0.0,0.0,0.0,0.0,0.0,0.0,0.47,0.005752097219891019,0.0,0.0,0.0,0.0,0.0,0.0066162947025623,0.0,0.0,42.78499984741211,0.0,51.8694102976883,61.99779090439632,0.0,61.99779090439632,0.0
48,48,0.4766162947025623,2.0,2.0,2.0,2.0,62.0,62.0,62.0,61.0,32889.0,28315.0,32827.0,28379.0,32990.0,28239.0,32788.0,28366.0,12.508027387527203,0.5971476749703288,0.2,0.3295302332937718,2.0,2.0,3.0,2.0,-0.2459999999999993,-0.2459999999999993,-0.2449999999999993,-0.2469999999999993,38.0,0.0,293.0,198.0,0.0,0.0,0.0,0.0,-24.52500015497208,200.12400150299072,45.42499923706055,45.40999984741211,47.56999969482422,47.459999084472656,0.0,25.0,38.0,0.0,0.0,45.42499923706055,0.0,0.0,0.0,0.0,-1111.702,-1111.702,0.0,38.0,-9.000015258789054,0.0,0.0,6.99996948242187,2.0,25.0,62.0,0.0,0.00012595833142598482,0.005878055551317003,0.0,0.0,0.0,0.0,0.0,0.0,0.0,0.0,0.48,0.005878055551317003,0.0,0.0,0.0,0.0,0.0,0.0066162947025623,0.0,0.0,42.78499984741211,0.0,52.01236363859798,61.99778481625802,0.0,61.99778481625802,0.0
49,49,0.4866162947025623,2.0,2.0,2.0,2.0,62.0,62.0,62.0,61.0,32827.0,28310.0,32827.0,28390.0,32990.0,28282.0,32768.0,28416.0,12.521701599151443,0.4025835231313095,0.3237082384343452,0.2762917615656547,2.0,2.0,3.0,2.0,-0.2459999999999993,-0.2459999999999993,-0.2449999999999993,-0.2469999999999993,38.0,0.0,293.0,198.0,0.0,0.0,0.0,0.0,-11.772000044584274,176.57999992370603,45.51499938964844,45.45000076293945,47.619998931884766,47.43000030517578,6.9600001037120816,25.0,38.0,0.0,0.0,45.51499938964844,0.0,0.0,0.0,0.0,-1111.702,-1111.702,0.0,38.0,4.4998168945312464,0.0,0.0,13.4998321533203,2.0,25.0,62.0,0.0,0.00012630555364820704,0.006004361104965211,0.0,0.0,0.0,0.0,0.0,0.0,0.0,0.0,0.49,0.006004361104965211,0.0,0.0,0.0,0.0,0.0,0.0066162947025623,0.0,0.0,42.78499984741211,0.0,52.092726413579385,61.99778139374531,0.0,61.99778139374531,0.0
50,50,0.4966162947025623,2.0,2.0,2.0,2.0,62.0,62.0,62.0,61.0,32827.0,28327.0,32848.0,28405.0,32990.0,28332.0,32788.0,28458.0,12.53517410295305,0.0625413731662543,-0.1017206993101718,-0.1606551811910653,2.0,2.0,3.0,2.0,-0.2459999999999993,-0.2459999999999993,-0.2449999999999993,-0.2469999999999993,38.0,0.0,293.0,198.0,0.0,0.0,0.0,0.0,-7.847999781370163,170.69400548934937,45.470001220703125,45.47999954223633,47.61000061035156,47.52999877929688,4.35,25.0,38.0,0.0,0.0,45.470001220703125,0.0,0.0,0.0,0.0,-1111.702,-1111.702,0.0,38.0,-9.999847412109366,0.0,0.0,-14.499664306640613,2.0,25.0,62.0,0.0,0.0001263680564032662,0.006130729161368477,0.0,0.0,0.0,0.0,0.0,0.0,0.0,0.0,0.5,0.006130729161368477,0.0,0.0,0.0,0.0,0.0,0.0066162947025623,0.0,0.0,42.78499984741211,0.0,52.052551103469035,61.9977831047428,0.0,61.9977831047428,0.0
51,51,0.5066162947025623,2.0,2.0,2.0,2.0,62.0,62.0,62.0,61.0,32868.0,28328.0,32848.0,28411.0,32948.0,28330.0,32809.0,28479.0,12.5479487315221,0.079421274997547,-0.1205787250024529,-0.1308680875036794,2.0,2.0,3.0,2.0,-0.2459999999999993,-0.2459999999999993,-0.2449999999999993,-0.2469999999999993,38.0,0.0,293.0,198.0,0.0,0.0,0.0,0.0,-1.9619999453425407,167.75100231170654,45.56999969482422,45.56499862670898,47.8849983215332,47.650001525878906,-4.35,25.0,38.0,0.0,0.0,45.56999969482422,0.0,0.0,0.0,0.0,-1111.702,-1111.702,0.0,38.0,-8.000183105468743,0.0,0.0,1.9996643066406232,2.0,25.0,62.0,0.0,0.00012644444571601032,0.006257173607084487,0.0,0.0,0.0,0.0,0.0,0.0,0.0,0.0,0.51,0.006257173607084487,0.0,0.0,0.0,0.0,0.0,0.0066162947025623,0.0,0.0,42.78499984741211,0.0,52.14181997574183,61.997779302934894,0.0,61.997779302934894,0.0
52,52,0.5166162947025623,2.0,2.0,2.0,2.0,62.0,62.0,62.0,61.0,32868.0,28328.0,32827.0,28409.0,32990.0,28370.0,32788.0,28485.0,12.561762277212766,0.707437791487454,-0.5049585276583026,0.0214875582974908,2.0,2.0,3.0,2.0,-0.2459999999999993,-0.2459999999999993,-0.2449999999999993,-0.2469999999999993,38.0,0.0,293.0,198.0,0.0,0.0,0.0,0.0,4.904999956488609,167.75100231170654,45.650001525878906,45.665000915527344,47.82500076293945,47.81999969482422,-1.7400000259280204,25.0,38.0,0.0,0.0,45.650001525878906,0.0,0.0,0.0,0.0,-1111.702,-1111.702,0.0,38.0,2.500152587890623,0.0,0.0,10.500335693359366,2.0,25.0,62.0,0.0,0.00012669444613986556,0.006383868053224353,0.0,0.0,0.0,0.0,0.0,0.0,0.0,0.0,0.52,0.006383868053224353,0.0,0.0,0.0,0.0,0.0,0.0066162947025623,0.0,0.0,42.78499984741211,0.0,52.213206768964234,61.99777626269429,0.0,61.99777626269429,0.0
53,53,0.5266162947025623,2.0,2.0,2.0,2.0,62.0,62.0,62.0,61.0,32847.0,28344.0,32827.0,28413.0,32909.0,28370.0,32788.0,28481.0,12.57531555407362,0.5205840547663505,-0.8470619589252371,0.2147079726168247,2.0,2.0,3.0,2.0,-0.2459999999999993,-0.2459999999999993,-0.2449999999999993,-0.2469999999999993,38.0,0.0,293.0,198.0,0.0,0.0,0.0,0.0,-24.52500015497208,176.57999992370603,45.625,45.71500015258789,48.02000045776367,48.0,0.8700000129640102,25.0,38.0,0.0,0.0,45.625,0.0,0.0,0.0,0.0,-1111.702,-1111.702,0.0,38.0,-13.999938964843738,0.0,0.0,-16.50009155273436,2.0,25.0,62.0,0.0,0.00012677083545260972,0.006510638888676963,0.0,0.0,0.0,0.0,0.0,0.0,0.0,0.0,0.53,0.006510638888676963,0.0,0.0,0.0,0.0,0.0,0.0066162947025623,0.0,0.0,42.78499984741211,0.0,52.19090050396303,61.99777721267968,0.0,61.99777721267968,0.0
54,54,0.5366162947025623,2.0,2.0,2.0,2.0,62.0,62.0,62.0,61.0,32829.0,28337.0,32827.0,28424.0,32990.0,28365.0,32768.0,28497.0,12.588654665326755,0.5737890498904991,-0.7349479334793345,-0.1213671496714973,2.0,2.0,3.0,2.0,-0.2459999999999993,-0.2459999999999993,-0.2449999999999993,-0.2469999999999993,38.0,0.0,293.0,198.0,0.0,0.0,0.0,0.0,-4.904999956488609,170.69400548934937,45.76499938964844,45.72499847412109,48.150001525878906,48.06499862670898,4.35,25.0,38.0,0.0,0.0,45.76499938964844,0.0,0.0,0.0,0.0,-1111.702,-1111.702,0.0,38.0,-11.00006103515624,0.0,0.0,2.9998779296874982,2.0,25.0,62.0,0.0,0.00012693055470784517,0.006637569443384808,0.0,0.0,0.0,0.0,0.0,0.0,0.0,0.0,0.54,0.006637569443384808,0.0,0.0,0.0,0.0,0.0,0.0066162947025623,0.0,0.0,42.78499984741211,0.0,52.31577283734647,61.99777189458248,0.0,61.99777189458248,0.0
55,55,0.5466162947025623,2.0,2.0,2.0,2.0,62.0,62.0,62.0,61.0,32847.0,28331.0,32807.0,28443.0,32969.0,28341.0,32788.0,28522.0,12.601535129429108,0.3523466217909242,-0.782551126069692,-0.3651022521393839,2.0,2.0,3.0,2.0,-0.2459999999999993,-0.2459999999999993,-0.2449999999999993,-0.2469999999999993,38.0,0.0,293.0,198.0,0.0,0.0,0.0,0.0,-24.52500015497208,173.63699674606323,45.875,45.720001220703125,48.34000015258789,47.97999954223633,-3.4800000518560408,25.0,38.0,0.0,0.0,45.875,0.0,0.0,0.0,0.0,-1111.702,-1111.702,0.0,38.0,0.0,0.0,0.0,11.00006103515624,2.0,25.0,62.0,0.0,0.0001272777769300674,0.006764847220314876,0.0,0.0,0.0,0.0,0.0,0.0,0.0,0.0,0.55,0.006764847220314876,0.0,0.0,0.0,0.0,0.0,0.0066162947025623,0.0,0.0,42.78499984741211,0.0,52.41382883289726,61.99776771854737,0.0,61.99776771854737,0.0
56,56,0.5566162947025624,2.0,2.0,2.0,2.0,62.0,62.0,62.0,61.0,32827.0,28334.0,32768.0,28464.0,33010.0,28354.0,32768.0,28520.0,12.615281853164625,0.0154559089526966,-0.6780525324082985,-0.156105064816597,2.0,2.0,3.0,2.0,-0.2459999999999993,-0.2459999999999993,-0.2449999999999993,-0.2469999999999993,38.0,0.0,293.0,198.0,0.0,0.0,0.0,0.0,10.790999978780746,167.75100231170654,45.875,45.7400016784668,48.27000045776367,48.10499954223633,-6.9600001037120816,25.0,38.0,0.0,0.0,45.875,0.0,0.0,0.0,0.0,-1111.702,-1111.702,0.0,38.0,-0.9998321533203116,0.0,0.0,-0.9998321533203116,2.0,25.0,62.0,0.0,0.00012743055555555568,0.006892277775870432,0.0,0.0,0.0,0.0,0.0,0.0,0.0,0.0,0.56,0.006892277775870432,0.0,0.0,0.0,0.0,0.0,0.0066162947025623,0.0,0.0,42.78499984741211,0.0,52.41382883289726,61.99776771854737,0.0,61.99776771854737,0.0
57,57,0.5666162947025624,2.0,2.0,2.0,2.0,62.0,62.0,62.0,61.0,32827.0,28343.0,32827.0,28502.0,32990.0,28339.0,32829.0,28528.0,12.628461956048032,-0.3349043267567385,0.1640123621621101,-0.0185987637837889,2.0,2.0,3.0,2.0,-0.2459999999999993,-0.2459999999999993,-0.2449999999999993,-0.2469999999999993,38.0,0.0,293.0,198.0,0.0,0.0,0.0,0.0,-7.847999781370163,180.50400018692017,45.8849983215332,45.68999862670898,48.40499877929688,48.16999816894531,-1.7400000259280204,25.0,38.0,0.0,0.0,45.8849983215332,0.0,0.0,0.0,0.0,-1111.702,-1111.702,0.0,38.0,-6.000137329101624,0.0,0.0,-5.000305175781312,2.0,25.0,62.0,0.0,0.00012744444211324068,0.007019722217983673,0.0,0.0,0.0,0.0,0.0,0.0,0.0,0.0,0.5700000000000001,0.007019722217983673,0.0,0.0,0.0,0.0,0.0,0.0066162947025623,0.0,0.0,42.78499984741211,0.0,52.42273890255827,61.99776733908295,0.0,61.99776733908295,0.0
58,58,0.5766162947025623,2.0,2.0,2.0,2.0,62.0,62.0,62.0,61.0,32829.0,28344.0,32827.0,28483.0,32948.0,28337.0,32788.0,28499.0,12.640877012080724,-0.1119821792651201,0.4734362088863771,0.0822908059242514,2.0,2.0,3.0,2.0,-0.2459999999999993,-0.2459999999999993,-0.2449999999999993,-0.2469999999999993,38.0,0.0,293.0,198.0,0.0,0.0,0.0,0.0,-11.772000044584274,160.8839988708496,45.94499969482422,45.97999954223633,48.43000030517578,48.33000183105469,0.0,25.0,38.0,0.0,0.0,45.94499969482422,0.0,0.0,0.0,0.0,-1111.702,-1111.702,0.0,38.0,-3.4999847412109344,0.0,0.0,2.5001525878906894,2.0,25.0,62.0,0.0,0.00012754166391160622,0.007147263881895279,0.0,0.0,0.0,0.0,0.0,0.0,0.0,0.0,0.58,0.007147263881895279,0.0,0.0,0.0,0.0,0.0,0.0066162947025623,0.0,0.0,42.78499984741211,0.0,52.476200550280296,61.99776506224414,0.0,61.99776506224414,0.0
59,59,0.5866162947025623,2.0,2.0,2.0,2.0,62.0,62.0,62.0,61.0,32847.0,28347.0,32827.0,28474.0,32990.0,28290.0,32829.0,28484.0,12.653417901462824,-0.7936688371723406,0.4586850646015366,-0.1892045477892435,2.0,2.0,3.0,2.0,-0.2459999999999993,-0.2459999999999993,-0.2449999999999993,-0.2469999999999993,38.0,0.0,293.0,198.0,0.0,0.0,0.0,0.0,-4.904999956488609,160.8839988708496,45.97999954223633,46.08000183105469,48.70500183105469,48.47499847412109,1.7400000259280204,25.0,38.0,0.0,0.0,45.97999954223633,0.0,0.0,0.0,0.0,-1111.702,-1111.702,0.0,38.0,-6.999969482421869,0.0,0.0,-3.4999847412109344,2.0,25.0,62.0,0.0,0.0001276736100514731,0.007274937491946752,0.0,0.0,0.0,0.0,0.0,0.0,0.0,0.0,0.59,0.007274937491946752,0.0,0.0,0.0,0.0,0.0,0.0066162947025623,0.0,0.0,42.78499984741211,0.0,52.507378568153136,61.99776373442653,0.0,61.99776373442653,0.0
60,60,0.5966162947025623,2.0,2.0,2.0,2.0,62.0,62.0,62.0,61.0,32847.0,28352.0,32869.0,28457.0,32969.0,28267.0,32768.0,28459.0,12.6668762526944,-0.8673829773885522,0.4086914886942761,-0.25,2.0,2.0,3.0,2.0,-0.2459999999999993,-0.2459999999999993,-0.2449999999999993,-0.2469999999999993,38.0,0.0,293.0,198.0,0.0,0.0,0.0,0.0,-4.904999956488609,160.8839988708496,46.04999923706055,46.20000076293945,48.7400016784668,48.55500030517578,-4.35,25.0,38.0,0.0,0.0,46.04999923706055,0.0,0.0,0.0,0.0,-1111.702,-1111.702,0.0,38.0,0.9998321533203116,0.0,0.0,7.99980163574218,2.0,25.0,62.0,0.0,0.00012781944274902355,0.0074027569346957756,0.0,0.0,0.0,0.0,0.0,0.0,0.0,0.0,0.6,0.0074027569346957756,0.0,0.0,0.0,0.0,0.0,0.0066162947025623,0.0,0.0,42.78499984741211,0.0,52.569718946523416,61.99776107945826,0.0,61.99776107945826,0.0
61,61,0.6066162947025623,2.0,2.0,2.0,2.0,62.0,62.0,62.0,61.0,32809.0,28369.0,32869.0,28462.0,32969.0,28239.0,32788.0,28448.0,12.681101424672905,-0.85,-0.2874611563555831,-0.2904388915503284,2.0,2.0,3.0,2.0,-0.2459999999999993,-0.2459999999999993,-0.2449999999999993,-0.2469999999999993,38.0,0.0,293.0,198.0,0.0,0.0,0.0,0.0,1.9619999453425407,173.63699674606323,46.040000915527344,46.165000915527344,48.81499862670898,48.630001068115234,-4.35,25.0,38.0,0.0,0.0,46.040000915527344,0.0,0.0,0.0,0.0,-1111.702,-1111.702,0.0,38.0,-22.499847412109354,0.0,0.0,-23.499679565429666,2.0,25.0,62.0,0.0,0.00012790277798970553,0.007530659712685481,0.0,0.0,0.0,0.0,0.0,0.0,0.0,0.0,0.61,0.007530659712685481,0.0,0.0,0.0,0.0,0.0,0.0066162947025623,0.0,0.0,42.78499984741211,0.0,52.560815911074776,61.99776145862303,0.0,61.99776145862303,0.0
62,62,0.6166162947025623,2.0,2.0,2.0,2.0,62.0,62.0,62.0,61.0,32847.0,28347.0,32827.0,28468.0,32990.0,28265.0,32768.0,28435.0,12.695643032998731,-0.3233072940059731,-0.3689703529239959,-0.0163962352339854,2.0,2.0,3.0,2.0,-0.2459999999999993,-0.2459999999999993,-0.2449999999999993,-0.2469999999999993,38.0,0.0,293.0,198.0,0.0,0.0,0.0,0.0,-17.65799969434738,180.50400018692017,46.26499938964844,46.19499969482422,48.61000061035156,48.6349983215332,-5.220000207424164,25.0,38.0,0.0,0.0,46.26499938964844,0.0,0.0,0.0,0.0,-1111.702,-1111.702,0.0,38.0,-13.000106811523425,0.0,0.0,9.499740600585929,2.0,25.0,62.0,0.0,0.00012820138931274427,0.007658861101998225,0.0,0.0,0.0,0.0,0.0,0.0,0.0,0.0,0.62,0.007658861101998225,0.0,0.0,0.0,0.0,0.0,0.0066162947025623,0.0,0.0,42.78499984741211,0.0,52.76106377204178,61.99775293041618,0.0,61.99775293041618,0.0
63,63,0.6266162947025623,2.0,2.0,2.0,2.0,62.0,62.0,62.0,61.0,32847.0,28331.0,32848.0,28462.0,32948.0,28281.0,32768.0,28417.0,12.710617746388747,-0.3229859339309059,-0.309004688689698,-0.2779624904824157,2.0,2.0,3.0,2.0,-0.2459999999999993,-0.2459999999999993,-0.2449999999999993,-0.2469999999999993,38.0,0.0,293.0,198.0,0.0,0.0,0.0,0.0,-7.847999781370163,180.50400018692017,46.39500045776367,46.27000045776367,48.6150016784668,48.71500015258789,0.8700000129640102,25.0,38.0,0.0,0.0,46.39500045776367,0.0,0.0,0.0,0.0,-1111.702,-1111.702,0.0,38.0,4.999923706054683,0.0,0.0,18.000030517578107,2.0,25.0,62.0,0.0,0.00012869444423251695,0.007787555546230742,0.0,0.0,0.0,0.0,0.0,0.0,0.0,0.0,0.63,0.007787555546230742,0.0,0.0,0.0,0.0,0.0,0.0066162947025623,0.0,0.0,42.78499984741211,0.0,52.87666658488503,61.997748007095076,0.0,61.997748007095076,0.0
64,64,0.6366162947025623,2.0,2.0,2.0,2.0,62.0,62.0,62.0,61.0,32847.0,28335.0,32848.0,28481.0,32990.0,28335.0,32768.0,28379.0,12.724685114839026,0.1039571191481169,-0.1761935129596044,-0.35,2.0,2.0,3.0,2.0,-0.2459999999999993,-0.2459999999999993,-0.2449999999999993,-0.2469999999999993,38.0,0.0,293.0,198.0,0.0,0.0,0.0,0.0,-14.714999496936798,173.63699674606323,46.345001220703125,46.220001220703125,48.45500183105469,48.845001220703125,-6.089999896287917,25.0,38.0,0.0,0.0,46.345001220703125,0.0,0.0,0.0,0.0,-1111.702,-1111.702,0.0,38.0,-12.999725341796154,0.0,0.0,-17.999649047850838,2.0,25.0,62.0,0.0,0.00012880555788675956,0.007916361104117501,0.0,0.0,0.0,0.0,0.0,0.0,0.0,0.0,0.64,0.007916361104117501,0.0,0.0,0.0,0.0,0.0,0.0066162947025623,0.0,0.0,42.78499984741211,0.0,52.832213452507716,61.99774990027597,0.0,61.99774990027597,0.0
65,65,0.6466162947025623,2.0,2.0,2.0,2.0,62.0,62.0,62.0,61.0,32827.0,28318.0,32807.0,28490.0,32969.0,28362.0,32747.0,28348.0,12.738598537821456,0.1173504730924052,-0.2326495269075948,-0.143376182731013,2.0,2.0,3.0,2.0,-0.2459999999999993,-0.2459999999999993,-0.2449999999999993,-0.2469999999999993,38.0,0.0,293.0,198.0,0.0,0.0,0.0,0.0,-4.904999956488609,167.75100231170654,46.47499847412109,46.28499984741211,48.54999923706055,49.005001068115234,-6.089999896287917,25.0,38.0,0.0,0.0,46.47499847412109,0.0,0.0,0.0,0.0,-1111.702,-1111.702,0.0,38.0,4.9999237060539725,0.0,0.0,17.999649047850127,2.0,25.0,62.0,0.0,0.00012891666624281154,0.008045277770360314,0.0,0.0,0.0,0.0,0.0,0.0,0.0,0.0,0.65,0.008045277770360314,0.0,0.0,0.0,0.0,0.0,0.0066162947025623,0.0,0.0,42.78499984741211,0.0,52.94776900504654,61.997744978967994,0.0,61.997744978967994,0.0
66,66,0.6566162947025623,2.0,2.0,2.0,2.0,62.0,62.0,62.0,61.0,32868.0,28329.0,32869.0,28485.0,32990.0,28403.0,32768.0,28323.0,12.753380778080864,0.1,-0.1278807613470144,-0.1407064128843285,2.0,2.0,3.0,2.0,-0.2459999999999993,-0.2459999999999993,-0.2449999999999993,-0.2469999999999993,38.0,0.0,293.0,198.0,0.0,0.0,0.0,0.0,-1.9619999453425407,173.63699674606323,46.42499923706055,46.39500045776367,48.54499816894531,49.0099983215332,-1.7400000259280204,25.0,38.0,0.0,0.0,46.42499923706055,0.0,0.0,0.0,0.0,-1111.702,-1111.702,0.0,38.0,-17.0001983642578,0.0,0.0,-22.00012207031177,2.0,25.0,62.0,0.0,0.00012902777459886352,0.008174305544959177,0.0,0.0,0.0,0.0,0.0,0.0,0.0,0.0,0.66,0.008174305544959177,0.0,0.0,0.0,0.0,0.0,0.0066162947025623,0.0,0.0,42.78499984741211,0.0,52.90333272696133,61.997746871430934,0.0,61.997746871430934,0.0
67,67,0.6666162947025623,2.0,2.0,2.0,2.0,62.0,62.0,62.0,61.0,32827.0,28306.0,32848.0,28484.0,32990.0,28405.0,32788.0,28270.0,12.767507181477216,0.4246840088674465,-0.0594144988915691,0.3776115144096006,2.0,2.0,3.0,2.0,-0.2459999999999993,-0.2459999999999993,-0.2449999999999993,-0.2469999999999993,38.0,0.0,293.0,198.0,0.0,0.0,0.0,0.0,27.46799886226654,176.57999992370603,46.595001220703125,46.470001220703125,48.76499938964844,49.15499877929688,-2.610000103712082,25.0,38.0,0.0,0.0,46.595001220703125,0.0,0.0,0.0,0.0,-1111.702,-1111.702,0.0,38.0,-4.4998168945312464,0.0,0.0,12.500381469726552,2.0,25.0,62.0,0.0,0.00012919444508022746,0.008303499990039404,0.0,0.0,0.0,0.0,0.0,0.0,0.0,0.0,0.67,0.008303499990039404,0.0,0.0,0.0,0.0,0.0,0.0066162947025623,0.0,0.0,42.78499984741211,0.0,53.05437725870536,61.997740438710345,0.0,61.997740438710345,0.0
68,68,0.6766162947025623,2.0,2.0,2.0,2.0,62.0,62.0,62.0,61.0,32847.0,28296.0,32827.0,28495.0,32990.0,28417.0,32809.0,28210.0,12.780413355504257,0.3351793895643644,-0.05,-0.0768721365247245,2.0,2.0,3.0,2.0,-0.2459999999999993,-0.2459999999999993,-0.2449999999999993,-0.2469999999999993,38.0,0.0,293.0,198.0,0.0,0.0,0.0,0.0,-11.772000044584274,163.82700204849243,46.63999938964844,46.47999954223633,48.82500076293945,49.310001373291016,8.7,25.0,38.0,0.0,0.0,46.63999938964844,0.0,0.0,0.0,0.0,-1111.702,-1111.702,0.0,38.0,1.4999389648437487,0.0,0.0,5.999755859374995,2.0,25.0,62.0,0.0,0.00012949305640326617,0.008432993046442669,0.0,0.0,0.0,0.0,0.0,0.0,0.0,0.0,0.68,0.008432993046442669,0.0,0.0,0.0,0.0,0.0,0.0066162947025623,0.0,0.0,42.78499984741211,0.0,53.094337234718786,61.99773873688553,0.0,61.99773873688553,0.0
69,69,0.6866162947025624,2.0,2.0,2.0,2.0,62.0,62.0,62.0,61.0,32827.0,28299.0,32848.0,28499.0,32969.0,28398.0,32788.0,28145.0,12.792914667585398,0.7129588739753662,0.2390712117827563,-0.0761123378073901,2.0,2.0,3.0,2.0,-0.2459999999999993,-0.2459999999999993,-0.2449999999999993,-0.2469999999999993,38.0,0.0,293.0,198.0,0.0,0.0,0.0,0.0,7.847999781370163,144.20700073242188,46.625,46.52999877929688,49.03499984741211,49.5,-3.4800000518560408,25.0,38.0,0.0,0.0,46.625,0.0,0.0,0.0,0.0,-1111.702,-1111.702,0.0,38.0,-11.500167846679677,0.0,0.0,-13.000106811523425,2.0,25.0,62.0,0.0,0.00012953472137451185,0.00856252776781718,0.0,0.0,0.0,0.0,0.0,0.0,0.0,0.0,0.6900000000000001,0.00856252776781718,0.0,0.0,0.0,0.0,0.0,0.0066162947025623,0.0,0.0,42.78499984741211,0.0,53.08101818552144,61.9977393041203,0.0,61.9977393041203,0.0
